[{"nickname": "ckg", "fingerprint": "00367893160E9E58BC6101858E543EE6D0A22BC1", "or_addresses": ["186.104.192.2:9001"], "flags": ["Fast", "Running", "V2Dir", "Valid"], "country": "cl", "consensus_weight": 680, "observed_bandwidth": 1553491, "advertised_bandwidth": 1553491, "exit_policy": ["reject *:*"], "ipv4_address": "186.104.192.2", "latitude": -33.4521, "longitude": -70.6536, "distance": 12821.254733761469}, {"nickname": "a9", "fingerprint": "006AE565CA934C6EE5E82FC64008D61426E8C317", "or_addresses": ["5.9.12.251:9001", "[2a01:4f8:160:82d4::2]:9001"], "flags": ["Fast", "HSDir", "Running", "Stable", "V2Dir", "Valid"], "country": "de", "consensus_weight": 69000, "observed_bandwidth": 59223708, "advertised_bandwidth": 59223708, "exit_policy": ["reject *:*"], "ipv4_address": "5.9.12.251", "latitude": 51.2993, "longitude": 9.491, "distance": 1099.7627743542018}, {"nickname": "GuyaGuya2", "fingerprint": "006F965E89A9C3A61C9F08A6B31C28F66AF218FD", "or_addresses": ["200.25.16.77:443"], "flags": ["BadExit", "Fast", "MiddleOnly", "Running", "Stable", "Valid"], "country": "br", "consensus_weight": 1100, "observed_bandwidth": 3250009, "advertised_bandwidth": 3250009, "exit_policy": ["reject 0.0.0.0/8:*", "reject 169.254.0.0/16:*", "reject 127.0.0.0/8:*", "reject 192.168.0.0/16:*", "reject 10.0.0.0/8:*", "reject 172.16.0.0/12:*", "reject 200.25.16.77:*", "accept *:20-21", "accept *:43", "accept *:53", "accept *:80", "accept *:110", "accept *:143", "accept *:220", "accept *:443", "accept *:873", "accept *:989-990", "accept *:991", "accept *:992", "accept *:993", "accept *:995", "accept *:1194", "accept *:1293", "accept *:3690", "accept *:4321", "accept *:5222-5223", "accept *:5228", "accept *:9418", "accept *:11371", "accept *:64738", "reject *:*"], "ipv4_address": "200.25.16.77", "latitude": -15.7783, "longitude": -47.9319, "distance": 10016.75840795372}, {"nickname": "venenata", "fingerprint": "0077DDDDB54954214CFEE0FE8AA85DDC857E7C8A", "or_addresses": ["71.19.144.65:9001", "[2605:2700:0:2:a800:ff:fe2c:cd37]:9001"], "flags": ["Fast", "Running", "Stable", "Valid"], "country": "us", "consensus_weight": 4800, "observed_bandwidth": 6681406, "advertised_bandwidth": 6681406, "exit_policy": ["reject *:*"], "ipv4_address": "71.19.144.65", "latitude": 37.353, "longitude": -121.9543, "distance": 8281.564435429553}, {"nickname": "HandsofGoldSpa", "fingerprint": "0082C49022C0811D45620D408E068835E2BABA71", "or_addresses": ["176.118.193.106:443"], "flags": ["BadExit", "Fast", "MiddleOnly", "Running", "Stable", "Valid"], "country": "de", "consensus_weight": 120, "observed_bandwidth": 137199, "advertised_bandwidth": 137199, "exit_policy": ["reject 0.0.0.0/8:*", "reject 169.254.0.0/16:*", "reject 127.0.0.0/8:*", "reject 192.168.0.0/16:*", "reject 10.0.0.0/8:*", "reject 172.16.0.0/12:*", "reject 176.118.193.106:*", "accept *:20-21", "accept *:43", "accept *:53", "accept *:80-81", "accept *:443", "accept *:5222-5223", "accept *:6667-7000", "accept *:8008", "accept *:8082", "accept *:8332-8333", "accept *:8888", "accept *:9418", "accept *:18080-18081", "accept *:50002", "accept *:64738", "reject *:*"], "ipv4_address": "176.118.193.106", "latitude": 48.2048, "longitude": 16.3801, "distance": 1472.502236723271}, {"nickname": "BlackBeluga", "fingerprint": "00962D2DD0B9BF3A6AF1D5EB201132388ACA1424", "or_addresses": ["5.189.155.39:9001"], "flags": ["Fast", "Running", "Stable", "V2Dir", "Valid"], "country": "de", "consensus_weight": 360, "observed_bandwidth": 1103872, "advertised_bandwidth": 1048576, "exit_policy": ["reject *:*"], "ipv4_address": "5.189.155.39", "latitude": 49.405, "longitude": 11.1617, "distance": 1304.4805987690977}, {"nickname": "l25", "fingerprint": "00C4B91374AC790CB2F3865D2F36F62DF27F0A0F", "or_addresses": ["185.66.141.125:9001"], "flags": ["Fast", "Running", "Stable", "Valid"], "country": "nl", "consensus_weight": 91, "observed_bandwidth": 898215, "advertised_bandwidth": 409600, "exit_policy": ["reject *:*"], "ipv4_address": "185.66.141.125", "latitude": 17.2528, "longitude": -88.7465, "distance": 8865.461280716183}, {"nickname": "pentesting3", "fingerprint": "00C849D3FFB9D1B3AF22C0FC46D12170BD4AC7B7", "or_addresses": ["5.75.184.204:9001", "[2a01:4f8:1c1e:5f49::1]:9001"], "flags": ["Fast", "Running", "Stable", "Valid"], "country": "de", "consensus_weight": 14000, "observed_bandwidth": 10575709, "advertised_bandwidth": 10485760, "exit_policy": ["reject *:*"], "ipv4_address": "5.75.184.204", "latitude": 51.2993, "longitude": 9.491, "distance": 1099.7627743542018}, {"nickname": "bang1", "fingerprint": "0136696B025AC5503847D736FE9F3D65EB27A596", "or_addresses": ["134.209.159.74:443", "[2400:6180:100:d0::8bb:6001]:443"], "flags": ["Fast", "HSDir", "Running", "Stable", "V2Dir", "Valid"], "country": "us", "consensus_weight": 1000, "observed_bandwidth": 3731013, "advertised_bandwidth": 3731013, "exit_policy": ["reject *:*"], "ipv4_address": "134.209.159.74", "latitude": 12.9634, "longitude": 77.5855, "distance": 7483.664608633925}, {"nickname": "insist", "fingerprint": "014BD09636373B78CC28BA70E36C7190E3DE236A", "or_addresses": ["5.57.243.47:993"], "flags": ["Fast", "Running", "V2Dir", "Valid"], "country": "se", "consensus_weight": 19000, "observed_bandwidth": 12860416, "advertised_bandwidth": 12860416, "exit_policy": ["reject *:*"], "ipv4_address": "5.57.243.47", "latitude": 56.8746, "longitude": 14.8124, "distance": 512.7789105972133}, {"nickname": "marsmellow", "fingerprint": "014EE24BCBDA160F236B2547A4639B27E303A1E7", "or_addresses": ["20.224.145.181:443"], "flags": ["Fast", "Running", "Stable", "Valid"], "country": "us", "consensus_weight": 510, "observed_bandwidth": 1076498, "advertised_bandwidth": 1048576, "exit_policy": ["reject *:*"], "ipv4_address": "20.224.145.181", "latitude": 52.3759, "longitude": 4.8975, "distance": 1049.7241763614602}, {"nickname": "only4tor", "fingerprint": "015C28BE701E3498648CBDA551EC63EB55672332", "or_addresses": ["103.216.220.36:57047"], "flags": ["Fast", "Running", "V2Dir", "Valid"], "country": "au", "consensus_weight": 580, "observed_bandwidth": 2643428, "advertised_bandwidth": 2643428, "exit_policy": ["reject *:*"], "ipv4_address": "103.216.220.36", "latitude": -33.494, "longitude": 143.2104, "distance": 15433.112494458013}, {"nickname": "ForetNoire", "fingerprint": "016EF8E22BEEA81F30535974EC31B6943697CA8B", "or_addresses": ["5.135.182.131:9001", "[2001:41d0:8:bd83::1]:9001"], "flags": ["Fast", "HSDir", "Running", "Stable", "V2Dir", "Valid"], "country": "fr", "consensus_weight": 1200, "observed_bandwidth": 4694454, "advertised_bandwidth": 1048576, "exit_policy": ["reject *:*"], "ipv4_address": "5.135.182.131", "latitude": 49.209, "longitude": 2.1891, "distance": 1445.607837185805}, {"nickname": "Bigdaddy", "fingerprint": "017B08CC163424CD6ABA4ADD4042B4174D494732", "or_addresses": ["185.21.217.32:10042"], "flags": ["Fast", "Running", "Stable", "Valid"], "country": "gb", "consensus_weight": 49000, "observed_bandwidth": 42696323, "advertised_bandwidth": 42696323, "exit_policy": ["reject *:*"], "ipv4_address": "185.21.217.32", "latitude": 51.4964, "longitude": -0.1224, "distance": 1281.0843613921256}, {"nickname": "raptor", "fingerprint": "017D97BB0F281C34972091C0792BF27198B674E5", "or_addresses": ["135.23.213.107:9001"], "flags": ["Fast", "Running", "Stable", "V2Dir", "Valid"], "country": "ca", "consensus_weight": 410, "observed_bandwidth": 1074176, "advertised_bandwidth": 1048576, "exit_policy": ["reject *:*"], "ipv4_address": "135.23.213.107", "latitude": 43.648, "longitude": -79.4141, "distance": 5912.31821900431}, {"nickname": "LeftBehind1", "fingerprint": "019E20E352481BD45A3CE7D6691A10FB531850FB", "or_addresses": ["49.242.229.235:443"], "flags": ["Fast", "HSDir", "Running", "Stable", "V2Dir", "Valid"], "country": "jp", "consensus_weight": 400, "observed_bandwidth": 1493553, "advertised_bandwidth": 1493553, "exit_policy": ["reject *:*"], "ipv4_address": "49.242.229.235", "latitude": 33.1999, "longitude": 129.87, "distance": 8157.103231850774}, {"nickname": "viola", "fingerprint": "01E7C452C18C7E1077BDBC9E852D7660C380622C", "or_addresses": ["71.29.253.171:443"], "flags": ["Fast", "Running", "Stable", "V2Dir", "Valid"], "country": "us", "consensus_weight": 5100, "observed_bandwidth": 7149568, "advertised_bandwidth": 5242880, "exit_policy": ["reject *:*"], "ipv4_address": "71.29.253.171", "latitude": 37.9874, "longitude": -84.4804, "distance": 6672.253905744709}, {"nickname": "SofiaLamb", "fingerprint": "01F2BF8CBD0BA82B5354D01BE4AF249C2C73B038", "or_addresses": ["185.21.217.29:10131"], "flags": ["Fast", "Running", "Stable", "Valid"], "country": "gb", "consensus_weight": 53000, "observed_bandwidth": 47694873, "advertised_bandwidth": 47694873, "exit_policy": ["reject *:*"], "ipv4_address": "185.21.217.29", "latitude": 51.4964, "longitude": -0.1224, "distance": 1281.0843613921256}, {"nickname": "RS1Lselectel", "fingerprint": "01FF9C8571D1C09FA8D2ACCE727D5530FEC10038", "or_addresses": ["31.184.218.180:9001"], "flags": ["Fast", "HSDir", "Running", "Stable", "V2Dir", "Valid"], "country": "ru", "consensus_weight": 3200, "observed_bandwidth": 3521875, "advertised_bandwidth": 3521875, "exit_policy": ["reject *:*"], "ipv4_address": "31.184.218.180", "latitude": 59.9417, "longitude": 30.3096, "distance": 1040.776783343206}, {"nickname": "tor103IPConnectINFO", "fingerprint": "021325CC77E58EFAC09CC621E2E22C2809AF85C7", "or_addresses": ["194.147.140.103:143"], "flags": ["Fast", "Running", "V2Dir", "Valid"], "country": "eu", "consensus_weight": 4000, "observed_bandwidth": 6431744, "advertised_bandwidth": 6431744, "exit_policy": ["reject *:*"], "ipv4_address": "194.147.140.103", "latitude": 47.9077, "longitude": 106.8832, "distance": 5758.769737094494}, {"nickname": "Assange029us", "fingerprint": "02648F2F135C7296A27B1F59D2AE4EEC25D9A877", "or_addresses": ["104.194.235.104:9001"], "flags": ["Fast", "Running", "Stable", "Valid"], "country": "us", "consensus_weight": 3100, "observed_bandwidth": 4185178, "advertised_bandwidth": 3449815, "exit_policy": ["reject *:*"], "ipv4_address": "104.194.235.104", "latitude": 34.413, "longitude": -118.4269, "distance": 8466.209132402815}, {"nickname": "zagreus", "fingerprint": "02740F472D1DA5C1B77475F18940FE79F15AF4B8", "or_addresses": ["81.169.222.158:9001", "[2a01:238:4224:8d00:f3a9:25e6:4cb6:f3d]:9001"], "flags": ["Fast", "HSDir", "Running", "Stable", "V2Dir", "Valid"], "country": "de", "consensus_weight": 510, "observed_bandwidth": 1023877, "advertised_bandwidth": 1023877, "exit_policy": ["reject *:*"], "ipv4_address": "81.169.222.158", "latitude": 51.2993, "longitude": 9.491, "distance": 1099.7627743542018}, {"nickname": "LV426", "fingerprint": "02A59412DE589A009369BCBF81E56F0D64B3B464", "or_addresses": ["141.147.54.226:9001"], "flags": ["Fast", "Running", "Stable", "V2Dir", "Valid"], "country": "se", "consensus_weight": 20, "observed_bandwidth": 1026111, "advertised_bandwidth": 1026111, "exit_policy": ["reject *:*"], "ipv4_address": "141.147.54.226", "latitude": 50.1049, "longitude": 8.6295, "distance": 1238.3222753938524}, {"nickname": "Shado", "fingerprint": "02B4B5B92EE60D5317A0DB301175737AB8F1718A", "or_addresses": ["152.70.140.84:9001"], "flags": ["Fast", "Running", "Stable", "Valid"], "country": "us", "consensus_weight": 4000, "observed_bandwidth": 6402233, "advertised_bandwidth": 6291456, "exit_policy": ["reject *:*"], "ipv4_address": "152.70.140.84", "latitude": 33.4656, "longitude": -111.9956, "distance": 8325.21652348011}, {"nickname": "bigtits", "fingerprint": "02D7A3058F5DBC0A02AA48BB1F0412C52DF86B92", "or_addresses": ["178.18.94.247:9001", "[2a02:348:62:5ef7::1]:9001"], "flags": ["Fast", "Running", "Stable", "Valid"], "country": "nl", "consensus_weight": 82, "observed_bandwidth": 388971, "advertised_bandwidth": 388971, "exit_policy": ["reject *:*"], "ipv4_address": "178.18.94.247", "latitude": 52.3824, "longitude": 4.8995, "distance": 1048.9971128437512}, {"nickname": "Basil", "fingerprint": "030651D6401349BFC9D5283A1E53ECAA679EB6ED", "or_addresses": ["145.40.203.242:9001"], "flags": ["Fast", "Running", "Stable", "V2Dir", "Valid"], "country": "ch", "consensus_weight": 3500, "observed_bandwidth": 3705856, "advertised_bandwidth": 3705856, "exit_policy": ["reject *:*"], "ipv4_address": "145.40.203.242", "latitude": 47.3989, "longitude": 8.4965, "distance": 1538.556479588805}, {"nickname": "ElDavo", "fingerprint": "030ED2A606603ECBA954B928B81CEB35B8DC62C2", "or_addresses": ["95.235.46.18:443"], "flags": ["Fast", "Running", "V2Dir", "Valid"], "country": "it", "consensus_weight": 4500, "observed_bandwidth": 5297152, "advertised_bandwidth": 5297152, "exit_policy": ["reject *:*"], "ipv4_address": "95.235.46.18", "latitude": 44.799, "longitude": 10.3234, "distance": 1818.0378008765322}, {"nickname": "TorUk2", "fingerprint": "0318F32C914B86718C0AFAB8B690AF559C38DD7A", "or_addresses": ["80.64.218.59:443", "[2a0e:1bc1:56:1000::6359:cd95]:443"], "flags": ["Fast", "Running", "Valid"], "country": "gb", "consensus_weight": 2200, "observed_bandwidth": 2543071, "advertised_bandwidth": 2543071, "exit_policy": ["reject *:*"], "ipv4_address": "80.64.218.59", "latitude": 51.5033, "longitude": -0.6894, "distance": 1299.6543280240423}, {"nickname": "s5p2jplinode", "fingerprint": "037C1DFCEE2E319CC512944A1A7A5700522ABF1F", "or_addresses": ["139.162.86.33:5671", "[2400:8902::f03c:93ff:fe12:145d]:5671"], "flags": ["Fast", "HSDir", "Running", "Stable", "V2Dir", "Valid"], "country": "us", "consensus_weight": 550, "observed_bandwidth": 1680221, "advertised_bandwidth": 1680221, "exit_policy": ["reject *:*"], "ipv4_address": "139.162.86.33", "latitude": 35.6893, "longitude": 139.6899, "distance": 8283.10621585121}, {"nickname": "prsv", "fingerprint": "038FAF8F7AF9DF6FF21DB5867E4F8662340DA83C", "or_addresses": ["45.137.206.157:9300"], "flags": ["Fast", "Running", "Stable", "V2Dir", "Valid"], "country": "nl", "consensus_weight": 20000, "observed_bandwidth": 10797056, "advertised_bandwidth": 10797056, "exit_policy": ["reject *:*"], "ipv4_address": "45.137.206.157", "latitude": 40.7876, "longitude": -74.06, "distance": 5900.1253180106205}, {"nickname": "ry4an", "fingerprint": "039003C320D9980E0A740F107A1A9C13C99C5FE3", "or_addresses": ["45.79.159.52:9001", "[2600:3c03::f03c:91ff:fe8d:a3a]:9001"], "flags": ["Fast", "Running", "Stable", "Valid"], "country": "us", "consensus_weight": 400, "observed_bandwidth": 1062299, "advertised_bandwidth": 1048576, "exit_policy": ["reject *:*"], "ipv4_address": "45.79.159.52", "latitude": 40.8229, "longitude": -74.4592, "distance": 5917.216193670666}, {"nickname": "Ichotolot61", "fingerprint": "03C3069E814E296EB18776EB61B1ECB754ED89FE", "or_addresses": ["81.7.10.193:993", "[2a02:180:6:1::2f16]:993"], "flags": ["Fast", "HSDir", "Running", "Stable", "V2Dir", "Valid"], "country": "de", "consensus_weight": 150, "observed_bandwidth": 1273232, "advertised_bandwidth": 1273232, "exit_policy": ["reject *:*"], "ipv4_address": "81.7.10.193", "latitude": 51.2993, "longitude": 9.491, "distance": 1099.7627743542018}, {"nickname": "Wildtwister", "fingerprint": "03E107A3663E912664F4A934DFF451262C218357", "or_addresses": ["94.100.6.72:443"], "flags": ["Fast", "HSDir", "Running", "Stable", "V2Dir", "Valid"], "country": "lv", "consensus_weight": 480, "observed_bandwidth": 1229235, "advertised_bandwidth": 1048576, "exit_policy": ["reject *:*"], "ipv4_address": "94.100.6.72", "latitude": 56.8597, "longitude": 24.3425, "distance": 879.782761918459}, {"nickname": "RichardFeynman", "fingerprint": "040085FFE1E88CF48AB0B5B2AB39035758C65F0C", "or_addresses": ["159.69.71.58:9001"], "flags": ["Fast", "HSDir", "Running", "Stable", "V2Dir", "Valid"], "country": "de", "consensus_weight": 450, "observed_bandwidth": 1104518, "advertised_bandwidth": 1048576, "exit_policy": ["reject *:*"], "ipv4_address": "159.69.71.58", "latitude": 49.4423, "longitude": 11.0191, "distance": 1300.4524797377114}, {"nickname": "red6", "fingerprint": "040D6001435CDAA8D3DAE2EE51CF2F48C4530E76", "or_addresses": ["177.104.142.225:443"], "flags": ["Fast", "Running", "Stable", "Valid"], "country": "br", "consensus_weight": 380, "observed_bandwidth": 1193318, "advertised_bandwidth": 1193318, "exit_policy": ["reject *:*"], "ipv4_address": "177.104.142.225", "latitude": -23.9575, "longitude": -46.2278, "distance": 10772.103381317938}, {"nickname": "Unnamed", "fingerprint": "042FE97AC141322809AD2862BE08F88705D4AADF", "or_addresses": ["95.252.40.29:8456"], "flags": ["Fast", "HSDir", "Running", "Stable", "V2Dir", "Valid"], "country": "it", "consensus_weight": 120, "observed_bandwidth": 480217, "advertised_bandwidth": 480217, "exit_policy": ["reject *:*"], "ipv4_address": "95.252.40.29", "latitude": 43.7891, "longitude": 11.2356, "distance": 1929.0911111901576}, {"nickname": "Unnamed", "fingerprint": "0438B5679D52CD10756924D425FDE03B40840304", "or_addresses": ["75.223.50.84:9001"], "flags": ["Fast", "HSDir", "Running", "Stable", "V2Dir", "Valid"], "country": "us", "consensus_weight": 780, "observed_bandwidth": 1703600, "advertised_bandwidth": 1703600, "exit_policy": ["reject *:*"], "ipv4_address": "75.223.50.84", "latitude": 36.1724, "longitude": -115.0677, "distance": 8166.280746236413}, {"nickname": "YetAnoPotato", "fingerprint": "0444EF3442336A2FCEAAF5D7247322940269FEBB", "or_addresses": ["149.28.126.255:9001", "[2001:19f0:5c00:1c45:5400:4ff:fe0f:dc3d]:9001"], "flags": ["Fast", "Running", "Valid"], "country": "us", "consensus_weight": 140, "observed_bandwidth": 606204, "advertised_bandwidth": 606204, "exit_policy": ["reject *:*"], "ipv4_address": "149.28.126.255", "latitude": 42.0048, "longitude": -87.9954, "distance": 6468.399717631879}, {"nickname": "LAGARGOUILLEVIF", "fingerprint": "046A2841A526E3D5690ED33D568E9891C39503D8", "or_addresses": ["190.211.254.210:9001"], "flags": ["Fast", "HSDir", "Running", "Stable", "V2Dir", "Valid"], "country": "ch", "consensus_weight": 1200, "observed_bandwidth": 1852074, "advertised_bandwidth": 1852074, "exit_policy": ["reject *:*"], "ipv4_address": "190.211.254.210", "latitude": 51.5095, "longitude": -0.0955, "distance": 1278.9103134648597}, {"nickname": "ZwiebelRouter04", "fingerprint": "048B9A44712BDC2B896691E37B2B62C4A81D4DE5", "or_addresses": ["82.223.165.239:443", "[2001:ba0:1800:81dc::1]:443"], "flags": ["Fast", "Running", "V2Dir", "Valid"], "country": "es", "consensus_weight": 3100, "observed_bandwidth": 5013151, "advertised_bandwidth": 5013151, "exit_policy": ["reject *:*"], "ipv4_address": "82.223.165.239", "latitude": 40.4172, "longitude": -3.684, "distance": 2521.6740916840067}, {"nickname": "Scarab", "fingerprint": "049298986477A89407AA70311645D0497F1E0FE1", "or_addresses": ["146.19.213.39:443", "[2001:678:6d4:9114::11c]:443"], "flags": ["Fast", "HSDir", "Running", "Stable", "V2Dir", "Valid"], "country": "md", "consensus_weight": 890, "observed_bandwidth": 4681664, "advertised_bandwidth": 1048576, "exit_policy": ["reject *:*"], "ipv4_address": "146.19.213.39", "latitude": 36.175, "longitude": -115.1372, "distance": 8168.543951554839}, {"nickname": "zeevox", "fingerprint": "04B4E94A3E9FF45FA85531D9162C3B8C4F453528", "or_addresses": ["80.64.218.19:8080", "[2a0e:1bc1:56:1000::83d6:c076]:8080"], "flags": ["Fast", "HSDir", "Running", "Stable", "V2Dir", "Valid"], "country": "gb", "consensus_weight": 11000, "observed_bandwidth": 8928784, "advertised_bandwidth": 8928784, "exit_policy": ["reject *:*"], "ipv4_address": "80.64.218.19", "latitude": 51.5033, "longitude": -0.6894, "distance": 1299.6543280240423}, {"nickname": "Pentesting21", "fingerprint": "04B67952F99843784ABF59D2B20EFC60FFD9F455", "or_addresses": ["5.75.145.34:9002", "[2a01:4f8:c2c:244e::1]:9002"], "flags": ["Fast", "Running", "Stable", "Valid"], "country": "de", "consensus_weight": 6700, "observed_bandwidth": 5331872, "advertised_bandwidth": 5242880, "exit_policy": ["reject *:*"], "ipv4_address": "5.75.145.34", "latitude": 51.2993, "longitude": 9.491, "distance": 1099.7627743542018}, {"nickname": "prsv", "fingerprint": "04D3DA2C9CCB13E1548150618B2104A67D12D22D", "or_addresses": ["109.122.198.71:9200"], "flags": ["Fast", "Running", "V2Dir", "Valid"], "country": "eu", "consensus_weight": 11000, "observed_bandwidth": 5985280, "advertised_bandwidth": 5985280, "exit_policy": ["reject *:*"], "ipv4_address": "109.122.198.71", "latitude": 48.9741, "longitude": 2.2042, "distance": 1469.810260718253}, {"nickname": "rofltor08", "fingerprint": "04E3B5925EB5F66C6EC810A3D7702E0CA3F9D5E7", "or_addresses": ["95.216.136.46:9001", "[2a01:4f9:c010:2e::1]:9001"], "flags": ["Fast", "Running", "Stable", "Valid"], "country": "fi", "consensus_weight": 24000, "observed_bandwidth": 20658252, "advertised_bandwidth": 20658252, "exit_policy": ["reject *:*"], "ipv4_address": "95.216.136.46", "latitude": 60.1719, "longitude": 24.9347, "distance": 745.6799838645395}, {"nickname": "moredaysleft777", "fingerprint": "04E96ED4C16CBED0D9E9AE6B979C21E842051687", "or_addresses": ["190.2.143.176:9001"], "flags": ["BadExit", "Fast", "MiddleOnly", "Running", "Stable", "Valid"], "country": "nl", "consensus_weight": 140000, "observed_bandwidth": 85937445, "advertised_bandwidth": 85937445, "exit_policy": ["reject 0.0.0.0/8:*", "reject 169.254.0.0/16:*", "reject 127.0.0.0/8:*", "reject 192.168.0.0/16:*", "reject 10.0.0.0/8:*", "reject 172.16.0.0/12:*", "reject 190.2.143.176:*", "accept *:80", "accept *:443", "accept *:110", "accept *:143", "accept *:993", "accept *:995", "reject *:*"], "ipv4_address": "190.2.143.176", "latitude": 51.9934, "longitude": 4.2158, "distance": 1105.5528981331706}, {"nickname": "dorinne", "fingerprint": "04EE5E1B23127D26A36F71C66810D88B0B80BB91", "or_addresses": ["91.213.233.138:443"], "flags": ["Fast", "HSDir", "Running", "Stable", "V2Dir", "Valid"], "country": "kg", "consensus_weight": 930, "observed_bandwidth": 2174436, "advertised_bandwidth": 2174436, "exit_policy": ["reject *:*"], "ipv4_address": "91.213.233.138", "latitude": 42.8696, "longitude": 74.5932, "distance": 4555.557434584376}, {"nickname": "adhoczone", "fingerprint": "050A7B26C0CACA6AE9A37B5E342B3D5CC56C790A", "or_addresses": ["185.206.146.238:9001", "[2a07:5741:0:504::1]:9001"], "flags": ["Fast", "Running", "Stable", "Valid"], "country": "bg", "consensus_weight": 130, "observed_bandwidth": 574028, "advertised_bandwidth": 524288, "exit_policy": ["reject *:*"], "ipv4_address": "185.206.146.238", "latitude": 35.0, "longitude": 33.0, "distance": 3286.706705470595}, {"nickname": "JaKubikula", "fingerprint": "0552DB4AFA2F280DA218FCCE69C49DE0B56C0DE9", "or_addresses": ["83.79.219.245:9001", "[2a02:1210:4c95:b100:6d4:c4ff:fe4f:354b]:9001"], "flags": ["Fast", "HSDir", "Running", "Stable", "V2Dir", "Valid"], "country": "ch", "consensus_weight": 420, "observed_bandwidth": 1102195, "advertised_bandwidth": 1048576, "exit_policy": ["reject *:*"], "ipv4_address": "83.79.219.245", "latitude": 47.5517, "longitude": 7.5714, "distance": 1529.8809123385963}, {"nickname": "myNiceRelay938635", "fingerprint": "0593A11A5C10A3FA3DC69C7256A818D294961C98", "or_addresses": ["178.39.46.49:9847"], "flags": ["Fast", "HSDir", "Running", "Stable", "V2Dir", "Valid"], "country": "ch", "consensus_weight": 400, "observed_bandwidth": 971297, "advertised_bandwidth": 971297, "exit_policy": ["reject *:*"], "ipv4_address": "178.39.46.49", "latitude": 46.1779, "longitude": 6.1275, "distance": 1697.5775507800683}, {"nickname": "Unnamed", "fingerprint": "05BEC77F40DEC72C57CBCD3DD30439E859B8E52B", "or_addresses": ["81.20.143.138:9001"], "flags": ["Fast", "Running", "Stable", "Valid"], "country": "de", "consensus_weight": 450, "observed_bandwidth": 1154624, "advertised_bandwidth": 1024000, "exit_policy": ["reject *:*"], "ipv4_address": "81.20.143.138", "latitude": 51.2993, "longitude": 9.491, "distance": 1099.7627743542018}, {"nickname": "h3u60M7iPf", "fingerprint": "05C46D155495916A210213006B64CC99FB903CD5", "or_addresses": ["62.27.196.250:9001"], "flags": ["Fast", "Running", "V2Dir", "Valid"], "country": "de", "consensus_weight": 4900, "observed_bandwidth": 4237252, "advertised_bandwidth": 4237252, "exit_policy": ["reject *:*"], "ipv4_address": "62.27.196.250", "latitude": 53.5544, "longitude": 9.9946, "distance": 846.8707011817744}, {"nickname": "electroncash", "fingerprint": "05C621B44EF6833889AE7B7E2A0B476569C47E37", "or_addresses": ["193.135.10.219:59999", "[2a0a:51c0:0:136::2]:59999"], "flags": ["Fast", "HSDir", "Running", "Stable", "V2Dir", "Valid"], "country": "de", "consensus_weight": 780, "observed_bandwidth": 1498957, "advertised_bandwidth": 1433600, "exit_policy": ["reject *:*"], "ipv4_address": "193.135.10.219", "latitude": 50.1188, "longitude": 8.6843, "distance": 1236.3237974767553}, {"nickname": "toronto1", "fingerprint": "05CC8826920ED353BEEE5E59FDB5697D4F5B77E7", "or_addresses": ["192.18.159.101:9001", "[2603:c021:1:e6ee:7956:dfc6:e4f4:dcb]:9001"], "flags": ["Fast", "Running", "Stable", "Valid"], "country": "us", "consensus_weight": 7300, "observed_bandwidth": 6304317, "advertised_bandwidth": 6291456, "exit_policy": ["reject *:*"], "ipv4_address": "192.18.159.101", "latitude": 43.8072, "longitude": -79.5946, "distance": 5906.952167748481}, {"nickname": "Superfly", "fingerprint": "05D2B4678A1C9BDBB5D1D078F6813CA9712A8384", "or_addresses": ["133.242.146.78:9001", "[2401:2500:102:1206:133:242:146:78]:9001"], "flags": ["Fast", "HSDir", "Running", "Stable", "V2Dir", "Valid"], "country": "jp", "consensus_weight": 1000, "observed_bandwidth": 2711071, "advertised_bandwidth": 2711071, "exit_policy": ["reject *:*"], "ipv4_address": "133.242.146.78", "latitude": 35.704, "longitude": 139.6713, "distance": 8280.9421832147}, {"nickname": "Taco", "fingerprint": "05DDBB74AAB6F19E003188702B1E54F23035D064", "or_addresses": ["37.48.120.47:110"], "flags": ["Fast", "HSDir", "Running", "Stable", "V2Dir", "Valid"], "country": "nl", "consensus_weight": 260, "observed_bandwidth": 785514, "advertised_bandwidth": 785514, "exit_policy": ["reject *:*"], "ipv4_address": "37.48.120.47", "latitude": 52.3809, "longitude": 4.9022, "distance": 1049.0936256849602}, {"nickname": "CloudOasis", "fingerprint": "063D23ED6A65CDCCBF8A2A8CC230B09C34F01FCF", "or_addresses": ["104.200.17.42:443", "[2600:3c00::f03c:91ff:fee9:6481]:443"], "flags": ["Fast", "HSDir", "Running", "Stable", "V2Dir", "Valid"], "country": "us", "consensus_weight": 120, "observed_bandwidth": 537373, "advertised_bandwidth": 512000, "exit_policy": ["reject *:*"], "ipv4_address": "104.200.17.42", "latitude": 32.9473, "longitude": -96.7028, "distance": 7727.885310097038}, {"nickname": "lakeshoreCrypto007", "fingerprint": "0645A80A17909D33FAFB5548E8A10F80AB38E65E", "or_addresses": ["45.41.204.203:9001", "[2602:fea7:e0c:13::7]:9001"], "flags": ["Fast", "Running", "Stable", "V2Dir", "Valid"], "country": "us", "consensus_weight": 200, "observed_bandwidth": 1016832, "advertised_bandwidth": 1016832, "exit_policy": ["reject *:*"], "ipv4_address": "45.41.204.203", "latitude": 37.751, "longitude": -97.822, "distance": 7313.814090698954}, {"nickname": "Raptorist", "fingerprint": "06518635C3CCBC70C311F9BCDF4C3596BB736EFD", "or_addresses": ["78.132.0.35:9001"], "flags": ["Fast", "Running", "Stable", "V2Dir", "Valid"], "country": "at", "consensus_weight": 400, "observed_bandwidth": 956854, "advertised_bandwidth": 956854, "exit_policy": ["reject *:*"], "ipv4_address": "78.132.0.35", "latitude": 47.0833, "longitude": 15.5667, "distance": 1585.6156424783696}, {"nickname": "Psyduck", "fingerprint": "066FE3C4E07A18EA53B2828F753D3788D58D771D", "or_addresses": ["102.130.113.42:9001"], "flags": ["Fast", "HSDir", "Running", "Stable", "V2Dir", "Valid"], "country": "za", "consensus_weight": 650, "observed_bandwidth": 1680842, "advertised_bandwidth": 1680842, "exit_policy": ["reject *:*"], "ipv4_address": "102.130.113.42", "latitude": -29.0, "longitude": 24.0, "distance": 10090.492137024576}, {"nickname": "ampere", "fingerprint": "06A630E2198277238FE896F6F10B07C53E4827D2", "or_addresses": ["150.230.39.121:443"], "flags": ["Fast", "Running", "Stable", "V2Dir", "Valid"], "country": "us", "consensus_weight": 370, "observed_bandwidth": 2437120, "advertised_bandwidth": 524288, "exit_policy": ["reject *:*"], "ipv4_address": "150.230.39.121", "latitude": 37.2379, "longitude": -121.7946, "distance": 8288.326353856508}, {"nickname": "panoptykon", "fingerprint": "070B16450940F00B3A1C88C1AD71EB20B6C61A72", "or_addresses": ["51.68.155.201:9001"], "flags": ["Fast", "HSDir", "Running", "Stable", "V2Dir", "Valid"], "country": "pl", "consensus_weight": 1400, "observed_bandwidth": 2292412, "advertised_bandwidth": 2097152, "exit_policy": ["reject *:*"], "ipv4_address": "51.68.155.201", "latitude": 52.2296, "longitude": 21.0067, "distance": 1149.3522115640899}, {"nickname": "LaTlayuda", "fingerprint": "071288B2182711E5284248137048E0FBBFB36233", "or_addresses": ["91.121.147.65:9001", "[2001:41d0:1:c441::]:9001"], "flags": ["Fast", "Running", "Stable", "Valid"], "country": "fr", "consensus_weight": 85, "observed_bandwidth": 444183, "advertised_bandwidth": 409600, "exit_policy": ["reject *:*"], "ipv4_address": "91.121.147.65", "latitude": 48.8582, "longitude": 2.3387, "distance": 1478.6913602924574}, {"nickname": "Angora", "fingerprint": "07712CF425529B35AFAEB87DEE3639A5D57D5511", "or_addresses": ["45.63.85.254:9001", "[2001:19f0:ac00:7e9:5400:ff:fe09:ed18]:9001"], "flags": ["Fast", "Running", "Valid"], "country": "us", "consensus_weight": 450, "observed_bandwidth": 1238653, "advertised_bandwidth": 1048576, "exit_policy": ["reject *:*"], "ipv4_address": "45.63.85.254", "latitude": 37.3931, "longitude": -121.962, "distance": 8277.659201182249}, {"nickname": "torrelay8428546", "fingerprint": "07816F5EF2E310139C2AF386E6E86BCFDCABFFAB", "or_addresses": ["95.216.195.161:9001", "[2a01:4f9:c011:9f3c::1]:9001"], "flags": ["Fast", "Running", "Stable", "Valid"], "country": "fi", "consensus_weight": 15000, "observed_bandwidth": 10490597, "advertised_bandwidth": 10485760, "exit_policy": ["reject *:*"], "ipv4_address": "95.216.195.161", "latitude": 60.1719, "longitude": 24.9347, "distance": 745.6799838645395}, {"nickname": "mistersixt2", "fingerprint": "079E117E0B808484646CA7715F52F6FFC831EF8F", "or_addresses": ["88.99.104.83:9001", "[2a01:4f8:10a:189f::2]:9001"], "flags": ["Fast", "Running", "Stable", "Valid"], "country": "de", "consensus_weight": 94, "observed_bandwidth": 427873, "advertised_bandwidth": 409600, "exit_policy": ["reject *:*"], "ipv4_address": "88.99.104.83", "latitude": 51.2993, "longitude": 9.491, "distance": 1099.7627743542018}, {"nickname": "debiansRelayTor", "fingerprint": "07B578A84E8E76FA75915B91E31B6E50E7FDDC90", "or_addresses": ["94.16.114.231:9001", "[2a03:4000:28:900:786f:7fff:fe08:8217]:9001"], "flags": ["Fast", "HSDir", "Running", "Stable", "V2Dir", "Valid"], "country": "de", "consensus_weight": 950, "observed_bandwidth": 1662255, "advertised_bandwidth": 1536000, "exit_policy": ["reject *:*"], "ipv4_address": "94.16.114.231", "latitude": 48.2048, "longitude": 16.3801, "distance": 1472.502236723271}, {"nickname": "KeKoUSC", "fingerprint": "081A5BAF9775499CAF7CCCAB2AF7765494F3B99F", "or_addresses": ["74.208.141.239:9001", "[2607:f1c0:1801:29c::1]:9001"], "flags": ["BadExit", "Fast", "MiddleOnly", "Running", "Valid"], "country": "us", "consensus_weight": 13000, "observed_bandwidth": 8272707, "advertised_bandwidth": 8272707, "exit_policy": ["reject 0.0.0.0/8:*", "reject 169.254.0.0/16:*", "reject 127.0.0.0/8:*", "reject 192.168.0.0/16:*", "reject 10.0.0.0/8:*", "reject 172.16.0.0/12:*", "reject 74.208.141.239:*", "accept *:*"], "ipv4_address": "74.208.141.239", "latitude": 37.751, "longitude": -97.822, "distance": 7313.814090698954}, {"nickname": "8lyWARGTU4wesrfy8i", "fingerprint": "0882440874034AFBE2FBF16463A290F3278E24F7", "or_addresses": ["176.58.121.159:9001", "[2a01:7e00::f03c:91ff:fe70:e0b8]:9099"], "flags": ["Fast", "HSDir", "Running", "Stable", "V2Dir", "Valid"], "country": "gb", "consensus_weight": 110, "observed_bandwidth": 613980, "advertised_bandwidth": 512000, "exit_policy": ["reject *:*"], "ipv4_address": "176.58.121.159", "latitude": 51.5095, "longitude": -0.0955, "distance": 1278.9103134648597}, {"nickname": "0x7c0", "fingerprint": "08E3B41A86FFBFFEA0F1A5B9334550B7FA6F03D1", "or_addresses": ["185.73.44.145:22380", "[2001:ba8:0:4031::]:22380"], "flags": ["Fast", "Running", "V2Dir", "Valid"], "country": "gb", "consensus_weight": 7600, "observed_bandwidth": 5324411, "advertised_bandwidth": 5242880, "exit_policy": ["reject *:*"], "ipv4_address": "185.73.44.145", "latitude": 51.4964, "longitude": -0.1224, "distance": 1281.0843613921256}, {"nickname": "Unnamed", "fingerprint": "08FE27F74EC48B4D7667EBFAF654E5151B9924F1", "or_addresses": ["80.129.26.88:9001"], "flags": ["Fast", "Running", "Stable", "V2Dir", "Valid"], "country": "de", "consensus_weight": 220, "observed_bandwidth": 737957, "advertised_bandwidth": 737957, "exit_policy": ["reject *:*"], "ipv4_address": "80.129.26.88", "latitude": 47.7229, "longitude": 10.3288, "distance": 1492.9917005051918}, {"nickname": "STOPDevelopingCBDC", "fingerprint": "093D587644F270A30267B336D35535006DBD1C50", "or_addresses": ["176.97.76.91:443"], "flags": ["Fast", "Running", "Stable", "Valid"], "country": "ro", "consensus_weight": 1700, "observed_bandwidth": 4701999, "advertised_bandwidth": 4701999, "exit_policy": ["reject *:*"], "ipv4_address": "176.97.76.91", "latitude": 45.9968, "longitude": 24.997, "distance": 1900.3088822316822}, {"nickname": "hpRelayThing", "fingerprint": "095ED24D8DB7F3891555579126D2E2339FAF026C", "or_addresses": ["50.24.143.253:9001"], "flags": ["Fast", "HSDir", "Running", "Stable", "V2Dir", "Valid"], "country": "us", "consensus_weight": 1000, "observed_bandwidth": 1880320, "advertised_bandwidth": 1880320, "exit_policy": ["reject *:*"], "ipv4_address": "50.24.143.253", "latitude": 30.6032, "longitude": -96.3136, "distance": 7937.561440801681}, {"nickname": "CooRelay", "fingerprint": "097761255FF0C6FEEDEA787D9F389EA431C27882", "or_addresses": ["84.231.41.122:12002"], "flags": ["Fast", "Running", "Stable", "V2Dir", "Valid"], "country": "fi", "consensus_weight": 100, "observed_bandwidth": 486400, "advertised_bandwidth": 486400, "exit_policy": ["reject *:*"], "ipv4_address": "84.231.41.122", "latitude": 60.1797, "longitude": 24.9344, "distance": 745.4529965220947}, {"nickname": "tourette", "fingerprint": "098D9CF7568D27A8288FA4BB3819A99913315D6E", "or_addresses": ["91.47.194.114:443"], "flags": ["Fast", "Running", "V2Dir", "Valid"], "country": "de", "consensus_weight": 680, "observed_bandwidth": 1295231, "advertised_bandwidth": 1280000, "exit_policy": ["reject *:*"], "ipv4_address": "91.47.194.114", "latitude": 50.1811, "longitude": 8.476, "distance": 1231.2605990126422}, {"nickname": "Anankke", "fingerprint": "0990E0F4F2C127BDDA9B6726400FAC077F6C83B0", "or_addresses": ["139.162.123.5:443", "[2400:8902::f03c:93ff:fef5:5412]:443"], "flags": ["Fast", "HSDir", "Running", "Stable", "V2Dir", "Valid"], "country": "us", "consensus_weight": 1000, "observed_bandwidth": 3651395, "advertised_bandwidth": 3651395, "exit_policy": ["reject *:*"], "ipv4_address": "139.162.123.5", "latitude": 35.6893, "longitude": 139.6899, "distance": 8283.10621585121}, {"nickname": "Unnamed", "fingerprint": "09E0BD68FBAEB7C10107DE67624D25B007FF26A2", "or_addresses": ["91.219.29.94:9001"], "flags": ["Fast", "Running", "Stable", "V2Dir", "Valid"], "country": "ua", "consensus_weight": 410, "observed_bandwidth": 4712448, "advertised_bandwidth": 1024000, "exit_policy": ["reject *:*"], "ipv4_address": "91.219.29.94", "latitude": 50.4522, "longitude": 30.5287, "distance": 1675.1207423240035}, {"nickname": "waxcs4edb69m7yh", "fingerprint": "09E59CBD300AE3FD73577A68050739E89E617070", "or_addresses": ["144.76.104.119:9001"], "flags": ["Fast", "Running", "Stable", "V2Dir", "Valid"], "country": "de", "consensus_weight": 130, "observed_bandwidth": 500736, "advertised_bandwidth": 500736, "exit_policy": ["reject *:*"], "ipv4_address": "144.76.104.119", "latitude": 51.2993, "longitude": 9.491, "distance": 1099.7627743542018}, {"nickname": "Lamia3", "fingerprint": "09F4736B37FA72AC7399F71F917F895D3CF22685", "or_addresses": ["135.148.149.23:21", "[2604:2dc0:101:200::b63]:21"], "flags": ["Fast", "HSDir", "Running", "Stable", "V2Dir", "Valid"], "country": "us", "consensus_weight": 8300, "observed_bandwidth": 8755739, "advertised_bandwidth": 8755739, "exit_policy": ["reject *:*"], "ipv4_address": "135.148.149.23", "latitude": 37.751, "longitude": -97.822, "distance": 7313.814090698954}, {"nickname": "TheTwinkleStar", "fingerprint": "09FEBDF9C8A397889FA55AFD6BC98C6AA6303772", "or_addresses": ["185.163.204.78:443"], "flags": ["BadExit", "Fast", "MiddleOnly", "Running", "Stable", "Valid"], "country": "hu", "consensus_weight": 23000, "observed_bandwidth": 22071109, "advertised_bandwidth": 22071109, "exit_policy": ["reject 0.0.0.0/8:*", "reject 169.254.0.0/16:*", "reject 127.0.0.0/8:*", "reject 192.168.0.0/16:*", "reject 10.0.0.0/8:*", "reject 172.16.0.0/12:*", "reject 185.163.204.78:*", "accept *:20-21", "accept *:43", "accept *:53", "accept *:80", "accept *:110", "accept *:143", "accept *:220", "accept *:443", "accept *:873", "accept *:989-990", "accept *:991", "accept *:992", "accept *:993", "accept *:995", "accept *:1194", "accept *:1293", "accept *:3690", "accept *:4321", "accept *:5222-5223", "accept *:5228", "accept *:9418", "accept *:11371", "accept *:64738", "reject *:*"], "ipv4_address": "185.163.204.78", "latitude": 47.4919, "longitude": 19.05, "distance": 1594.3327509091648}, {"nickname": "hondoyouknowwho4", "fingerprint": "0A349CD59F9EB7198E6C63F59148821EB9F04F63", "or_addresses": ["5.34.176.184:9001"], "flags": ["Fast", "HSDir", "Running", "Stable", "V2Dir", "Valid"], "country": "sg", "consensus_weight": 550, "observed_bandwidth": 1638549, "advertised_bandwidth": 1638549, "exit_policy": ["reject *:*"], "ipv4_address": "5.34.176.184", "latitude": 1.2929, "longitude": 103.8547, "distance": 10018.025412929204}, {"nickname": "405tor2", "fingerprint": "0A4B66D203EEB134506975F78578AAF9C5EE05A6", "or_addresses": ["174.67.36.109:446"], "flags": ["Fast", "Running", "Stable", "V2Dir", "Valid"], "country": "us", "consensus_weight": 190, "observed_bandwidth": 812858, "advertised_bandwidth": 812858, "exit_policy": ["reject *:*"], "ipv4_address": "174.67.36.109", "latitude": 35.4312, "longitude": -97.4934, "distance": 7523.139326335775}, {"nickname": "arighttosurf", "fingerprint": "0A6001B1E3A9F5365BD3C2988BD69BB8EAD71289", "or_addresses": ["45.83.234.114:9002", "[2a10:3781:1854:1::2d53:ea72]:9002"], "flags": ["Fast", "HSDir", "Running", "Stable", "V2Dir", "Valid"], "country": "nl", "consensus_weight": 840, "observed_bandwidth": 1638400, "advertised_bandwidth": 1572864, "exit_policy": ["reject *:*"], "ipv4_address": "45.83.234.114", "latitude": 52.0874, "longitude": 5.1168, "distance": 1075.2796332020678}, {"nickname": "Unnamed", "fingerprint": "0A7DE4CF5FE49E0034553D716FCABB9AD5ED7924", "or_addresses": ["23.94.220.202:9001"], "flags": ["Fast", "Running", "Valid"], "country": "us", "consensus_weight": 470, "observed_bandwidth": 1032401, "advertised_bandwidth": 1024000, "exit_policy": ["reject *:*"], "ipv4_address": "23.94.220.202", "latitude": 52.3759, "longitude": 4.8975, "distance": 1049.7241763614602}, {"nickname": "TorMo1", "fingerprint": "0A8A7FCA7B87D7DA66609AA5574983D86AE31FB8", "or_addresses": ["176.123.4.96:443"], "flags": ["Fast", "Running", "Valid"], "country": "md", "consensus_weight": 1400, "observed_bandwidth": 1934084, "advertised_bandwidth": 1934084, "exit_policy": ["reject *:*"], "ipv4_address": "176.123.4.96", "latitude": 47.0042, "longitude": 28.8574, "distance": 1929.0170909015399}, {"nickname": "tinaTOR", "fingerprint": "0AC3E8D9FD63EC3E47738C0CBA77C3C581A50935", "or_addresses": ["91.245.255.87:9001"], "flags": ["Fast", "Running", "Stable", "Valid"], "country": "hk", "consensus_weight": 950, "observed_bandwidth": 3076639, "advertised_bandwidth": 3076639, "exit_policy": ["reject *:*"], "ipv4_address": "91.245.255.87", "latitude": 22.2908, "longitude": 114.1501, "distance": 8509.586165534902}, {"nickname": "vanaheim", "fingerprint": "0ADF4982A6231ECD6D04170435BFB4C0E4CADF5B", "or_addresses": ["108.34.248.88:443"], "flags": ["Fast", "HSDir", "Running", "Stable", "V2Dir", "Valid"], "country": "us", "consensus_weight": 7300, "observed_bandwidth": 7165055, "advertised_bandwidth": 7165055, "exit_policy": ["reject *:*"], "ipv4_address": "108.34.248.88", "latitude": 41.815, "longitude": -71.3663, "distance": 5672.378579966078}, {"nickname": "Fabmann", "fingerprint": "0B75178A38D13501A8C1F21F06C892D695A1BE8B", "or_addresses": ["213.47.199.88:9001"], "flags": ["Fast", "Running", "V2Dir", "Valid"], "country": "at", "consensus_weight": 450, "observed_bandwidth": 1096777, "advertised_bandwidth": 1096777, "exit_policy": ["reject *:*"], "ipv4_address": "213.47.199.88", "latitude": 47.2637, "longitude": 11.4016, "distance": 1542.592136247493}, {"nickname": "Unnamed", "fingerprint": "0BA446CDA4DBFD7BDC235926456512ADF1B20BD0", "or_addresses": ["14.9.101.224:8351", "[240b:13:65e0:900:8557:7d07:ef6:9efe]:8351"], "flags": ["Fast", "Running", "Stable", "Valid"], "country": "jp", "consensus_weight": 910, "observed_bandwidth": 2789744, "advertised_bandwidth": 2789744, "exit_policy": ["reject *:*"], "ipv4_address": "14.9.101.224", "latitude": 38.3712, "longitude": 140.2691, "distance": 8029.1640982092895}, {"nickname": "DntBrickDemortcracy", "fingerprint": "0BBA78A08B235A085D26D1455621E8CF597170DD", "or_addresses": ["149.172.106.14:9001"], "flags": ["Fast", "Running", "Stable", "V2Dir", "Valid"], "country": "de", "consensus_weight": 340, "observed_bandwidth": 873472, "advertised_bandwidth": 873472, "exit_policy": ["reject *:*"], "ipv4_address": "149.172.106.14", "latitude": 47.7817, "longitude": 9.6186, "distance": 1489.1585518833128}, {"nickname": "quark", "fingerprint": "0BD744C4674FFB60CD1F2A6E877B02F7BE4558B5", "or_addresses": ["178.63.68.78:9001", "[2a01:4f8:121:12b3::2]:9001"], "flags": ["Fast", "HSDir", "Running", "Stable", "V2Dir", "Valid"], "country": "de", "consensus_weight": 140, "observed_bandwidth": 549143, "advertised_bandwidth": 524288, "exit_policy": ["reject *:*"], "ipv4_address": "178.63.68.78", "latitude": 51.2993, "longitude": 9.491, "distance": 1099.7627743542018}, {"nickname": "0x766c6164", "fingerprint": "0BF606DE836D4C794CAFF7CA78720F8C87660998", "or_addresses": ["5.12.14.108:9162"], "flags": ["Fast", "Running", "Stable", "V2Dir", "Valid"], "country": "ro", "consensus_weight": 8600, "observed_bandwidth": 9633792, "advertised_bandwidth": 9633792, "exit_policy": ["reject *:*"], "ipv4_address": "5.12.14.108", "latitude": 44.405, "longitude": 26.0718, "distance": 2096.1244420134594}, {"nickname": "RozsafaUgrik", "fingerprint": "0C10F007E2ADFC741B1FC9CD5CC0F420D9ABCDA1", "or_addresses": ["167.99.210.64:443", "[2a03:b0c0:2:d0::104e:2001]:9001"], "flags": ["Fast", "Running", "Stable", "Valid"], "country": "us", "consensus_weight": 140, "observed_bandwidth": 933672, "advertised_bandwidth": 512000, "exit_policy": ["reject *:*"], "ipv4_address": "167.99.210.64", "latitude": 52.352, "longitude": 4.9392, "distance": 1051.2964157766933}, {"nickname": "marlonbrando", "fingerprint": "0C4D7C61271C32DFBD0DF4A0296E4CE1BA2E952A", "or_addresses": ["45.77.136.58:9001", "[2001:19f0:5001:3d94:5400:3ff:fe7d:64dc]:9001"], "flags": ["Fast", "Running", "Valid"], "country": "us", "consensus_weight": 490, "observed_bandwidth": 1024080, "advertised_bandwidth": 1024080, "exit_policy": ["reject *:*"], "ipv4_address": "45.77.136.58", "latitude": 52.3891, "longitude": 4.6563, "distance": 1053.8687452009751}, {"nickname": "doppelganger", "fingerprint": "0C8A49FE62B7C7DED64B7C6A941EF5240E4F3F74", "or_addresses": ["95.217.5.88:9101", "[2a01:4f9:c010:54f8::1]:9101"], "flags": ["Fast", "Running", "Stable", "Valid"], "country": "fi", "consensus_weight": 24000, "observed_bandwidth": 21031008, "advertised_bandwidth": 21031008, "exit_policy": ["reject *:*"], "ipv4_address": "95.217.5.88", "latitude": 60.1719, "longitude": 24.9347, "distance": 745.6799838645395}, {"nickname": "Unnamed", "fingerprint": "0C8D8FF15A3B58AE4A019105C50130DD1CF8F1BF", "or_addresses": ["68.96.115.95:9001", "[2600:8801:100:6::67d]:9001"], "flags": ["Fast", "Running", "Valid"], "country": "us", "consensus_weight": 2000, "observed_bandwidth": 3156572, "advertised_bandwidth": 3156572, "exit_policy": ["reject *:*"], "ipv4_address": "68.96.115.95", "latitude": 36.175, "longitude": -115.1372, "distance": 8168.543951554839}, {"nickname": "prsv", "fingerprint": "0C8FCCC80948BAEC9440B8FF5BDD8882D1B7A018", "or_addresses": ["5.180.252.176:9200", "[2a0e:6a81:d:2b::]:9200"], "flags": ["Fast", "Running", "V2Dir", "Valid"], "country": "de", "consensus_weight": 20000, "observed_bandwidth": 13575168, "advertised_bandwidth": 13575168, "exit_policy": ["reject *:*"], "ipv4_address": "5.180.252.176", "latitude": 50.1093, "longitude": 8.7321, "distance": 1236.976637329296}, {"nickname": "TheSecondRelay", "fingerprint": "0CADF9650BE6F3CB6A09F29D8B91250D93DD91E6", "or_addresses": ["107.189.10.86:9001"], "flags": ["Fast", "HSDir", "Running", "Stable", "V2Dir", "Valid"], "country": "lu", "consensus_weight": 420, "observed_bandwidth": 1038010, "advertised_bandwidth": 1038010, "exit_policy": ["reject *:*"], "ipv4_address": "107.189.10.86", "latitude": 49.7895, "longitude": 6.0679, "distance": 1304.1791977588578}, {"nickname": "mgvx", "fingerprint": "0CAFFFE470E88AF156D6750B616995B3790F24EF", "or_addresses": ["86.123.52.188:9001"], "flags": ["Fast", "HSDir", "Running", "Stable", "V2Dir", "Valid"], "country": "ro", "consensus_weight": 460, "observed_bandwidth": 941403, "advertised_bandwidth": 941403, "exit_policy": ["reject *:*"], "ipv4_address": "86.123.52.188", "latitude": 45.1002, "longitude": 24.3644, "distance": 1974.5994010286533}, {"nickname": "BESTIOMONDE", "fingerprint": "0CBC3FC6CC863ECCF367616D5495E53A8613B5CC", "or_addresses": ["172.105.242.117:443", "[2400:8902::f03c:91ff:fede:8f5]:443"], "flags": ["Fast", "HSDir", "Running", "Stable", "V2Dir", "Valid"], "country": "us", "consensus_weight": 520, "observed_bandwidth": 1674731, "advertised_bandwidth": 1674731, "exit_policy": ["reject *:*"], "ipv4_address": "172.105.242.117", "latitude": 35.6893, "longitude": 139.6899, "distance": 8283.10621585121}, {"nickname": "eita", "fingerprint": "0CDC8FDD8A487271DECB791C0D46585F16BC8F19", "or_addresses": ["185.26.127.24:443", "[2001:4b98:dc2:45:216:3eff:fe42:b953]:443"], "flags": ["Fast", "HSDir", "Running", "Stable", "V2Dir", "Valid"], "country": "lu", "consensus_weight": 200, "observed_bandwidth": 680805, "advertised_bandwidth": 680805, "exit_policy": ["reject *:*"], "ipv4_address": "185.26.127.24", "latitude": 48.8582, "longitude": 2.3387, "distance": 1478.6913602924574}, {"nickname": "oli", "fingerprint": "0D09185AF590E2943A94EF34E4BE3C265D891DC6", "or_addresses": ["188.93.140.207:9001"], "flags": ["Fast", "Running", "Valid"], "country": "se", "consensus_weight": 6200, "observed_bandwidth": 5493760, "advertised_bandwidth": 5120000, "exit_policy": ["reject *:*"], "ipv4_address": "188.93.140.207", "latitude": 59.3287, "longitude": 18.0717, "distance": 420.62903518355375}, {"nickname": "Starlight", "fingerprint": "0D8877392F2FF5AD8D8E5BC438087F02EF97B904", "or_addresses": ["58.107.82.46:9001"], "flags": ["Fast", "HSDir", "Running", "Stable", "V2Dir", "Valid"], "country": "au", "consensus_weight": 150, "observed_bandwidth": 1361660, "advertised_bandwidth": 1361660, "exit_policy": ["reject *:*"], "ipv4_address": "58.107.82.46", "latitude": -33.8715, "longitude": 151.2006, "distance": 15860.998497089897}, {"nickname": "FrankyThePooper", "fingerprint": "0DE94B9FB82DDF39EA7615F10FFCBD05AA53339A", "or_addresses": ["152.69.181.33:443"], "flags": ["Fast", "Running", "Stable", "Valid"], "country": "us", "consensus_weight": 950, "observed_bandwidth": 3195904, "advertised_bandwidth": 3195904, "exit_policy": ["reject *:*"], "ipv4_address": "152.69.181.33", "latitude": -37.755, "longitude": 144.7465, "distance": 15902.830811109274}, {"nickname": "BloodAndIron", "fingerprint": "0E0DF8C1D9D0F290E94CA675A46B5FC96B6AFF53", "or_addresses": ["192.99.35.83:9001"], "flags": ["Fast", "HSDir", "Running", "Stable", "V2Dir", "Valid"], "country": "ca", "consensus_weight": 440, "observed_bandwidth": 1444035, "advertised_bandwidth": 1024000, "exit_policy": ["reject *:*"], "ipv4_address": "192.99.35.83", "latitude": 43.6319, "longitude": -79.3716, "distance": 5911.682625331168}, {"nickname": "BLTOR02R", "fingerprint": "0E300A0942899B995AE08CEF58062BCFEB51EEDF", "or_addresses": ["148.251.123.209:9001"], "flags": ["Fast", "Running", "Valid"], "country": "de", "consensus_weight": 83000, "observed_bandwidth": 51717221, "advertised_bandwidth": 51717221, "exit_policy": ["reject *:*"], "ipv4_address": "148.251.123.209", "latitude": 51.2993, "longitude": 9.491, "distance": 1099.7627743542018}, {"nickname": "quebracho", "fingerprint": "0E7C1DFA9E6F9889B37474C5C892F7C28BE0E4DA", "or_addresses": ["190.105.205.139:443"], "flags": ["Fast", "HSDir", "Running", "Stable", "V2Dir", "Valid"], "country": "ar", "consensus_weight": 220, "observed_bandwidth": 1118245, "advertised_bandwidth": 1118245, "exit_policy": ["reject *:*"], "ipv4_address": "190.105.205.139", "latitude": -34.6022, "longitude": -58.3845, "distance": 12356.32102183473}, {"nickname": "tor44228d65a8814007", "fingerprint": "0E8460BB5F608A851187F343A3687FBFA3D62F27", "or_addresses": ["45.88.200.93:80"], "flags": ["Fast", "Running", "Stable", "V2Dir", "Valid"], "country": "nl", "consensus_weight": 400, "observed_bandwidth": 951296, "advertised_bandwidth": 951296, "exit_policy": ["reject *:*"], "ipv4_address": "45.88.200.93", "latitude": 52.352, "longitude": 4.9392, "distance": 1051.2964157766933}, {"nickname": "AndranikMarkosyan", "fingerprint": "0E94E6E286132300562BD12A6B881708CC032BAF", "or_addresses": ["172.105.68.180:9001", "[2a01:7e01::f03c:92ff:fe58:5755]:9001"], "flags": ["Fast", "Running", "Stable", "Valid"], "country": "us", "consensus_weight": 1500, "observed_bandwidth": 2203500, "advertised_bandwidth": 1966080, "exit_policy": ["reject *:*"], "ipv4_address": "172.105.68.180", "latitude": 50.1188, "longitude": 8.6843, "distance": 1236.3237974767553}, {"nickname": "Unnamed", "fingerprint": "0E9CF92A1840341AECB39D1F9700C1BAEA51C284", "or_addresses": ["188.165.26.13:9100"], "flags": ["Fast", "HSDir", "Running", "Stable", "V2Dir", "Valid"], "country": "lt", "consensus_weight": 85000, "observed_bandwidth": 58047255, "advertised_bandwidth": 58047255, "exit_policy": ["reject *:*"], "ipv4_address": "188.165.26.13", "latitude": 48.8582, "longitude": 2.3387, "distance": 1478.6913602924574}, {"nickname": "myrpirelay", "fingerprint": "0EB77826FBEFFE3A7496616DCB2CB0F478778A33", "or_addresses": ["72.68.41.151:443"], "flags": ["Fast", "Running", "Stable", "Valid"], "country": "us", "consensus_weight": 480, "observed_bandwidth": 1361314, "advertised_bandwidth": 1024000, "exit_policy": ["reject *:*"], "ipv4_address": "72.68.41.151", "latitude": 40.7182, "longitude": -74.0476, "distance": 5905.659897086413}, {"nickname": "cadory", "fingerprint": "0F23950B0863ABAFD119D7E3276AD458D515F4FC", "or_addresses": ["178.200.169.85:19001"], "flags": ["Fast", "Running", "Stable", "V2Dir", "Valid"], "country": "de", "consensus_weight": 130, "observed_bandwidth": 538895, "advertised_bandwidth": 524288, "exit_policy": ["reject *:*"], "ipv4_address": "178.200.169.85", "latitude": 50.1004, "longitude": 8.6752, "distance": 1238.4325299802533}, {"nickname": "beatifulpeople", "fingerprint": "0F2E1CB5403A576FBABF8362764A225E454BA799", "or_addresses": ["185.181.60.66:443", "[2a03:94e0:ffff:185:181:60:0:66]:443"], "flags": ["Fast", "Running", "Stable", "Valid"], "country": "no", "consensus_weight": 23000, "observed_bandwidth": 21548123, "advertised_bandwidth": 21548123, "exit_policy": ["reject *:*"], "ipv4_address": "185.181.60.66", "latitude": 59.1728, "longitude": 10.2221, "distance": 227.03461387303517}, {"nickname": "Qazwsxedcrfv", "fingerprint": "0F3B1BCB42C0E688D4A45887EFDD762B8D2F08F9", "or_addresses": ["76.89.223.26:9001", "[2603:8000:b00:9100:e139:a2df:f3b:e56f]:9001"], "flags": ["Fast", "HSDir", "Running", "Stable", "V2Dir", "Valid"], "country": "us", "consensus_weight": 310, "observed_bandwidth": 3704543, "advertised_bandwidth": 1048576, "exit_policy": ["reject *:*"], "ipv4_address": "76.89.223.26", "latitude": 33.9212, "longitude": -118.1424, "distance": 8506.732996777519}, {"nickname": "Tochar", "fingerprint": "0F3D8493DD75CB13E5359A46280562484580BA73", "or_addresses": ["113.20.28.243:9001"], "flags": ["Fast", "HSDir", "Running", "Stable", "V2Dir", "Valid"], "country": "id", "consensus_weight": 420, "observed_bandwidth": 1462375, "advertised_bandwidth": 1462375, "exit_policy": ["reject *:*"], "ipv4_address": "113.20.28.243", "latitude": -6.1728, "longitude": 106.8272, "distance": 10904.561282112094}, {"nickname": "whynot1", "fingerprint": "0F53B4B16768A8A18B838103DD500068C4D656EB", "or_addresses": ["139.99.134.168:443"], "flags": ["Fast", "HSDir", "Running", "Stable", "V2Dir", "Valid"], "country": "au", "consensus_weight": 290, "observed_bandwidth": 1438355, "advertised_bandwidth": 1438355, "exit_policy": ["reject *:*"], "ipv4_address": "139.99.134.168", "latitude": -33.8715, "longitude": 151.2006, "distance": 15860.998497089897}, {"nickname": "TBB", "fingerprint": "0F87B10519E5649121C4B6FB14D2FA8003F42709", "or_addresses": ["100.19.145.164:443"], "flags": ["Fast", "Running", "V2Dir", "Valid"], "country": "us", "consensus_weight": 3400, "observed_bandwidth": 3475603, "advertised_bandwidth": 3475603, "exit_policy": ["reject *:*"], "ipv4_address": "100.19.145.164", "latitude": 39.9195, "longitude": -75.1565, "distance": 6033.095942315697}, {"nickname": "Unimatrix01", "fingerprint": "0F9F904D61F256C32F01A73FBF0BC57041636BF4", "or_addresses": ["84.158.116.9:443"], "flags": ["Fast", "Running", "V2Dir", "Valid"], "country": "de", "consensus_weight": 980, "observed_bandwidth": 1472645, "advertised_bandwidth": 1472645, "exit_policy": ["reject *:*"], "ipv4_address": "84.158.116.9", "latitude": 49.1269, "longitude": 9.2286, "distance": 1342.1006659384473}, {"nickname": "cryzrelay04", "fingerprint": "101C18886B30BB23B36CBAAD159261188852E112", "or_addresses": ["82.149.227.123:9001", "[2a01:440:108:11:82:149:227:123]:9001"], "flags": ["Fast", "HSDir", "Running", "Stable", "V2Dir", "Valid"], "country": "de", "consensus_weight": 160, "observed_bandwidth": 615788, "advertised_bandwidth": 615788, "exit_policy": ["reject *:*"], "ipv4_address": "82.149.227.123", "latitude": 53.5544, "longitude": 9.996, "distance": 846.8626047412404}, {"nickname": "juwonpee", "fingerprint": "102EBA826A3BCB603F6EC68338876BF61F0F6090", "or_addresses": ["220.85.171.118:4430"], "flags": ["Fast", "HSDir", "Running", "Stable", "V2Dir", "Valid"], "country": "kr", "consensus_weight": 380, "observed_bandwidth": 1726900, "advertised_bandwidth": 1726900, "exit_policy": ["reject *:*"], "ipv4_address": "220.85.171.118", "latitude": 37.6294, "longitude": 127.0067, "distance": 7600.341844273791}, {"nickname": "tommyboy", "fingerprint": "10805A3833774B812D07EB7D1D75A54021590F56", "or_addresses": ["116.12.180.237:7443"], "flags": ["Fast", "HSDir", "Running", "Stable", "V2Dir", "Valid"], "country": "sg", "consensus_weight": 940, "observed_bandwidth": 3253254, "advertised_bandwidth": 3253254, "exit_policy": ["reject *:*"], "ipv4_address": "116.12.180.237", "latitude": 1.2929, "longitude": 103.8547, "distance": 10018.025412929204}, {"nickname": "accidental", "fingerprint": "1083F8B7F92726F59F213930CA3018E1E5DCBFC4", "or_addresses": ["188.127.30.114:9001"], "flags": ["Fast", "HSDir", "Running", "Stable", "V2Dir", "Valid"], "country": "pl", "consensus_weight": 4700, "observed_bandwidth": 4554718, "advertised_bandwidth": 4194304, "exit_policy": ["reject *:*"], "ipv4_address": "188.127.30.114", "latitude": 51.2487, "longitude": 22.5757, "distance": 1295.8315614223884}, {"nickname": "Guya", "fingerprint": "10DB3E90330886F6C4D74403EB4458669B577185", "or_addresses": ["200.25.27.8:443"], "flags": ["BadExit", "Fast", "MiddleOnly", "Running", "Stable", "Valid"], "country": "co", "consensus_weight": 2100, "observed_bandwidth": 3558400, "advertised_bandwidth": 3558400, "exit_policy": ["reject 0.0.0.0/8:*", "reject 169.254.0.0/16:*", "reject 127.0.0.0/8:*", "reject 192.168.0.0/16:*", "reject 10.0.0.0/8:*", "reject 172.16.0.0/12:*", "reject 200.25.27.8:*", "accept *:20-21", "accept *:43", "accept *:53", "accept *:80", "accept *:110", "accept *:143", "accept *:220", "accept *:443", "accept *:873", "accept *:989-990", "accept *:991", "accept *:992", "accept *:993", "accept *:995", "accept *:1194", "accept *:1293", "accept *:3690", "accept *:4321", "accept *:5222-5223", "accept *:5228", "accept *:9418", "accept *:11371", "accept *:64738", "reject *:*"], "ipv4_address": "200.25.27.8", "latitude": 4.5981, "longitude": -74.0799, "distance": 9318.69931858335}, {"nickname": "torry2", "fingerprint": "10F5F46073C92F71F9FBF0D2B8D9EDC642CF65FF", "or_addresses": ["77.12.148.180:9998"], "flags": ["Fast", "Running", "V2Dir", "Valid"], "country": "de", "consensus_weight": 3200, "observed_bandwidth": 3113984, "advertised_bandwidth": 3072000, "exit_policy": ["reject *:*"], "ipv4_address": "77.12.148.180", "latitude": 50.0432, "longitude": 8.2408, "distance": 1248.6685170057897}, {"nickname": "ruminant", "fingerprint": "1112436FB1DDD1D28C7D753C97126E91CFF6D20A", "or_addresses": ["80.145.65.103:9001"], "flags": ["Fast", "Running", "Stable", "V2Dir", "Valid"], "country": "de", "consensus_weight": 650, "observed_bandwidth": 1202176, "advertised_bandwidth": 1202176, "exit_policy": ["reject *:*"], "ipv4_address": "80.145.65.103", "latitude": 50.0403, "longitude": 10.2309, "distance": 1235.7841281685526}, {"nickname": "hashy", "fingerprint": "114C43B2BAD588861BC7A83FA9889ECC4F4E85EF", "or_addresses": ["103.152.178.118:443", "[2001:df4:1780:3000:cb4b:95b6:1d99:4544]:443"], "flags": ["Fast", "HSDir", "Running", "Stable", "V2Dir", "Valid"], "country": "jp", "consensus_weight": 430, "observed_bandwidth": 1620489, "advertised_bandwidth": 1620489, "exit_policy": ["reject *:*"], "ipv4_address": "103.152.178.118", "latitude": 35.6897, "longitude": 139.6895, "distance": 8283.051099909544}, {"nickname": "lazylamerlimur", "fingerprint": "115AE9359A36A3829FFDCB7E50691BCD99901429", "or_addresses": ["184.88.4.232:9001"], "flags": ["Fast", "Running", "Stable", "V2Dir", "Valid"], "country": "us", "consensus_weight": 520, "observed_bandwidth": 1089536, "advertised_bandwidth": 1048576, "exit_policy": ["reject *:*"], "ipv4_address": "184.88.4.232", "latitude": 28.5531, "longitude": -81.7597, "distance": 7419.9450279462735}, {"nickname": "mekansm", "fingerprint": "11C9529C9D0671545EAEF80DFE209AD977BCE908", "or_addresses": ["77.22.55.98:9999"], "flags": ["Fast", "Running", "V2Dir", "Valid"], "country": "de", "consensus_weight": 940, "observed_bandwidth": 1542144, "advertised_bandwidth": 1542144, "exit_policy": ["reject *:*"], "ipv4_address": "77.22.55.98", "latitude": 51.9841, "longitude": 9.2493, "distance": 1025.68504713899}, {"nickname": "ozarks", "fingerprint": "11ECBFDEBB8321222BFCAB592F8997D7E732840C", "or_addresses": ["89.68.159.68:12443"], "flags": ["Fast", "Running", "Stable", "V2Dir", "Valid"], "country": "pl", "consensus_weight": 2100, "observed_bandwidth": 2620416, "advertised_bandwidth": 2620416, "exit_policy": ["reject *:*"], "ipv4_address": "89.68.159.68", "latitude": 50.0585, "longitude": 19.9342, "distance": 1341.5300404416303}, {"nickname": "seasite", "fingerprint": "11F401E027AE8B2525B47654B760B6C754142A3E", "or_addresses": ["185.193.125.208:443", "[2a0a:3840:1337:125:0:b9c1:7dd0:1337]:443"], "flags": ["Fast", "Running", "Valid"], "country": "se", "consensus_weight": 1700, "observed_bandwidth": 2151061, "advertised_bandwidth": 2097152, "exit_policy": ["reject *:*"], "ipv4_address": "185.193.125.208", "latitude": 60.1717, "longitude": 24.9349, "distance": 745.6961354475849}, {"nickname": "AgrippaRelay", "fingerprint": "12062607778B54C2215A68606C7C3B01DD7CE8F2", "or_addresses": ["88.99.76.10:9001"], "flags": ["Fast", "Running", "Valid"], "country": "de", "consensus_weight": 130, "observed_bandwidth": 537045, "advertised_bandwidth": 524288, "exit_policy": ["reject *:*"], "ipv4_address": "88.99.76.10", "latitude": 51.2993, "longitude": 9.491, "distance": 1099.7627743542018}, {"nickname": "TeleMishka002", "fingerprint": "121ECC8A7BD881823DAEA3C0858D51FDF19B1990", "or_addresses": ["157.245.184.13:9001"], "flags": ["Fast", "Running", "Stable", "Valid"], "country": "us", "consensus_weight": 730, "observed_bandwidth": 1235968, "advertised_bandwidth": 1235968, "exit_policy": ["reject *:*"], "ipv4_address": "157.245.184.13", "latitude": 37.3417, "longitude": -121.9753, "distance": 8283.411667910237}, {"nickname": "FermentationLabs2", "fingerprint": "12357592948022430A8FE76D312FFA8C5584C5A8", "or_addresses": ["99.150.229.21:9001"], "flags": ["Fast", "HSDir", "Running", "Stable", "V2Dir", "Valid"], "country": "us", "consensus_weight": 270, "observed_bandwidth": 796467, "advertised_bandwidth": 796467, "exit_policy": ["reject *:*"], "ipv4_address": "99.150.229.21", "latitude": 35.9182, "longitude": -79.0035, "distance": 6591.258112545183}, {"nickname": "black3125lp", "fingerprint": "125FE2A636F5AD438EE67AAC459BA35AE54C6119", "or_addresses": ["91.234.254.142:443"], "flags": ["Fast", "Running", "V2Dir", "Valid"], "country": "nl", "consensus_weight": 14000, "observed_bandwidth": 9949658, "advertised_bandwidth": 9949658, "exit_policy": ["reject *:*"], "ipv4_address": "91.234.254.142", "latitude": 52.3759, "longitude": 4.8975, "distance": 1049.7241763614602}, {"nickname": "torarch", "fingerprint": "12A4F207EE231F342CC5B5A3F2C6DC80A8A59E98", "or_addresses": ["45.33.55.238:9001", "[2600:3c01::f03c:93ff:fe25:b23e]:9001"], "flags": ["Fast", "Running", "Stable", "Valid"], "country": "us", "consensus_weight": 140, "observed_bandwidth": 529566, "advertised_bandwidth": 512000, "exit_policy": ["reject *:*"], "ipv4_address": "45.33.55.238", "latitude": 37.5625, "longitude": -122.0004, "distance": 8261.349514570014}, {"nickname": "mdfnet1", "fingerprint": "12AD30E5D25AA67F519780E2111E611A455FDC89", "or_addresses": ["193.11.114.43:9001", "[2001:6b0:30:1000::99]:9050"], "flags": ["Fast", "Running", "V2Dir", "Valid"], "country": "se", "consensus_weight": 12000, "observed_bandwidth": 13391991, "advertised_bandwidth": 13391991, "exit_policy": ["reject *:*"], "ipv4_address": "193.11.114.43", "latitude": 57.7963, "longitude": 14.1376, "distance": 402.5467452609556}, {"nickname": "Unnamed", "fingerprint": "12D7EDDFDBE9462AC1FB3F89AD3640EDD3720787", "or_addresses": ["180.150.77.240:9001"], "flags": ["Fast", "HSDir", "Running", "Stable", "V2Dir", "Valid"], "country": "au", "consensus_weight": 340, "observed_bandwidth": 1182517, "advertised_bandwidth": 1182517, "exit_policy": ["reject *:*"], "ipv4_address": "180.150.77.240", "latitude": -33.8715, "longitude": 151.2006, "distance": 15860.998497089897}, {"nickname": "shortmax", "fingerprint": "12D978C2A4CB4AC17940FE88F899B67A0FF9BAAD", "or_addresses": ["95.216.141.19:9001", "[2a01:4f9:c010:513::1]:9001"], "flags": ["Fast", "Running", "Stable", "Valid"], "country": "fi", "consensus_weight": 22000, "observed_bandwidth": 18379872, "advertised_bandwidth": 18379872, "exit_policy": ["reject *:*"], "ipv4_address": "95.216.141.19", "latitude": 60.1719, "longitude": 24.9347, "distance": 745.6799838645395}, {"nickname": "ridcully", "fingerprint": "12F88798DD4B9BFB25A6978DA83F082EF1D5051A", "or_addresses": ["188.40.99.69:9001", "[2a01:4f8:221:1901::12]:9001"], "flags": ["Fast", "Running", "Valid"], "country": "de", "consensus_weight": 1900, "observed_bandwidth": 6993920, "advertised_bandwidth": 1048576, "exit_policy": ["reject *:*"], "ipv4_address": "188.40.99.69", "latitude": 51.2993, "longitude": 9.491, "distance": 1099.7627743542018}, {"nickname": "funkturm", "fingerprint": "130E69E8F783DEF256E757FA78154B7DC2A39E0E", "or_addresses": ["185.72.247.145:9001"], "flags": ["Fast", "HSDir", "Running", "Stable", "V2Dir", "Valid"], "country": "de", "consensus_weight": 3700, "observed_bandwidth": 4376481, "advertised_bandwidth": 4376481, "exit_policy": ["reject *:*"], "ipv4_address": "185.72.247.145", "latitude": 37.751, "longitude": -97.822, "distance": 7313.814090698954}, {"nickname": "apollo", "fingerprint": "131C2E46F47DE274857DF55C756161AA32A08D7D", "or_addresses": ["74.83.80.254:9001"], "flags": ["Fast", "Running", "V2Dir", "Valid"], "country": "us", "consensus_weight": 6300, "observed_bandwidth": 4573621, "advertised_bandwidth": 4573621, "exit_policy": ["reject *:*"], "ipv4_address": "74.83.80.254", "latitude": 39.1059, "longitude": -84.5047, "distance": 6570.128189451371}, {"nickname": "SubjectDelta", "fingerprint": "132F529D2860B0DD4E7C272ED23DFE7E2FDEE2A3", "or_addresses": ["185.21.217.34:10015"], "flags": ["Fast", "Running", "Stable", "Valid"], "country": "gb", "consensus_weight": 39000, "observed_bandwidth": 37265049, "advertised_bandwidth": 37265049, "exit_policy": ["reject *:*"], "ipv4_address": "185.21.217.34", "latitude": 51.4964, "longitude": -0.1224, "distance": 1281.0843613921256}, {"nickname": "Maraz", "fingerprint": "1333F517F6C518CA9B4F7D68302940B4C56A3929", "or_addresses": ["45.63.126.247:109", "[2401:c080:1000:4fe4:5400:2ff:feb2:8c10]:109"], "flags": ["Fast", "Running", "Valid"], "country": "us", "consensus_weight": 360, "observed_bandwidth": 1157366, "advertised_bandwidth": 1048576, "exit_policy": ["reject *:*"], "ipv4_address": "45.63.126.247", "latitude": 35.6887, "longitude": 139.745, "distance": 8285.123725521162}, {"nickname": "KoolJack", "fingerprint": "1339157A141484AB5F41F2591902643F0745CBF0", "or_addresses": ["154.67.217.229:443"], "flags": ["Fast", "Running", "Valid"], "country": "re", "consensus_weight": 260, "observed_bandwidth": 1045504, "advertised_bandwidth": 1045504, "exit_policy": ["reject *:*"], "ipv4_address": "154.67.217.229", "latitude": -20.8864, "longitude": 55.4511, "distance": 9935.352167308178}, {"nickname": "jellyfixerpitbowl", "fingerprint": "135FF44CC334E6632F2F74B9D99E7D433422ABDA", "or_addresses": ["45.79.14.141:9001", "[2600:3c00::f03c:92ff:fe97:c70b]:9001"], "flags": ["Fast", "Running", "Stable", "Valid"], "country": "us", "consensus_weight": 410, "observed_bandwidth": 1054959, "advertised_bandwidth": 1024000, "exit_policy": ["reject *:*"], "ipv4_address": "45.79.14.141", "latitude": 32.9473, "longitude": -96.7028, "distance": 7727.885310097038}, {"nickname": "doerak", "fingerprint": "13809CC1C07828752A248CDBC81869C52E76BEBD", "or_addresses": ["65.108.210.174:443", "[2a01:4f9:c011:3711::1]:443"], "flags": ["Fast", "Running", "Stable", "Valid"], "country": "fi", "consensus_weight": 13000, "observed_bandwidth": 10779127, "advertised_bandwidth": 10240000, "exit_policy": ["reject *:*"], "ipv4_address": "65.108.210.174", "latitude": 60.1797, "longitude": 24.9344, "distance": 745.4529965220947}, {"nickname": "srnfprivacy", "fingerprint": "1384152DA3613F39076FC9325C0FD8B6AAD44D0C", "or_addresses": ["87.172.125.191:9001"], "flags": ["Fast", "HSDir", "Running", "Stable", "V2Dir", "Valid"], "country": "de", "consensus_weight": 470, "observed_bandwidth": 1007880, "advertised_bandwidth": 1007880, "exit_policy": ["reject *:*"], "ipv4_address": "87.172.125.191", "latitude": 51.501, "longitude": 7.0469, "distance": 1103.3958120680122}, {"nickname": "RoarHound", "fingerprint": "13CE18FDA95C3F628B2D1772030C925B7F716BD7", "or_addresses": ["91.228.52.211:9001"], "flags": ["Fast", "Running", "Valid"], "country": "de", "consensus_weight": 18000, "observed_bandwidth": 14323356, "advertised_bandwidth": 14323356, "exit_policy": ["reject *:*"], "ipv4_address": "91.228.52.211", "latitude": 51.1878, "longitude": 6.8607, "distance": 1140.1857060789603}, {"nickname": "t1saczhbu0dgljekrq", "fingerprint": "13E943C7B0C0DD6A1BC8201B62037B4BF71EB376", "or_addresses": ["51.154.39.70:8080", "[2a04:ee41:84:9066:200:ff:fe00:202]:8080"], "flags": ["Fast", "Running", "Stable", "V2Dir", "Valid"], "country": "ch", "consensus_weight": 460, "observed_bandwidth": 1031168, "advertised_bandwidth": 1031168, "exit_policy": ["reject *:*"], "ipv4_address": "51.154.39.70", "latitude": 47.3934, "longitude": 8.5163, "distance": 1539.0146564467536}, {"nickname": "Unnamed", "fingerprint": "13EBF3B038090EBACC84B2A5241C910265BBCD6E", "or_addresses": ["153.127.192.183:9001"], "flags": ["Fast", "HSDir", "Running", "Stable", "V2Dir", "Valid"], "country": "jp", "consensus_weight": 340, "observed_bandwidth": 1029309, "advertised_bandwidth": 1029309, "exit_policy": ["reject *:*"], "ipv4_address": "153.127.192.183", "latitude": 35.6837, "longitude": 139.6805, "distance": 8283.345052603494}, {"nickname": "Vulcano", "fingerprint": "141E9A5A2EFC1F8CCEDB032CDEBAD3207ECC6501", "or_addresses": ["94.172.84.96:9001"], "flags": ["Fast", "HSDir", "Running", "Stable", "V2Dir", "Valid"], "country": "pl", "consensus_weight": 120, "observed_bandwidth": 471122, "advertised_bandwidth": 471122, "exit_policy": ["reject *:*"], "ipv4_address": "94.172.84.96", "latitude": 52.0733, "longitude": 21.0075, "distance": 1164.9237221285948}, {"nickname": "SofiaLamb", "fingerprint": "14313174C360A3012C4F7A9EABE552C33CE4F306", "or_addresses": ["185.21.217.29:10128"], "flags": ["Fast", "Running", "Stable", "Valid"], "country": "gb", "consensus_weight": 44000, "observed_bandwidth": 35968510, "advertised_bandwidth": 35968510, "exit_policy": ["reject *:*"], "ipv4_address": "185.21.217.29", "latitude": 51.4964, "longitude": -0.1224, "distance": 1281.0843613921256}, {"nickname": "TD403", "fingerprint": "14870B5C03E71E1550EAE776FA3FB2DFEA495CF7", "or_addresses": ["169.150.198.75:57138"], "flags": ["Fast", "Running", "V2Dir", "Valid"], "country": "br", "consensus_weight": 88, "observed_bandwidth": 589835, "advertised_bandwidth": 589835, "exit_policy": ["reject *:*"], "ipv4_address": "169.150.198.75", "latitude": -23.5335, "longitude": -46.6359, "distance": 10746.210432016609}, {"nickname": "DaffyMcduck", "fingerprint": "14BA402FE00684C6DC6BF1BE314848B0982D4E56", "or_addresses": ["185.101.34.74:443"], "flags": ["BadExit", "Fast", "MiddleOnly", "Running", "Stable", "Valid"], "country": "no", "consensus_weight": 13000, "observed_bandwidth": 11581675, "advertised_bandwidth": 11581675, "exit_policy": ["reject 0.0.0.0/8:*", "reject 169.254.0.0/16:*", "reject 127.0.0.0/8:*", "reject 192.168.0.0/16:*", "reject 10.0.0.0/8:*", "reject 172.16.0.0/12:*", "reject 185.101.34.74:*", "accept *:20-21", "accept *:43", "accept *:53", "accept *:80", "accept *:110", "accept *:143", "accept *:220", "accept *:443", "accept *:873", "accept *:989-990", "accept *:991", "accept *:992", "accept *:993", "accept *:995", "accept *:1194", "accept *:1293", "accept *:3690", "accept *:4321", "accept *:5222-5223", "accept *:5228", "accept *:9418", "accept *:11371", "accept *:64738", "reject *:*"], "ipv4_address": "185.101.34.74", "latitude": 59.8636, "longitude": 10.7961, "distance": 144.58302104642053}, {"nickname": "tk1", "fingerprint": "14E7425932F342E59BDC9E31BF414A2F832721FA", "or_addresses": ["118.27.10.181:9001", "[2400:8500:1801:405:118:27:10:181]:9001"], "flags": ["Fast", "HSDir", "Running", "Stable", "V2Dir", "Valid"], "country": "jp", "consensus_weight": 350, "observed_bandwidth": 999176, "advertised_bandwidth": 999176, "exit_policy": ["reject *:*"], "ipv4_address": "118.27.10.181", "latitude": 35.6897, "longitude": 139.6895, "distance": 8283.051099909544}, {"nickname": "diettor", "fingerprint": "153D282FA1D5CE874CA34E2833DBF34C0C53F79B", "or_addresses": ["85.229.10.78:443"], "flags": ["Fast", "HSDir", "Running", "Stable", "V2Dir", "Valid"], "country": "se", "consensus_weight": 24000, "observed_bandwidth": 17308915, "advertised_bandwidth": 17308915, "exit_policy": ["reject *:*"], "ipv4_address": "85.229.10.78", "latitude": 59.2322, "longitude": 18.1257, "distance": 428.90270744841547}, {"nickname": "mac68tm", "fingerprint": "155513DAF42E18FA16FCE77D08417E460785A95B", "or_addresses": ["95.147.86.153:9001"], "flags": ["Fast", "Running", "Stable", "V2Dir", "Valid"], "country": "gb", "consensus_weight": 480, "observed_bandwidth": 1180672, "advertised_bandwidth": 1048576, "exit_policy": ["reject *:*"], "ipv4_address": "95.147.86.153", "latitude": 52.9292, "longitude": -1.1065, "distance": 1180.456749061945}, {"nickname": "WowieZowie", "fingerprint": "15A48E7325C34D33B8499E6E02065914BA1801C7", "or_addresses": ["150.136.142.129:9001", "[2603:c020:400e:2d00:1dab:577c:9b9:1ff0]:9001"], "flags": ["Fast", "HSDir", "Running", "Stable", "V2Dir", "Valid"], "country": "us", "consensus_weight": 130, "observed_bandwidth": 533061, "advertised_bandwidth": 512000, "exit_policy": ["reject *:*"], "ipv4_address": "150.136.142.129", "latitude": 39.018, "longitude": -77.539, "distance": 6234.472751018612}, {"nickname": "5b82I0IfxsHI7ekh", "fingerprint": "15AE6FFE0E245A820D4F74EA64B4C304EE555C1D", "or_addresses": ["94.134.61.11:8443"], "flags": ["Fast", "Running", "V2Dir", "Valid"], "country": "de", "consensus_weight": 480, "observed_bandwidth": 983395, "advertised_bandwidth": 983395, "exit_policy": ["reject *:*"], "ipv4_address": "94.134.61.11", "latitude": 52.4746, "longitude": 13.4164, "distance": 970.8792112999554}, {"nickname": "FuckXandao", "fingerprint": "15C84E55A7B91A498908A527757F951B55B0A15D", "or_addresses": ["164.152.240.210:9090", "[2603:c025:4001:280a:6363:7e28:2521:c8b4]:9090"], "flags": ["Fast", "HSDir", "Running", "Stable", "V2Dir", "Valid"], "country": "us", "consensus_weight": 1500, "observed_bandwidth": 2426309, "advertised_bandwidth": 2426309, "exit_policy": ["reject *:*"], "ipv4_address": "164.152.240.210", "latitude": -23.0251, "longitude": -46.9785, "distance": 10709.156341183025}, {"nickname": "peci1tornode", "fingerprint": "15EFE7269FB3F8BE7B6E5EF8471ED6A04799B020", "or_addresses": ["94.142.236.196:9001"], "flags": ["Fast", "Running", "Stable", "V2Dir", "Valid"], "country": "cz", "consensus_weight": 84, "observed_bandwidth": 433364, "advertised_bandwidth": 409600, "exit_policy": ["reject *:*"], "ipv4_address": "94.142.236.196", "latitude": 50.05, "longitude": 14.4, "distance": 1246.9437753570974}, {"nickname": "cloak", "fingerprint": "15FCFEC81522453A58AE3884D660A621A8472816", "or_addresses": ["185.26.156.13:40745", "[2a00:d0c0:200:0:6ca2:b2ff:fee6:2c13]:40745"], "flags": ["Fast", "Running", "Valid"], "country": "de", "consensus_weight": 690, "observed_bandwidth": 1358308, "advertised_bandwidth": 1228800, "exit_policy": ["reject *:*"], "ipv4_address": "185.26.156.13", "latitude": 51.2993, "longitude": 9.491, "distance": 1099.7627743542018}, {"nickname": "mypirelay", "fingerprint": "16530D8CCD6A7C2C13564A573E9B23CE1A4AD24F", "or_addresses": ["37.133.187.77:9001"], "flags": ["Fast", "HSDir", "Running", "Stable", "V2Dir", "Valid"], "country": "es", "consensus_weight": 130, "observed_bandwidth": 517930, "advertised_bandwidth": 512000, "exit_policy": ["reject *:*"], "ipv4_address": "37.133.187.77", "latitude": 41.387, "longitude": 2.1701, "distance": 2282.555589616474}, {"nickname": "HomersTorRelay", "fingerprint": "16630533555C515063E27F9C4D4A69017CC3C4B7", "or_addresses": ["209.141.43.199:7852", "[2605:6400:20:260:1479:7b94:7ad2:3652]:7852"], "flags": ["Fast", "HSDir", "Running", "Stable", "V2Dir", "Valid"], "country": "us", "consensus_weight": 890, "observed_bandwidth": 1529083, "advertised_bandwidth": 1529083, "exit_policy": ["reject *:*"], "ipv4_address": "209.141.43.199", "latitude": 36.102, "longitude": -115.1447, "distance": 8176.24157440828}, {"nickname": "boats", "fingerprint": "1669E51A8F1D7D7255683F5536D3BE643EB11664", "or_addresses": ["89.58.0.89:443", "[2a03:4000:5d:dd7:1451:c9ff:fe68:1d78]:443"], "flags": ["Fast", "Running", "V2Dir", "Valid"], "country": "de", "consensus_weight": 37000, "observed_bandwidth": 33034240, "advertised_bandwidth": 33034240, "exit_policy": ["reject *:*"], "ipv4_address": "89.58.0.89", "latitude": 51.2993, "longitude": 9.491, "distance": 1099.7627743542018}, {"nickname": "Unnamed", "fingerprint": "169D36A75108D9D77B422C89EFA783CFBC662BF8", "or_addresses": ["93.72.79.64:9001"], "flags": ["Fast", "Running", "Stable", "V2Dir", "Valid"], "country": "ua", "consensus_weight": 330, "observed_bandwidth": 1169408, "advertised_bandwidth": 786432, "exit_policy": ["reject *:*"], "ipv4_address": "93.72.79.64", "latitude": 50.458, "longitude": 30.5303, "distance": 1674.6785684540214}, {"nickname": "vistrelay", "fingerprint": "16F4F221974E80E5B89F814791D2522E9D2ECFF1", "or_addresses": ["198.211.125.179:9001"], "flags": ["Fast", "Running", "Stable", "Valid"], "country": "us", "consensus_weight": 230, "observed_bandwidth": 697534, "advertised_bandwidth": 697534, "exit_policy": ["reject *:*"], "ipv4_address": "198.211.125.179", "latitude": 52.3006, "longitude": 4.9479, "distance": 1056.5024617172191}, {"nickname": "RelayTheFuckOutOfIt", "fingerprint": "16F50F2728581FE5CA7AC31F5066DCE8653F996C", "or_addresses": ["195.201.226.88:9001", "[2a01:4f8:c2c:f672::1]:9001"], "flags": ["Fast", "Running", "Stable", "Valid"], "country": "de", "consensus_weight": 25000, "observed_bandwidth": 15433706, "advertised_bandwidth": 15433706, "exit_policy": ["reject *:*"], "ipv4_address": "195.201.226.88", "latitude": 49.1156, "longitude": 10.7511, "distance": 1337.171538168562}, {"nickname": "ghostventures", "fingerprint": "16FF2EC6F7B5A93D4BBDACA7CA6D38CE18DD2853", "or_addresses": ["139.28.36.142:443"], "flags": ["BadExit", "Fast", "MiddleOnly", "Running", "Stable", "Valid"], "country": "ua", "consensus_weight": 16000, "observed_bandwidth": 13943574, "advertised_bandwidth": 13943574, "exit_policy": ["reject 0.0.0.0/8:*", "reject 169.254.0.0/16:*", "reject 127.0.0.0/8:*", "reject 192.168.0.0/16:*", "reject 10.0.0.0/8:*", "reject 172.16.0.0/12:*", "reject 139.28.36.142:*", "accept *:20-21", "accept *:23", "accept *:43", "accept *:53", "accept *:79", "accept *:80-81", "accept *:88", "accept *:110", "accept *:194", "accept *:220", "accept *:389", "accept *:443", "accept *:464", "accept *:465", "accept *:531", "accept *:543-544", "accept *:554", "accept *:563", "accept *:587", "accept *:636", "accept *:706", "accept *:749", "accept *:873", "accept *:902-904", "accept *:981", "accept *:989-990", "accept *:991", "accept *:992", "accept *:994", "accept *:995", "accept *:1194", "accept *:1220", "accept *:1293", "accept *:1500", "accept *:1533", "accept *:1677", "accept *:1723", "accept *:1755", "accept *:1863", "accept *:2082", "accept *:2083", "accept *:2086-2087", "accept *:2095-2096", "accept *:2102-2104", "accept *:3128", "accept *:3389", "accept *:3690", "accept *:4321", "accept *:4643", "accept *:5050", "accept *:5190", "accept *:5222-5223", "accept *:5228", "accept *:5900", "accept *:6660-6669", "accept *:6679", "accept *:6697", "accept *:8000", "accept *:8008", "accept *:8074", "accept *:8080", "accept *:8082", "accept *:8087-8088", "accept *:8232-8233", "accept *:8332-8333", "accept *:8443", "accept *:8888", "accept *:9418", "accept *:9999", "accept *:10000", "accept *:11371", "accept *:19294", "accept *:19638", "accept *:50002", "accept *:64738", "reject *:*"], "ipv4_address": "139.28.36.142", "latitude": 50.458, "longitude": 30.5303, "distance": 1674.6785684540214}, {"nickname": "blackPanther", "fingerprint": "17460997E66C47F805A834BE93CC14EC0DC608EA", "or_addresses": ["213.183.56.140:443"], "flags": ["Fast", "HSDir", "Running", "Stable", "V2Dir", "Valid"], "country": "ru", "consensus_weight": 590, "observed_bandwidth": 4841947, "advertised_bandwidth": 655360, "exit_policy": ["reject *:*"], "ipv4_address": "213.183.56.140", "latitude": 55.7483, "longitude": 37.6171, "distance": 1627.3397012068133}, {"nickname": "260VoltLive", "fingerprint": "1746FE95BC6EB9CF1063F5063B23090C14F865AF", "or_addresses": ["106.70.251.222:443"], "flags": ["Fast", "Running", "Stable", "V2Dir", "Valid"], "country": "au", "consensus_weight": 280, "observed_bandwidth": 2317312, "advertised_bandwidth": 2317312, "exit_policy": ["reject *:*"], "ipv4_address": "106.70.251.222", "latitude": -37.8411, "longitude": 144.9799, "distance": 15922.568891989109}, {"nickname": "lenada", "fingerprint": "174A87D7E75082E5DC7CB3B058FFF1956A389599", "or_addresses": ["148.153.0.42:9001"], "flags": ["Fast", "HSDir", "Running", "Stable", "V2Dir", "Valid"], "country": "us", "consensus_weight": 360, "observed_bandwidth": 973286, "advertised_bandwidth": 973286, "exit_policy": ["reject *:*"], "ipv4_address": "148.153.0.42", "latitude": 34.0544, "longitude": -118.2441, "distance": 8496.637200442277}, {"nickname": "AveCaesar", "fingerprint": "1752DCDB9794770FCAF93AFEEE1EA6BD620E084D", "or_addresses": ["178.165.27.216:9011"], "flags": ["Fast", "Running", "Stable", "Valid"], "country": "ua", "consensus_weight": 430, "observed_bandwidth": 1071266, "advertised_bandwidth": 1024000, "exit_policy": ["reject *:*"], "ipv4_address": "178.165.27.216", "latitude": 49.982, "longitude": 36.2566, "distance": 1976.3345850713608}, {"nickname": "bluemax666", "fingerprint": "175D63EFB9176BFADD306843960BFC085A2ABA93", "or_addresses": ["84.75.28.247:9201"], "flags": ["Fast", "HSDir", "Running", "Stable", "V2Dir", "Valid"], "country": "ch", "consensus_weight": 470, "observed_bandwidth": 1087773, "advertised_bandwidth": 1048576, "exit_policy": ["reject *:*"], "ipv4_address": "84.75.28.247", "latitude": 46.9826, "longitude": 6.8888, "distance": 1599.914664474863}, {"nickname": "Tor4Freedom", "fingerprint": "17841CD61954B2C37999927EDF0109D93D8A50A3", "or_addresses": ["77.68.73.218:443", "[2a00:da00:1800:27f::1]:9001"], "flags": ["Fast", "Running", "V2Dir", "Valid"], "country": "gb", "consensus_weight": 17000, "observed_bandwidth": 10721704, "advertised_bandwidth": 10721704, "exit_policy": ["reject *:*"], "ipv4_address": "77.68.73.218", "latitude": 51.5074, "longitude": -0.1196, "distance": 1279.9188857294032}, {"nickname": "lon", "fingerprint": "17919460EFE0DFC2B0CF0D6C453AC72B252630F5", "or_addresses": ["160.119.253.114:443"], "flags": ["Fast", "HSDir", "Running", "Stable", "V2Dir", "Valid"], "country": "za", "consensus_weight": 330, "observed_bandwidth": 1214497, "advertised_bandwidth": 1214497, "exit_policy": ["reject *:*"], "ipv4_address": "160.119.253.114", "latitude": -29.0, "longitude": 24.0, "distance": 10090.492137024576}, {"nickname": "Unnamed", "fingerprint": "179745F7130B9D77EA214023F88978C3A3773039", "or_addresses": ["133.242.236.198:9001"], "flags": ["Fast", "HSDir", "Running", "Stable", "V2Dir", "Valid"], "country": "jp", "consensus_weight": 390, "observed_bandwidth": 1103296, "advertised_bandwidth": 1048576, "exit_policy": ["reject *:*"], "ipv4_address": "133.242.236.198", "latitude": 35.7662, "longitude": 139.5827, "distance": 8271.433506329704}, {"nickname": "flametitan", "fingerprint": "179A16B095EEB91B5D11925C244AF8C73370AE4F", "or_addresses": ["179.43.178.118:443"], "flags": ["BadExit", "Fast", "MiddleOnly", "Running", "Stable", "Valid"], "country": "ch", "consensus_weight": 2600, "observed_bandwidth": 3483739, "advertised_bandwidth": 3483739, "exit_policy": ["reject 0.0.0.0/8:*", "reject 169.254.0.0/16:*", "reject 127.0.0.0/8:*", "reject 192.168.0.0/16:*", "reject 10.0.0.0/8:*", "reject 172.16.0.0/12:*", "reject 179.43.178.118:*", "accept *:20-21", "accept *:43", "accept *:53", "accept *:80", "accept *:110", "accept *:143", "accept *:220", "accept *:443", "accept *:873", "accept *:989-990", "accept *:991", "accept *:992", "accept *:993", "accept *:995", "accept *:1194", "accept *:1293", "accept *:3690", "accept *:4321", "accept *:5222-5223", "accept *:5228", "accept *:9418", "accept *:11371", "accept *:64738", "reject *:*"], "ipv4_address": "179.43.178.118", "latitude": 47.3934, "longitude": 8.5163, "distance": 1539.0146564467536}, {"nickname": "bereg", "fingerprint": "17A1BA65F89657B35EAF718C46A2073E0A3AE03E", "or_addresses": ["46.226.107.215:10400", "[2001:4b98:dc0:43:f816:3eff:fe93:b598]:10400"], "flags": ["Fast", "HSDir", "Running", "Stable", "V2Dir", "Valid"], "country": "fr", "consensus_weight": 4000, "observed_bandwidth": 8492002, "advertised_bandwidth": 2621440, "exit_policy": ["reject *:*"], "ipv4_address": "46.226.107.215", "latitude": 48.8582, "longitude": 2.3387, "distance": 1478.6913602924574}, {"nickname": "omue", "fingerprint": "17CD51A609A999C2241F9BE623256FBA91B8B6BD", "or_addresses": ["46.142.7.64:9002"], "flags": ["Fast", "Running", "V2Dir", "Valid"], "country": "de", "consensus_weight": 460, "observed_bandwidth": 1078909, "advertised_bandwidth": 1048576, "exit_policy": ["reject *:*"], "ipv4_address": "46.142.7.64", "latitude": 51.0512, "longitude": 13.6706, "distance": 1130.1673952217054}, {"nickname": "crimsonshape4735", "fingerprint": "17F050F657EC41B25CAF8F30C173DA59CEDB5A8B", "or_addresses": ["69.164.206.5:9100", "[2600:3c00::f03c:93ff:fe73:c4e9]:9100"], "flags": ["Fast", "HSDir", "Running", "Stable", "V2Dir", "Valid"], "country": "us", "consensus_weight": 1000, "observed_bandwidth": 1583775, "advertised_bandwidth": 1572864, "exit_policy": ["reject *:*"], "ipv4_address": "69.164.206.5", "latitude": 32.9473, "longitude": -96.7028, "distance": 7727.885310097038}, {"nickname": "KeKoFR2", "fingerprint": "17F25AE1B065124665E53A01EF979AD187BAC760", "or_addresses": ["45.145.164.48:9001", "[2a04:ecc0:8:a8:4567:163:0:1]:9001"], "flags": ["BadExit", "Fast", "MiddleOnly", "Running", "Stable", "Valid"], "country": "fr", "consensus_weight": 25000, "observed_bandwidth": 20559988, "advertised_bandwidth": 20559988, "exit_policy": ["reject *:*"], "ipv4_address": "45.145.164.48", "latitude": 48.8582, "longitude": 2.3387, "distance": 1478.6913602924574}, {"nickname": "Unnamed", "fingerprint": "180B1FB830129ECE7BCDD79D8E9E1DCAA444CA11", "or_addresses": ["146.70.82.126:38045"], "flags": ["Fast", "HSDir", "Running", "Stable", "V2Dir", "Valid"], "country": "de", "consensus_weight": 120, "observed_bandwidth": 491234, "advertised_bandwidth": 491234, "exit_policy": ["reject *:*"], "ipv4_address": "146.70.82.126", "latitude": 50.1049, "longitude": 8.6295, "distance": 1238.3222753938524}, {"nickname": "TOPAS", "fingerprint": "188673CF3937442517301800F383BE53D4A17732", "or_addresses": ["92.117.219.195:9001", "[2001:9e8:2771:4e00:e65f:1ff:fe00:96c5]:9001"], "flags": ["Fast", "Running", "V2Dir", "Valid"], "country": "de", "consensus_weight": 3700, "observed_bandwidth": 4088832, "advertised_bandwidth": 4088832, "exit_policy": ["reject *:*"], "ipv4_address": "92.117.219.195", "latitude": 50.0847, "longitude": 8.2454, "distance": 1244.0505736079797}, {"nickname": "TorMePlz", "fingerprint": "18A5ED4B9AA434883275C15D6CF3F795BA86744A", "or_addresses": ["149.154.159.87:443"], "flags": ["Fast", "HSDir", "Running", "Stable", "V2Dir", "Valid"], "country": "de", "consensus_weight": 1100, "observed_bandwidth": 9446377, "advertised_bandwidth": 655360, "exit_policy": ["reject *:*"], "ipv4_address": "149.154.159.87", "latitude": 50.1188, "longitude": 8.6843, "distance": 1236.3237974767553}, {"nickname": "lst97", "fingerprint": "18AF0A4ABEBC388E5DAA81DBF188C9B92A380917", "or_addresses": ["42.241.12.2:9001"], "flags": ["Fast", "HSDir", "Running", "Stable", "V2Dir", "Valid"], "country": "au", "consensus_weight": 160, "observed_bandwidth": 661088, "advertised_bandwidth": 661088, "exit_policy": ["reject *:*"], "ipv4_address": "42.241.12.2", "latitude": -37.8411, "longitude": 144.9799, "distance": 15922.568891989109}, {"nickname": "ididnteditheconfig", "fingerprint": "18BEAA74F468FAECAD89C8160A1CB9EA21771E4A", "or_addresses": ["51.38.235.40:9001", "[2001:41d0:305:2100::150b]:9001"], "flags": ["Fast", "Running", "V2Dir", "Valid"], "country": "fr", "consensus_weight": 7800, "observed_bandwidth": 4860607, "advertised_bandwidth": 4860607, "exit_policy": ["reject *:*"], "ipv4_address": "51.38.235.40", "latitude": 48.9189, "longitude": 2.5876, "distance": 1466.3668014465843}, {"nickname": "Unnamed", "fingerprint": "18EAD246538C50FD0859BF976C4E8401FC9755A0", "or_addresses": ["24.18.194.124:12101"], "flags": ["Fast", "Running", "Stable", "Valid"], "country": "us", "consensus_weight": 480, "observed_bandwidth": 1226571, "advertised_bandwidth": 1226571, "exit_policy": ["reject *:*"], "ipv4_address": "24.18.194.124", "latitude": 47.4998, "longitude": -122.0086, "distance": 7236.865191688911}, {"nickname": "sweettearummy", "fingerprint": "18EEE9D8553BA0171A7967CEB96366864EF0E552", "or_addresses": ["8.26.21.143:443", "[2607:feb8::5:14e]:443"], "flags": ["Fast", "Running", "V2Dir", "Valid"], "country": "us", "consensus_weight": 3400, "observed_bandwidth": 4107555, "advertised_bandwidth": 4107555, "exit_policy": ["reject *:*"], "ipv4_address": "8.26.21.143", "latitude": 25.8119, "longitude": -80.2318, "distance": 7601.089206223872}, {"nickname": "Unnamed", "fingerprint": "18EF781925EDF5463338AB450EF0C56C5CAA2F1A", "or_addresses": ["194.35.185.167:9001", "[2001:470:75e9:1::10]:9001"], "flags": ["Fast", "Running", "Stable", "V2Dir", "Valid"], "country": "de", "consensus_weight": 270, "observed_bandwidth": 1354752, "advertised_bandwidth": 512000, "exit_policy": ["reject *:*"], "ipv4_address": "194.35.185.167", "latitude": 49.2879, "longitude": 6.8984, "distance": 1346.8983328104775}, {"nickname": "JustSomeRandomRelay", "fingerprint": "191A1013F9EF2B02B2A629827D3E7FA39815B087", "or_addresses": ["132.145.204.12:443", "[2603:c020:4010:3301:57f6:7f0f:82bb:c569]:443"], "flags": ["Fast", "Running", "Stable", "Valid"], "country": "us", "consensus_weight": 6900, "observed_bandwidth": 9288281, "advertised_bandwidth": 4194304, "exit_policy": ["reject *:*"], "ipv4_address": "132.145.204.12", "latitude": 39.018, "longitude": -77.539, "distance": 6234.472751018612}, {"nickname": "janus", "fingerprint": "192423C5FF08E83E3CF5F91C7DB264D1FB5A1C14", "or_addresses": ["37.187.73.116:443"], "flags": ["Fast", "HSDir", "Running", "Stable", "V2Dir", "Valid"], "country": "fr", "consensus_weight": 490, "observed_bandwidth": 1123409, "advertised_bandwidth": 1048576, "exit_policy": ["reject *:*"], "ipv4_address": "37.187.73.116", "latitude": 48.8582, "longitude": 2.3387, "distance": 1478.6913602924574}, {"nickname": "iwoasnet", "fingerprint": "1930F71CAE1186A40EF16239FA3CDA51ED3F0C4B", "or_addresses": ["81.7.18.96:6133", "[2a02:180:1:1::517:1260]:6133"], "flags": ["Fast", "HSDir", "Running", "Stable", "V2Dir", "Valid"], "country": "de", "consensus_weight": 140, "observed_bandwidth": 563842, "advertised_bandwidth": 563200, "exit_policy": ["reject *:*"], "ipv4_address": "81.7.18.96", "latitude": 51.2993, "longitude": 9.491, "distance": 1099.7627743542018}, {"nickname": "habo01", "fingerprint": "196ABA69C056520E041FAE26EFB329940AB110AF", "or_addresses": ["109.202.212.1:9001", "[2001:1620:4:d401:29:64aa:f77f:d8e0]:9001"], "flags": ["Fast", "Running", "V2Dir", "Valid"], "country": "ch", "consensus_weight": 20, "observed_bandwidth": 6033026, "advertised_bandwidth": 6033026, "exit_policy": ["reject *:*"], "ipv4_address": "109.202.212.1", "latitude": 46.8999, "longitude": 8.2458, "distance": 1595.7288352560984}, {"nickname": "blueflagrelay", "fingerprint": "198B92A9847F5A8C9B9B7F8B5EEB584D356228B4", "or_addresses": ["194.195.250.69:443", "[2400:8907::f03c:93ff:fe7a:9df8]:443"], "flags": ["Fast", "HSDir", "Running", "Stable", "V2Dir", "Valid"], "country": "gb", "consensus_weight": 570, "observed_bandwidth": 1879025, "advertised_bandwidth": 1879025, "exit_policy": ["reject *:*"], "ipv4_address": "194.195.250.69", "latitude": -33.8715, "longitude": 151.2006, "distance": 15860.998497089897}, {"nickname": "triangularSpear", "fingerprint": "19C51E43F74CBD742D412F20A5B5B816765476A5", "or_addresses": ["109.51.0.113:9001"], "flags": ["Fast", "Running", "V2Dir", "Valid"], "country": "pt", "consensus_weight": 800, "observed_bandwidth": 2080768, "advertised_bandwidth": 2080768, "exit_policy": ["reject *:*"], "ipv4_address": "109.51.0.113", "latitude": 39.7433, "longitude": -8.8056, "distance": 2749.871943715827}, {"nickname": "TestMyTor721", "fingerprint": "19E3FE22BA9A91C21D2DAF4D21FBCE0FCA293EE5", "or_addresses": ["38.146.55.72:9001"], "flags": ["Fast", "HSDir", "Running", "Stable", "V2Dir", "Valid"], "country": "us", "consensus_weight": 660, "observed_bandwidth": 1301367, "advertised_bandwidth": 1301367, "exit_policy": ["reject *:*"], "ipv4_address": "38.146.55.72", "latitude": 42.3611, "longitude": -71.0518, "distance": 5608.593421402889}, {"nickname": "Noaccess", "fingerprint": "19F90313B2C0EB03EFC347706F2735E81876D846", "or_addresses": ["80.219.217.206:9030"], "flags": ["Fast", "HSDir", "Running", "Stable", "V2Dir", "Valid"], "country": "ch", "consensus_weight": 410, "observed_bandwidth": 1060481, "advertised_bandwidth": 1024000, "exit_policy": ["reject *:*"], "ipv4_address": "80.219.217.206", "latitude": 47.3979, "longitude": 9.591, "distance": 1531.893946720434}, {"nickname": "ABCVG", "fingerprint": "1A020A414D8AB25F54415C8C1E75A5562A9DD9A6", "or_addresses": ["37.187.103.54:443", "[2001:41d0:a:2736::1]:443"], "flags": ["Fast", "Running", "V2Dir", "Valid"], "country": "fr", "consensus_weight": 9100, "observed_bandwidth": 7506406, "advertised_bandwidth": 7506406, "exit_policy": ["reject *:*"], "ipv4_address": "37.187.103.54", "latitude": 48.8582, "longitude": 2.3387, "distance": 1478.6913602924574}, {"nickname": "DebatableMink", "fingerprint": "1A0873654174FF8B1D66B02DA82D46ADDD46AC4B", "or_addresses": ["164.68.113.149:9001"], "flags": ["Fast", "Running", "V2Dir", "Valid"], "country": "de", "consensus_weight": 4400, "observed_bandwidth": 3979619, "advertised_bandwidth": 3979619, "exit_policy": ["reject *:*"], "ipv4_address": "164.68.113.149", "latitude": 49.405, "longitude": 11.1617, "distance": 1304.4805987690977}, {"nickname": "SlimTor", "fingerprint": "1A44995B5F86DADEC1DD0CBABA15C19B44C8E0DF", "or_addresses": ["75.184.41.141:9001"], "flags": ["Fast", "Running", "Stable", "V2Dir", "Valid"], "country": "us", "consensus_weight": 350, "observed_bandwidth": 960512, "advertised_bandwidth": 960512, "exit_policy": ["reject *:*"], "ipv4_address": "75.184.41.141", "latitude": 35.001, "longitude": -78.9345, "distance": 6672.30884671649}, {"nickname": "just746436456", "fingerprint": "1A52E1EA95EA1C05E6A3B643AA9AC1E87FC796F3", "or_addresses": ["37.221.195.19:9001"], "flags": ["Fast", "Running", "Stable", "Valid"], "country": "de", "consensus_weight": 1700, "observed_bandwidth": 2208914, "advertised_bandwidth": 2097152, "exit_policy": ["reject *:*"], "ipv4_address": "37.221.195.19", "latitude": 51.2993, "longitude": 9.491, "distance": 1099.7627743542018}, {"nickname": "TestMyTor681", "fingerprint": "1A86F9F97E69F5947405749A5A6C0B206F5C1393", "or_addresses": ["38.146.55.68:9001"], "flags": ["Fast", "HSDir", "Running", "Stable", "V2Dir", "Valid"], "country": "us", "consensus_weight": 510, "observed_bandwidth": 1259436, "advertised_bandwidth": 1259436, "exit_policy": ["reject *:*"], "ipv4_address": "38.146.55.68", "latitude": 42.3611, "longitude": -71.0518, "distance": 5608.593421402889}, {"nickname": "KavinRelay", "fingerprint": "1A9DE534C542E5F19A72D692D1736705FB78438D", "or_addresses": ["15.204.11.248:9001", "[2604:2dc0:202:300::13]:9001"], "flags": ["Fast", "HSDir", "Running", "Stable", "V2Dir", "Valid"], "country": "us", "consensus_weight": 1300, "observed_bandwidth": 3131523, "advertised_bandwidth": 3131523, "exit_policy": ["reject *:*"], "ipv4_address": "15.204.11.248", "latitude": 45.5397, "longitude": -122.9638, "distance": 7466.2941759002415}, {"nickname": "Unnamed", "fingerprint": "1AC8884B9C1D1E28DEC7A24610F31E9C6D2C4FA3", "or_addresses": ["202.61.205.33:9001", "[2a03:4000:5b:563::1]:9001"], "flags": ["Fast", "Running", "Stable", "V2Dir", "Valid"], "country": "de", "consensus_weight": 13000, "observed_bandwidth": 13315072, "advertised_bandwidth": 7340032, "exit_policy": ["reject *:*"], "ipv4_address": "202.61.205.33", "latitude": 48.2048, "longitude": 16.3801, "distance": 1472.502236723271}, {"nickname": "PoopyTheChinchilla", "fingerprint": "1AD4C27CDC6680A6A97B657CA6E2793A6376645D", "or_addresses": ["136.243.93.102:143"], "flags": ["Fast", "Running", "Stable", "Valid"], "country": "de", "consensus_weight": 120, "observed_bandwidth": 528681, "advertised_bandwidth": 500000, "exit_policy": ["reject *:*"], "ipv4_address": "136.243.93.102", "latitude": 51.2993, "longitude": 9.491, "distance": 1099.7627743542018}, {"nickname": "Ichotolot60", "fingerprint": "1AE039EE0B11DB79E4B4B29CBA9F752864A0259E", "or_addresses": ["81.7.14.253:443", "[2a02:180:6:1::1fa]:443"], "flags": ["Fast", "HSDir", "Running", "Stable", "V2Dir", "Valid"], "country": "de", "consensus_weight": 250, "observed_bandwidth": 1617906, "advertised_bandwidth": 1617906, "exit_policy": ["reject *:*"], "ipv4_address": "81.7.14.253", "latitude": 51.2993, "longitude": 9.491, "distance": 1099.7627743542018}, {"nickname": "uknd", "fingerprint": "1AE1CBDAAC8DF7130743710D8A0E598157873ED5", "or_addresses": ["61.4.102.51:9001"], "flags": ["Fast", "Running", "Stable", "V2Dir", "Valid"], "country": "my", "consensus_weight": 90, "observed_bandwidth": 1091584, "advertised_bandwidth": 1091584, "exit_policy": ["reject *:*"], "ipv4_address": "61.4.102.51", "latitude": 2.5, "longitude": 112.5, "distance": 10360.70549190952}, {"nickname": "CinemaField", "fingerprint": "1B471B9FD70BD4D9E46C4E8B5B5AE075D6E2DD17", "or_addresses": ["185.103.135.20:9002"], "flags": ["Fast", "HSDir", "Running", "Stable", "V2Dir", "Valid"], "country": "ru", "consensus_weight": 250, "observed_bandwidth": 3499081, "advertised_bandwidth": 256000, "exit_policy": ["reject *:*"], "ipv4_address": "185.103.135.20", "latitude": 55.7386, "longitude": 37.6068, "distance": 1627.371507642689}, {"nickname": "ryanfragdev", "fingerprint": "1B6B37BAE2607E2B6C81685A23556EB7CFB9961C", "or_addresses": ["144.217.87.28:9001", "[2607:5300:201:3100::24c0]:9001"], "flags": ["Fast", "Running", "Stable", "Valid"], "country": "ca", "consensus_weight": 300, "observed_bandwidth": 933888, "advertised_bandwidth": 870400, "exit_policy": ["reject *:*"], "ipv4_address": "144.217.87.28", "latitude": 45.3161, "longitude": -73.8736, "distance": 5494.645438172578}, {"nickname": "NCC74656", "fingerprint": "1B96D9BEC08E4B6BC718FFCFF105106B7165DDAA", "or_addresses": ["91.199.41.57:443"], "flags": ["Fast", "HSDir", "Running", "Stable", "V2Dir", "Valid"], "country": "cy", "consensus_weight": 970, "observed_bandwidth": 3056589, "advertised_bandwidth": 3056589, "exit_policy": ["reject *:*"], "ipv4_address": "91.199.41.57", "latitude": 35.0, "longitude": 33.0, "distance": 3286.706705470595}, {"nickname": "theherosanctum", "fingerprint": "1C21EFE31BA0B55B1359597B0B46F37184DFCCBE", "or_addresses": ["131.255.4.48:443"], "flags": ["Fast", "HSDir", "Running", "Stable", "V2Dir", "Valid"], "country": "ar", "consensus_weight": 440, "observed_bandwidth": 3068449, "advertised_bandwidth": 3068449, "exit_policy": ["reject *:*"], "ipv4_address": "131.255.4.48", "latitude": -36.0, "longitude": -59.9964, "distance": 12563.613017495423}, {"nickname": "PineappleCoconut", "fingerprint": "1C33BB8FC92E0E19264E331AC4AAE0984CAE0E50", "or_addresses": ["198.199.105.195:9001"], "flags": ["Fast", "Running", "Valid"], "country": "us", "consensus_weight": 4700, "observed_bandwidth": 5320704, "advertised_bandwidth": 5320704, "exit_policy": ["reject *:*"], "ipv4_address": "198.199.105.195", "latitude": 37.7308, "longitude": -122.3838, "distance": 8256.183400593613}, {"nickname": "Bishibosh", "fingerprint": "1C41B62A48C9B86E2D0AA6C27F25D73CCC848D83", "or_addresses": ["45.124.53.132:9001", "[2404:9400:3:0:216:3eff:fee1:1151]:9001"], "flags": ["Fast", "HSDir", "Running", "Stable", "V2Dir", "Valid"], "country": "au", "consensus_weight": 660, "observed_bandwidth": 2882357, "advertised_bandwidth": 2882357, "exit_policy": ["reject *:*"], "ipv4_address": "45.124.53.132", "latitude": -37.8372, "longitude": 144.9354, "distance": 15919.937682802763},