[{"nickname": "ckg", "fingerprint": "00367893160E9E58BC6101858E543EE6D0A22BC1", "or_addresses": ["186.104.197.45:9001"], "flags": ["Fast", "Running", "V2Dir", "Valid"], "country": "cl", "consensus_weight": 590, "observed_bandwidth": 1455104, "advertised_bandwidth": 1455104, "exit_policy": ["reject *:*"], "ipv4_address": "186.104.197.45", "latitude": -33.4521, "longitude": -70.6536, "distance": 12821.254733761469}, {"nickname": "prsv", "fingerprint": "003BCF43C832426A160CA0966B8A87C88DB83A17", "or_addresses": ["23.132.184.67:9000"], "flags": ["Fast", "Running", "V2Dir", "Valid"], "country": "us", "consensus_weight": 5400, "observed_bandwidth": 5253417, "advertised_bandwidth": 5253417, "exit_policy": ["reject *:*"], "ipv4_address": "23.132.184.67", "latitude": 40.5511, "longitude": -74.4606, "distance": 5941.461473518861}, {"nickname": "a9", "fingerprint": "006AE565CA934C6EE5E82FC64008D61426E8C317", "or_addresses": ["5.9.12.251:9001", "[2a01:4f8:160:82d4::2]:9001"], "flags": ["Fast", "HSDir", "Running", "Stable", "V2Dir", "Valid"], "country": "de", "consensus_weight": 71000, "observed_bandwidth": 55754491, "advertised_bandwidth": 55754491, "exit_policy": ["reject *:*"], "ipv4_address": "5.9.12.251", "latitude": 51.2993, "longitude": 9.491, "distance": 1099.7627743542018}, {"nickname": "GuyaGuya2", "fingerprint": "006F965E89A9C3A61C9F08A6B31C28F66AF218FD", "or_addresses": ["200.25.16.77:443"], "flags": ["BadExit", "Fast", "MiddleOnly", "Running", "Stable", "Valid"], "country": "br", "consensus_weight": 1000, "observed_bandwidth": 2584307, "advertised_bandwidth": 2584307, "exit_policy": ["reject 0.0.0.0/8:*", "reject 169.254.0.0/16:*", "reject 127.0.0.0/8:*", "reject 192.168.0.0/16:*", "reject 10.0.0.0/8:*", "reject 172.16.0.0/12:*", "reject 200.25.16.77:*", "accept *:20-21", "accept *:43", "accept *:53", "accept *:80", "accept *:110", "accept *:143", "accept *:220", "accept *:443", "accept *:873", "accept *:989-990", "accept *:991", "accept *:992", "accept *:993", "accept *:995", "accept *:1194", "accept *:1293", "accept *:3690", "accept *:4321", "accept *:5222-5223", "accept *:5228", "accept *:9418", "accept *:11371", "accept *:64738", "reject *:*"], "ipv4_address": "200.25.16.77", "latitude": -15.7783, "longitude": -47.9319, "distance": 10016.75840795372}, {"nickname": "venenata", "fingerprint": "0077DDDDB54954214CFEE0FE8AA85DDC857E7C8A", "or_addresses": ["71.19.144.65:9001", "[2605:2700:0:2:a800:ff:fe2c:cd37]:9001"], "flags": ["Fast", "Running", "Stable", "Valid"], "country": "us", "consensus_weight": 4700, "observed_bandwidth": 6818269, "advertised_bandwidth": 6818269, "exit_policy": ["reject *:*"], "ipv4_address": "71.19.144.65", "latitude": 37.353, "longitude": -121.9543, "distance": 8281.564435429553}, {"nickname": "HandsofGoldSpa", "fingerprint": "0082C49022C0811D45620D408E068835E2BABA71", "or_addresses": ["176.118.193.106:443"], "flags": ["BadExit", "MiddleOnly", "Running", "Stable", "Valid"], "country": "de", "consensus_weight": 5, "observed_bandwidth": 129529, "advertised_bandwidth": 129529, "exit_policy": ["reject 0.0.0.0/8:*", "reject 169.254.0.0/16:*", "reject 127.0.0.0/8:*", "reject 192.168.0.0/16:*", "reject 10.0.0.0/8:*", "reject 172.16.0.0/12:*", "reject 176.118.193.106:*", "accept *:20-21", "accept *:43", "accept *:53", "accept *:80-81", "accept *:443", "accept *:5222-5223", "accept *:6667-7000", "accept *:8008", "accept *:8082", "accept *:8332-8333", "accept *:8888", "accept *:9418", "accept *:18080-18081", "accept *:50002", "accept *:64738", "reject *:*"], "ipv4_address": "176.118.193.106", "latitude": 48.2048, "longitude": 16.3801, "distance": 1472.502236723271}, {"nickname": "BlackBeluga", "fingerprint": "00962D2DD0B9BF3A6AF1D5EB201132388ACA1424", "or_addresses": ["5.189.155.39:9001"], "flags": ["Fast", "Running", "Stable", "V2Dir", "Valid"], "country": "de", "consensus_weight": 370, "observed_bandwidth": 1090560, "advertised_bandwidth": 1048576, "exit_policy": ["reject *:*"], "ipv4_address": "5.189.155.39", "latitude": 49.405, "longitude": 11.1617, "distance": 1304.4805987690977}, {"nickname": "l25", "fingerprint": "00C4B91374AC790CB2F3865D2F36F62DF27F0A0F", "or_addresses": ["185.66.141.125:9001"], "flags": ["Fast", "Running", "Stable", "Valid"], "country": "nl", "consensus_weight": 91, "observed_bandwidth": 446403, "advertised_bandwidth": 409600, "exit_policy": ["reject *:*"], "ipv4_address": "185.66.141.125", "latitude": 17.2528, "longitude": -88.7465, "distance": 8865.461280716183}, {"nickname": "pentesting3", "fingerprint": "00C849D3FFB9D1B3AF22C0FC46D12170BD4AC7B7", "or_addresses": ["5.75.184.204:9001", "[2a01:4f8:1c1e:5f49::1]:9001"], "flags": ["Fast", "Running", "Stable", "Valid"], "country": "de", "consensus_weight": 15000, "observed_bandwidth": 10538241, "advertised_bandwidth": 10485760, "exit_policy": ["reject *:*"], "ipv4_address": "5.75.184.204", "latitude": 51.2993, "longitude": 9.491, "distance": 1099.7627743542018}, {"nickname": "prsv", "fingerprint": "00D846D23455162A1357680CDA3C2C21351E1A18", "or_addresses": ["45.88.171.100:9200"], "flags": ["Fast", "Running", "V2Dir", "Valid"], "country": "us", "consensus_weight": 12000, "observed_bandwidth": 8449837, "advertised_bandwidth": 8449837, "exit_policy": ["reject *:*"], "ipv4_address": "45.88.171.100", "latitude": 40.7503, "longitude": -74.0014, "distance": 5900.464741005913}, {"nickname": "bang1", "fingerprint": "0136696B025AC5503847D736FE9F3D65EB27A596", "or_addresses": ["134.209.159.74:443", "[2400:6180:100:d0::8bb:6001]:443"], "flags": ["Fast", "HSDir", "Running", "Stable", "V2Dir", "Valid"], "country": "us", "consensus_weight": 1300, "observed_bandwidth": 4434523, "advertised_bandwidth": 4434523, "exit_policy": ["reject *:*"], "ipv4_address": "134.209.159.74", "latitude": 12.9634, "longitude": 77.5855, "distance": 7483.664608633925}, {"nickname": "insist", "fingerprint": "014BD09636373B78CC28BA70E36C7190E3DE236A", "or_addresses": ["5.57.243.47:993"], "flags": ["Fast", "Running", "V2Dir", "Valid"], "country": "se", "consensus_weight": 21000, "observed_bandwidth": 12913101, "advertised_bandwidth": 12913101, "exit_policy": ["reject *:*"], "ipv4_address": "5.57.243.47", "latitude": 56.8746, "longitude": 14.8124, "distance": 512.7789105972133}, {"nickname": "marsmellow", "fingerprint": "014EE24BCBDA160F236B2547A4639B27E303A1E7", "or_addresses": ["20.224.145.181:443"], "flags": ["Fast", "Running", "Stable", "Valid"], "country": "us", "consensus_weight": 500, "observed_bandwidth": 1052602, "advertised_bandwidth": 1048576, "exit_policy": ["reject *:*"], "ipv4_address": "20.224.145.181", "latitude": 52.3759, "longitude": 4.8975, "distance": 1049.7241763614602}, {"nickname": "only4tor", "fingerprint": "015C28BE701E3498648CBDA551EC63EB55672332", "or_addresses": ["103.216.220.36:57047"], "flags": ["Fast", "Running", "Stable", "V2Dir", "Valid"], "country": "au", "consensus_weight": 270, "observed_bandwidth": 1154510, "advertised_bandwidth": 1154510, "exit_policy": ["reject *:*"], "ipv4_address": "103.216.220.36", "latitude": -33.494, "longitude": 143.2104, "distance": 15433.112494458013}, {"nickname": "ForetNoire", "fingerprint": "016EF8E22BEEA81F30535974EC31B6943697CA8B", "or_addresses": ["5.135.182.131:9001", "[2001:41d0:8:bd83::1]:9001"], "flags": ["Fast", "HSDir", "Running", "Stable", "V2Dir", "Valid"], "country": "fr", "consensus_weight": 1100, "observed_bandwidth": 4903349, "advertised_bandwidth": 1048576, "exit_policy": ["reject *:*"], "ipv4_address": "5.135.182.131", "latitude": 49.209, "longitude": 2.1891, "distance": 1445.607837185805}, {"nickname": "Bigdaddy", "fingerprint": "017B08CC163424CD6ABA4ADD4042B4174D494732", "or_addresses": ["185.21.217.32:10042"], "flags": ["Fast", "Running", "Stable", "Valid"], "country": "gb", "consensus_weight": 48000, "observed_bandwidth": 42696323, "advertised_bandwidth": 42696323, "exit_policy": ["reject *:*"], "ipv4_address": "185.21.217.32", "latitude": 51.4964, "longitude": -0.1224, "distance": 1281.0843613921256}, {"nickname": "raptor", "fingerprint": "017D97BB0F281C34972091C0792BF27198B674E5", "or_addresses": ["192.0.158.200:9001"], "flags": ["Fast", "Running", "Stable", "V2Dir", "Valid"], "country": "ca", "consensus_weight": 400, "observed_bandwidth": 1074176, "advertised_bandwidth": 1048576, "exit_policy": ["reject *:*"], "ipv4_address": "192.0.158.200", "latitude": 43.6653, "longitude": -79.4343, "distance": 5911.764163147224}, {"nickname": "LeftBehind1", "fingerprint": "019E20E352481BD45A3CE7D6691A10FB531850FB", "or_addresses": ["49.242.229.235:443"], "flags": ["Fast", "HSDir", "Running", "Stable", "V2Dir", "Valid"], "country": "jp", "consensus_weight": 380, "observed_bandwidth": 2705423, "advertised_bandwidth": 2705423, "exit_policy": ["reject *:*"], "ipv4_address": "49.242.229.235", "latitude": 33.1999, "longitude": 129.87, "distance": 8157.103231850774}, {"nickname": "abstractemptiness", "fingerprint": "01A435E1721F6D47829ED7F37B4EF105BA7FA5A4", "or_addresses": ["139.28.4.173:9100", "[2a03:90c0:5f5::64a]:9100"], "flags": ["Fast", "Running", "V2Dir", "Valid"], "country": "am", "consensus_weight": 4100, "observed_bandwidth": 4919296, "advertised_bandwidth": 4919296, "exit_policy": ["reject *:*"], "ipv4_address": "139.28.4.173", "latitude": 40.1817, "longitude": 44.5099, "distance": 3235.1519167396314}, {"nickname": "viola", "fingerprint": "01E7C452C18C7E1077BDBC9E852D7660C380622C", "or_addresses": ["71.29.253.171:443"], "flags": ["Fast", "Running", "Stable", "V2Dir", "Valid"], "country": "us", "consensus_weight": 4500, "observed_bandwidth": 7265757, "advertised_bandwidth": 5242880, "exit_policy": ["reject *:*"], "ipv4_address": "71.29.253.171", "latitude": 37.9874, "longitude": -84.4804, "distance": 6672.253905744709}, {"nickname": "SofiaLamb", "fingerprint": "01F2BF8CBD0BA82B5354D01BE4AF249C2C73B038", "or_addresses": ["185.21.217.29:10131"], "flags": ["Fast", "Running", "Stable", "Valid"], "country": "gb", "consensus_weight": 51000, "observed_bandwidth": 39840427, "advertised_bandwidth": 39840427, "exit_policy": ["reject *:*"], "ipv4_address": "185.21.217.29", "latitude": 51.4964, "longitude": -0.1224, "distance": 1281.0843613921256}, {"nickname": "RS1Lselectel", "fingerprint": "01FF9C8571D1C09FA8D2ACCE727D5530FEC10038", "or_addresses": ["31.184.218.180:9001"], "flags": ["Fast", "HSDir", "Running", "Stable", "V2Dir", "Valid"], "country": "ru", "consensus_weight": 2700, "observed_bandwidth": 3690715, "advertised_bandwidth": 3690715, "exit_policy": ["reject *:*"], "ipv4_address": "31.184.218.180", "latitude": 59.9417, "longitude": 30.3096, "distance": 1040.776783343206}, {"nickname": "tor103IPConnectINFO", "fingerprint": "021325CC77E58EFAC09CC621E2E22C2809AF85C7", "or_addresses": ["194.147.140.103:143"], "flags": ["Fast", "HSDir", "Running", "Stable", "V2Dir", "Valid"], "country": "eu", "consensus_weight": 10000, "observed_bandwidth": 7176011, "advertised_bandwidth": 7176011, "exit_policy": ["reject *:*"], "ipv4_address": "194.147.140.103", "latitude": 47.9077, "longitude": 106.8832, "distance": 5758.769737094494}, {"nickname": "Assange029us", "fingerprint": "02648F2F135C7296A27B1F59D2AE4EEC25D9A877", "or_addresses": ["104.194.235.104:9001"], "flags": ["Fast", "Running", "Stable", "Valid"], "country": "us", "consensus_weight": 3500, "observed_bandwidth": 4568549, "advertised_bandwidth": 3449815, "exit_policy": ["reject *:*"], "ipv4_address": "104.194.235.104", "latitude": 34.413, "longitude": -118.4269, "distance": 8466.209132402815}, {"nickname": "zagreus", "fingerprint": "02740F472D1DA5C1B77475F18940FE79F15AF4B8", "or_addresses": ["81.169.222.158:9001", "[2a01:238:4224:8d00:f3a9:25e6:4cb6:f3d]:9001"], "flags": ["Fast", "HSDir", "Running", "Stable", "V2Dir", "Valid"], "country": "de", "consensus_weight": 500, "observed_bandwidth": 1084875, "advertised_bandwidth": 1024000, "exit_policy": ["reject *:*"], "ipv4_address": "81.169.222.158", "latitude": 51.2993, "longitude": 9.491, "distance": 1099.7627743542018}, {"nickname": "LV426", "fingerprint": "02A59412DE589A009369BCBF81E56F0D64B3B464", "or_addresses": ["141.147.54.226:9001"], "flags": ["Fast", "Running", "Stable", "V2Dir", "Valid"], "country": "se", "consensus_weight": 20, "observed_bandwidth": 1026111, "advertised_bandwidth": 1026111, "exit_policy": ["reject *:*"], "ipv4_address": "141.147.54.226", "latitude": 50.1049, "longitude": 8.6295, "distance": 1238.3222753938524}, {"nickname": "Shado", "fingerprint": "02B4B5B92EE60D5317A0DB301175737AB8F1718A", "or_addresses": ["152.70.140.84:9001"], "flags": ["Fast", "Running", "Stable", "Valid"], "country": "us", "consensus_weight": 4300, "observed_bandwidth": 7122615, "advertised_bandwidth": 6291456, "exit_policy": ["reject *:*"], "ipv4_address": "152.70.140.84", "latitude": 33.4656, "longitude": -111.9956, "distance": 8325.21652348011}, {"nickname": "bigtits", "fingerprint": "02D7A3058F5DBC0A02AA48BB1F0412C52DF86B92", "or_addresses": ["178.18.94.247:9001", "[2a02:348:62:5ef7::1]:9001"], "flags": ["Running", "Stable", "Valid"], "country": "nl", "consensus_weight": 80, "observed_bandwidth": 383913, "advertised_bandwidth": 383913, "exit_policy": ["reject *:*"], "ipv4_address": "178.18.94.247", "latitude": 52.3824, "longitude": 4.8995, "distance": 1048.9971128437512}, {"nickname": "Basil", "fingerprint": "030651D6401349BFC9D5283A1E53ECAA679EB6ED", "or_addresses": ["145.40.203.242:9001"], "flags": ["Fast", "Running", "Stable", "V2Dir", "Valid"], "country": "ch", "consensus_weight": 3600, "observed_bandwidth": 3632128, "advertised_bandwidth": 3632128, "exit_policy": ["reject *:*"], "ipv4_address": "145.40.203.242", "latitude": 47.3989, "longitude": 8.4965, "distance": 1538.556479588805}, {"nickname": "ElDavo", "fingerprint": "030ED2A606603ECBA954B928B81CEB35B8DC62C2", "or_addresses": ["95.235.46.18:443"], "flags": ["Fast", "Running", "V2Dir", "Valid"], "country": "it", "consensus_weight": 4800, "observed_bandwidth": 5677429, "advertised_bandwidth": 5677429, "exit_policy": ["reject *:*"], "ipv4_address": "95.235.46.18", "latitude": 44.799, "longitude": 10.3234, "distance": 1818.0378008765322}, {"nickname": "TorUk2", "fingerprint": "0318F32C914B86718C0AFAB8B690AF559C38DD7A", "or_addresses": ["80.64.218.59:443", "[2a0e:1bc1:56:1000::6359:cd95]:443"], "flags": ["Fast", "Running", "Valid"], "country": "gb", "consensus_weight": 2200, "observed_bandwidth": 2526834, "advertised_bandwidth": 2526834, "exit_policy": ["reject *:*"], "ipv4_address": "80.64.218.59", "latitude": 51.5033, "longitude": -0.6894, "distance": 1299.6543280240423}, {"nickname": "Nobby", "fingerprint": "03504B8C25722FD3FC4F222A9202AD045794A551", "or_addresses": ["149.210.164.228:12707"], "flags": ["Fast", "Running", "V2Dir", "Valid"], "country": "nl", "consensus_weight": 20, "observed_bandwidth": 3369444, "advertised_bandwidth": 3072000, "exit_policy": ["reject *:*"], "ipv4_address": "149.210.164.228", "latitude": 51.8376, "longitude": 4.3118, "distance": 1119.5596547160544}, {"nickname": "s5p2jplinode", "fingerprint": "037C1DFCEE2E319CC512944A1A7A5700522ABF1F", "or_addresses": ["139.162.86.33:5671", "[2400:8902::f03c:93ff:fe12:145d]:5671"], "flags": ["Fast", "HSDir", "Running", "Stable", "V2Dir", "Valid"], "country": "us", "consensus_weight": 730, "observed_bandwidth": 2254085, "advertised_bandwidth": 2254085, "exit_policy": ["reject *:*"], "ipv4_address": "139.162.86.33", "latitude": 35.6893, "longitude": 139.6899, "distance": 8283.10621585121}, {"nickname": "ry4an", "fingerprint": "039003C320D9980E0A740F107A1A9C13C99C5FE3", "or_addresses": ["45.79.159.52:9001", "[2600:3c03::f03c:91ff:fe8d:a3a]:9001"], "flags": ["Fast", "Running", "Stable", "Valid"], "country": "us", "consensus_weight": 420, "observed_bandwidth": 1071693, "advertised_bandwidth": 1048576, "exit_policy": ["reject *:*"], "ipv4_address": "45.79.159.52", "latitude": 40.8229, "longitude": -74.4592, "distance": 5917.216193670666}, {"nickname": "Ichotolot61", "fingerprint": "03C3069E814E296EB18776EB61B1ECB754ED89FE", "or_addresses": ["81.7.10.193:993", "[2a02:180:6:1::2f16]:993"], "flags": ["Fast", "HSDir", "Running", "Stable", "V2Dir", "Valid"], "country": "de", "consensus_weight": 170, "observed_bandwidth": 1371473, "advertised_bandwidth": 1371473, "exit_policy": ["reject *:*"], "ipv4_address": "81.7.10.193", "latitude": 51.2993, "longitude": 9.491, "distance": 1099.7627743542018}, {"nickname": "itzme", "fingerprint": "03DA20FD71CED188C8B7652E81941C506724DBA6", "or_addresses": ["198.74.57.57:443"], "flags": ["Running", "Stable", "V2Dir", "Valid"], "country": "us", "consensus_weight": 52, "observed_bandwidth": 343332, "advertised_bandwidth": 307200, "exit_policy": ["reject *:*"], "ipv4_address": "198.74.57.57", "latitude": 40.8229, "longitude": -74.4592, "distance": 5917.216193670666}, {"nickname": "Wildtwister", "fingerprint": "03E107A3663E912664F4A934DFF451262C218357", "or_addresses": ["94.100.6.72:443"], "flags": ["Fast", "HSDir", "Running", "Stable", "V2Dir", "Valid"], "country": "lv", "consensus_weight": 490, "observed_bandwidth": 1225972, "advertised_bandwidth": 1048576, "exit_policy": ["reject *:*"], "ipv4_address": "94.100.6.72", "latitude": 56.8597, "longitude": 24.3425, "distance": 879.782761918459}, {"nickname": "RichardFeynman", "fingerprint": "040085FFE1E88CF48AB0B5B2AB39035758C65F0C", "or_addresses": ["159.69.71.58:9001"], "flags": ["Fast", "HSDir", "Running", "Stable", "V2Dir", "Valid"], "country": "de", "consensus_weight": 490, "observed_bandwidth": 1104418, "advertised_bandwidth": 1048576, "exit_policy": ["reject *:*"], "ipv4_address": "159.69.71.58", "latitude": 49.4423, "longitude": 11.0191, "distance": 1300.4524797377114}, {"nickname": "red6", "fingerprint": "040D6001435CDAA8D3DAE2EE51CF2F48C4530E76", "or_addresses": ["177.104.142.225:443"], "flags": ["Fast", "Running", "Stable", "Valid"], "country": "br", "consensus_weight": 440, "observed_bandwidth": 2377918, "advertised_bandwidth": 2377918, "exit_policy": ["reject *:*"], "ipv4_address": "177.104.142.225", "latitude": -23.9575, "longitude": -46.2278, "distance": 10772.103381317938}, {"nickname": "LunchBoxCanRelay", "fingerprint": "0411EDB54F61F58F5EA8B96C3BBE0985B288069D", "or_addresses": ["142.115.202.12:6700"], "flags": ["Fast", "Running", "V2Dir", "Valid"], "country": "ca", "consensus_weight": 2100, "observed_bandwidth": 2532352, "advertised_bandwidth": 2532352, "exit_policy": ["reject *:*"], "ipv4_address": "142.115.202.12", "latitude": 43.2596, "longitude": -79.7925, "distance": 5965.209175541069}, {"nickname": "Unnamed", "fingerprint": "042FE97AC141322809AD2862BE08F88705D4AADF", "or_addresses": ["95.252.40.29:8456"], "flags": ["Fast", "HSDir", "Running", "Stable", "V2Dir", "Valid"], "country": "it", "consensus_weight": 160, "observed_bandwidth": 832940, "advertised_bandwidth": 832940, "exit_policy": ["reject *:*"], "ipv4_address": "95.252.40.29", "latitude": 43.7891, "longitude": 11.2356, "distance": 1929.0911111901576}, {"nickname": "Unnamed", "fingerprint": "0438B5679D52CD10756924D425FDE03B40840304", "or_addresses": ["75.223.50.84:9001"], "flags": ["Fast", "HSDir", "Running", "Stable", "V2Dir", "Valid"], "country": "us", "consensus_weight": 760, "observed_bandwidth": 2010824, "advertised_bandwidth": 2010824, "exit_policy": ["reject *:*"], "ipv4_address": "75.223.50.84", "latitude": 36.1724, "longitude": -115.0677, "distance": 8166.280746236413}, {"nickname": "YetAnoPotato", "fingerprint": "0444EF3442336A2FCEAAF5D7247322940269FEBB", "or_addresses": ["149.28.126.255:9001", "[2001:19f0:5c00:1c45:5400:4ff:fe0f:dc3d]:9001"], "flags": ["Fast", "Running", "Valid"], "country": "us", "consensus_weight": 140, "observed_bandwidth": 590298, "advertised_bandwidth": 590298, "exit_policy": ["reject *:*"], "ipv4_address": "149.28.126.255", "latitude": 42.0048, "longitude": -87.9954, "distance": 6468.399717631879}, {"nickname": "LAGARGOUILLEVIF", "fingerprint": "046A2841A526E3D5690ED33D568E9891C39503D8", "or_addresses": ["190.211.254.210:9001"], "flags": ["Fast", "HSDir", "Running", "Stable", "V2Dir", "Valid"], "country": "ch", "consensus_weight": 1100, "observed_bandwidth": 1857932, "advertised_bandwidth": 1857932, "exit_policy": ["reject *:*"], "ipv4_address": "190.211.254.210", "latitude": 51.5095, "longitude": -0.0955, "distance": 1278.9103134648597}, {"nickname": "ZwiebelRouter04", "fingerprint": "048B9A44712BDC2B896691E37B2B62C4A81D4DE5", "or_addresses": ["82.223.165.239:443", "[2001:ba0:1800:81dc::1]:443"], "flags": ["Fast", "Running", "V2Dir", "Valid"], "country": "es", "consensus_weight": 9000, "observed_bandwidth": 9435525, "advertised_bandwidth": 9435525, "exit_policy": ["reject *:*"], "ipv4_address": "82.223.165.239", "latitude": 40.4172, "longitude": -3.684, "distance": 2521.6740916840067}, {"nickname": "Scarab", "fingerprint": "049298986477A89407AA70311645D0497F1E0FE1", "or_addresses": ["146.19.213.39:443", "[2001:678:6d4:9114::11c]:443"], "flags": ["Fast", "HSDir", "Running", "Stable", "V2Dir", "Valid"], "country": "md", "consensus_weight": 990, "observed_bandwidth": 4168360, "advertised_bandwidth": 1048576, "exit_policy": ["reject *:*"], "ipv4_address": "146.19.213.39", "latitude": 36.175, "longitude": -115.1372, "distance": 8168.543951554839}, {"nickname": "Pentesting21", "fingerprint": "04B67952F99843784ABF59D2B20EFC60FFD9F455", "or_addresses": ["5.75.145.34:9002", "[2a01:4f8:c2c:244e::1]:9002"], "flags": ["Fast", "Running", "Stable", "Valid"], "country": "de", "consensus_weight": 6200, "observed_bandwidth": 5311412, "advertised_bandwidth": 5242880, "exit_policy": ["reject *:*"], "ipv4_address": "5.75.145.34", "latitude": 51.2993, "longitude": 9.491, "distance": 1099.7627743542018}, {"nickname": "prsv", "fingerprint": "04D3DA2C9CCB13E1548150618B2104A67D12D22D", "or_addresses": ["109.122.198.71:9200"], "flags": ["Fast", "Running", "Stable", "V2Dir", "Valid"], "country": "eu", "consensus_weight": 23000, "observed_bandwidth": 12803080, "advertised_bandwidth": 12803080, "exit_policy": ["reject *:*"], "ipv4_address": "109.122.198.71", "latitude": 48.9741, "longitude": 2.2042, "distance": 1469.810260718253}, {"nickname": "rofltor08", "fingerprint": "04E3B5925EB5F66C6EC810A3D7702E0CA3F9D5E7", "or_addresses": ["95.216.136.46:9001", "[2a01:4f9:c010:2e::1]:9001"], "flags": ["Fast", "Running", "Stable", "Valid"], "country": "fi", "consensus_weight": 30000, "observed_bandwidth": 22656650, "advertised_bandwidth": 22656650, "exit_policy": ["reject *:*"], "ipv4_address": "95.216.136.46", "latitude": 60.1719, "longitude": 24.9347, "distance": 745.6799838645395}, {"nickname": "moredaysleft777", "fingerprint": "04E96ED4C16CBED0D9E9AE6B979C21E842051687", "or_addresses": ["190.2.143.176:9001"], "flags": ["BadExit", "Fast", "MiddleOnly", "Running", "Stable", "Valid"], "country": "nl", "consensus_weight": 130000, "observed_bandwidth": 85937445, "advertised_bandwidth": 85937445, "exit_policy": ["reject 0.0.0.0/8:*", "reject 169.254.0.0/16:*", "reject 127.0.0.0/8:*", "reject 192.168.0.0/16:*", "reject 10.0.0.0/8:*", "reject 172.16.0.0/12:*", "reject 190.2.143.176:*", "accept *:80", "accept *:443", "accept *:110", "accept *:143", "accept *:993", "accept *:995", "reject *:*"], "ipv4_address": "190.2.143.176", "latitude": 51.9934, "longitude": 4.2158, "distance": 1105.5528981331706}, {"nickname": "dorinne", "fingerprint": "04EE5E1B23127D26A36F71C66810D88B0B80BB91", "or_addresses": ["91.213.233.138:443"], "flags": ["Fast", "HSDir", "Running", "Stable", "V2Dir", "Valid"], "country": "kg", "consensus_weight": 960, "observed_bandwidth": 2184836, "advertised_bandwidth": 2184836, "exit_policy": ["reject *:*"], "ipv4_address": "91.213.233.138", "latitude": 42.8696, "longitude": 74.5932, "distance": 4555.557434584376}, {"nickname": "adhoczone", "fingerprint": "050A7B26C0CACA6AE9A37B5E342B3D5CC56C790A", "or_addresses": ["185.206.146.238:9001", "[2a07:5741:0:504::1]:9001"], "flags": ["Fast", "Running", "Stable", "Valid"], "country": "bg", "consensus_weight": 130, "observed_bandwidth": 574028, "advertised_bandwidth": 524288, "exit_policy": ["reject *:*"], "ipv4_address": "185.206.146.238", "latitude": 35.0, "longitude": 33.0, "distance": 3286.706705470595}, {"nickname": "Kyavik", "fingerprint": "054532B307386E91683D8F47522871E2FEADD8EF", "or_addresses": ["89.147.110.36:9001"], "flags": ["Running", "Stable", "Valid"], "country": "is", "consensus_weight": 23, "observed_bandwidth": 214981, "advertised_bandwidth": 204800, "exit_policy": ["reject *:*"], "ipv4_address": "89.147.110.36", "latitude": 64.1429, "longitude": -21.9447, "distance": 1714.8750345827928}, {"nickname": "JaKubikula", "fingerprint": "0552DB4AFA2F280DA218FCCE69C49DE0B56C0DE9", "or_addresses": ["83.79.219.245:9001", "[2a02:1210:4c95:b100:6d4:c4ff:fe4f:354b]:9001"], "flags": ["Fast", "HSDir", "Running", "Stable", "V2Dir", "Valid"], "country": "ch", "consensus_weight": 440, "observed_bandwidth": 1102452, "advertised_bandwidth": 1048576, "exit_policy": ["reject *:*"], "ipv4_address": "83.79.219.245", "latitude": 47.5517, "longitude": 7.5714, "distance": 1529.8809123385963}, {"nickname": "Unnamed", "fingerprint": "05681A9767834D9EDA9BDFE4E15A1BD73C4FDFCF", "or_addresses": ["109.236.83.11:46810"], "flags": ["Running", "Stable", "V2Dir", "Valid"], "country": "nl", "consensus_weight": 20, "observed_bandwidth": 190464, "advertised_bandwidth": 190464, "exit_policy": ["reject *:*"], "ipv4_address": "109.236.83.11", "latitude": 51.9934, "longitude": 4.2158, "distance": 1105.5528981331706}, {"nickname": "myNiceRelay938635", "fingerprint": "0593A11A5C10A3FA3DC69C7256A818D294961C98", "or_addresses": ["178.39.46.49:9847"], "flags": ["Fast", "HSDir", "Running", "Stable", "V2Dir", "Valid"], "country": "ch", "consensus_weight": 400, "observed_bandwidth": 971662, "advertised_bandwidth": 971662, "exit_policy": ["reject *:*"], "ipv4_address": "178.39.46.49", "latitude": 46.1779, "longitude": 6.1275, "distance": 1697.5775507800683}, {"nickname": "Unnamed", "fingerprint": "05BEC77F40DEC72C57CBCD3DD30439E859B8E52B", "or_addresses": ["81.20.143.138:9001"], "flags": ["Fast", "Running", "Stable", "Valid"], "country": "de", "consensus_weight": 450, "observed_bandwidth": 1198348, "advertised_bandwidth": 1024000, "exit_policy": ["reject *:*"], "ipv4_address": "81.20.143.138", "latitude": 51.2993, "longitude": 9.491, "distance": 1099.7627743542018}, {"nickname": "h3u60M7iPf", "fingerprint": "05C46D155495916A210213006B64CC99FB903CD5", "or_addresses": ["62.27.213.30:9001"], "flags": ["Fast", "Running", "V2Dir", "Valid"], "country": "de", "consensus_weight": 5000, "observed_bandwidth": 4175635, "advertised_bandwidth": 4175635, "exit_policy": ["reject *:*"], "ipv4_address": "62.27.213.30", "latitude": 52.3154, "longitude": 9.7246, "distance": 985.7478881739701}, {"nickname": "electroncash", "fingerprint": "05C621B44EF6833889AE7B7E2A0B476569C47E37", "or_addresses": ["193.135.10.219:59999", "[2a0a:51c0:0:136::2]:59999"], "flags": ["Fast", "HSDir", "Running", "Stable", "V2Dir", "Valid"], "country": "de", "consensus_weight": 780, "observed_bandwidth": 1505951, "advertised_bandwidth": 1433600, "exit_policy": ["reject *:*"], "ipv4_address": "193.135.10.219", "latitude": 50.1188, "longitude": 8.6843, "distance": 1236.3237974767553}, {"nickname": "toronto1", "fingerprint": "05CC8826920ED353BEEE5E59FDB5697D4F5B77E7", "or_addresses": ["192.18.159.101:9001", "[2603:c021:1:e6ee:7956:dfc6:e4f4:dcb]:9001"], "flags": ["Fast", "Running", "Stable", "Valid"], "country": "us", "consensus_weight": 7400, "observed_bandwidth": 6304317, "advertised_bandwidth": 6291456, "exit_policy": ["reject *:*"], "ipv4_address": "192.18.159.101", "latitude": 43.8072, "longitude": -79.5946, "distance": 5906.952167748481}, {"nickname": "madblock", "fingerprint": "05D01D243BB76468B80670CCF8F07F5E9296736D", "or_addresses": ["94.199.218.44:443"], "flags": ["Running", "Stable", "V2Dir", "Valid"], "country": "ru", "consensus_weight": 69, "observed_bandwidth": 527848, "advertised_bandwidth": 262144, "exit_policy": ["reject *:*"], "ipv4_address": "94.199.218.44", "latitude": 55.7386, "longitude": 37.6068, "distance": 1627.371507642689}, {"nickname": "Superfly", "fingerprint": "05D2B4678A1C9BDBB5D1D078F6813CA9712A8384", "or_addresses": ["133.242.146.78:9001", "[2401:2500:102:1206:133:242:146:78]:9001"], "flags": ["Fast", "HSDir", "Running", "Stable", "V2Dir", "Valid"], "country": "jp", "consensus_weight": 800, "observed_bandwidth": 2160603, "advertised_bandwidth": 2160603, "exit_policy": ["reject *:*"], "ipv4_address": "133.242.146.78", "latitude": 35.704, "longitude": 139.6713, "distance": 8280.9421832147}, {"nickname": "Taco", "fingerprint": "05DDBB74AAB6F19E003188702B1E54F23035D064", "or_addresses": ["37.48.120.47:110"], "flags": ["Fast", "HSDir", "Running", "Stable", "V2Dir", "Valid"], "country": "nl", "consensus_weight": 280, "observed_bandwidth": 831243, "advertised_bandwidth": 819200, "exit_policy": ["reject *:*"], "ipv4_address": "37.48.120.47", "latitude": 52.3809, "longitude": 4.9022, "distance": 1049.0936256849602}, {"nickname": "CloudOasis", "fingerprint": "063D23ED6A65CDCCBF8A2A8CC230B09C34F01FCF", "or_addresses": ["104.200.17.42:443", "[2600:3c00::f03c:91ff:fee9:6481]:443"], "flags": ["Fast", "HSDir", "Running", "Stable", "V2Dir", "Valid"], "country": "us", "consensus_weight": 120, "observed_bandwidth": 537373, "advertised_bandwidth": 512000, "exit_policy": ["reject *:*"], "ipv4_address": "104.200.17.42", "latitude": 32.9473, "longitude": -96.7028, "distance": 7727.885310097038}, {"nickname": "lakeshoreCrypto007", "fingerprint": "0645A80A17909D33FAFB5548E8A10F80AB38E65E", "or_addresses": ["45.41.204.203:9001", "[2602:fea7:e0c:13::7]:9001"], "flags": ["Fast", "HSDir", "Running", "Stable", "V2Dir", "Valid"], "country": "us", "consensus_weight": 180, "observed_bandwidth": 1012258, "advertised_bandwidth": 1012258, "exit_policy": ["reject *:*"], "ipv4_address": "45.41.204.203", "latitude": 37.751, "longitude": -97.822, "distance": 7313.814090698954}, {"nickname": "Raptorist", "fingerprint": "06518635C3CCBC70C311F9BCDF4C3596BB736EFD", "or_addresses": ["78.132.50.96:9001"], "flags": ["Fast", "Running", "Stable", "V2Dir", "Valid"], "country": "at", "consensus_weight": 390, "observed_bandwidth": 946829, "advertised_bandwidth": 946829, "exit_policy": ["reject *:*"], "ipv4_address": "78.132.50.96", "latitude": 48.1773, "longitude": 16.2456, "distance": 1473.699891049744}, {"nickname": "Psyduck", "fingerprint": "066FE3C4E07A18EA53B2828F753D3788D58D771D", "or_addresses": ["102.130.113.42:9001"], "flags": ["Fast", "HSDir", "Running", "Stable", "V2Dir", "Valid"], "country": "za", "consensus_weight": 650, "observed_bandwidth": 1978448, "advertised_bandwidth": 1978448, "exit_policy": ["reject *:*"], "ipv4_address": "102.130.113.42", "latitude": -29.0, "longitude": 24.0, "distance": 10090.492137024576}, {"nickname": "ampere", "fingerprint": "06A630E2198277238FE896F6F10B07C53E4827D2", "or_addresses": ["150.230.39.121:443"], "flags": ["Fast", "Running", "Stable", "V2Dir", "Valid"], "country": "us", "consensus_weight": 390, "observed_bandwidth": 2437120, "advertised_bandwidth": 524288, "exit_policy": ["reject *:*"], "ipv4_address": "150.230.39.121", "latitude": 37.2379, "longitude": -121.7946, "distance": 8288.326353856508}, {"nickname": "panoptykon", "fingerprint": "070B16450940F00B3A1C88C1AD71EB20B6C61A72", "or_addresses": ["51.68.155.201:9001"], "flags": ["Fast", "HSDir", "Running", "Stable", "V2Dir", "Valid"], "country": "pl", "consensus_weight": 1400, "observed_bandwidth": 2294472, "advertised_bandwidth": 2097152, "exit_policy": ["reject *:*"], "ipv4_address": "51.68.155.201", "latitude": 52.2296, "longitude": 21.0067, "distance": 1149.3522115640899}, {"nickname": "LaTlayuda", "fingerprint": "071288B2182711E5284248137048E0FBBFB36233", "or_addresses": ["91.121.147.65:9001", "[2001:41d0:1:c441::]:9001"], "flags": ["Fast", "Running", "Valid"], "country": "fr", "consensus_weight": 84, "observed_bandwidth": 418764, "advertised_bandwidth": 409600, "exit_policy": ["reject *:*"], "ipv4_address": "91.121.147.65", "latitude": 48.8582, "longitude": 2.3387, "distance": 1478.6913602924574}, {"nickname": "FreedomFries01", "fingerprint": "07623013C3361FE566B71C8CFCC6483D7587A827", "or_addresses": ["45.33.16.166:9001"], "flags": ["Running", "Stable", "Valid"], "country": "us", "consensus_weight": 6, "observed_bandwidth": 111013, "advertised_bandwidth": 102400, "exit_policy": ["reject *:*"], "ipv4_address": "45.33.16.166", "latitude": 32.9473, "longitude": -96.7028, "distance": 7727.885310097038}, {"nickname": "Angora", "fingerprint": "07712CF425529B35AFAEB87DEE3639A5D57D5511", "or_addresses": ["45.63.85.254:9001", "[2001:19f0:ac00:7e9:5400:ff:fe09:ed18]:9001"], "flags": ["Fast", "Running", "Valid"], "country": "us", "consensus_weight": 430, "observed_bandwidth": 1238653, "advertised_bandwidth": 1048576, "exit_policy": ["reject *:*"], "ipv4_address": "45.63.85.254", "latitude": 37.3931, "longitude": -121.962, "distance": 8277.659201182249}, {"nickname": "torrelay8428546", "fingerprint": "07816F5EF2E310139C2AF386E6E86BCFDCABFFAB", "or_addresses": ["95.216.195.161:9001", "[2a01:4f9:c011:9f3c::1]:9001"], "flags": ["Fast", "Running", "Stable", "Valid"], "country": "fi", "consensus_weight": 13000, "observed_bandwidth": 10483182, "advertised_bandwidth": 10483182, "exit_policy": ["reject *:*"], "ipv4_address": "95.216.195.161", "latitude": 60.1719, "longitude": 24.9347, "distance": 745.6799838645395}, {"nickname": "mistersixt2", "fingerprint": "079E117E0B808484646CA7715F52F6FFC831EF8F", "or_addresses": ["88.99.104.83:9001", "[2a01:4f8:10a:189f::2]:9001"], "flags": ["Fast", "Running", "Stable", "Valid"], "country": "de", "consensus_weight": 94, "observed_bandwidth": 429224, "advertised_bandwidth": 409600, "exit_policy": ["reject *:*"], "ipv4_address": "88.99.104.83", "latitude": 51.2993, "longitude": 9.491, "distance": 1099.7627743542018}, {"nickname": "debiansRelayTor", "fingerprint": "07B578A84E8E76FA75915B91E31B6E50E7FDDC90", "or_addresses": ["94.16.114.231:9001", "[2a03:4000:28:900:786f:7fff:fe08:8217]:9001"], "flags": ["Fast", "HSDir", "Running", "Stable", "V2Dir", "Valid"], "country": "de", "consensus_weight": 950, "observed_bandwidth": 1662255, "advertised_bandwidth": 1536000, "exit_policy": ["reject *:*"], "ipv4_address": "94.16.114.231", "latitude": 48.2048, "longitude": 16.3801, "distance": 1472.502236723271}, {"nickname": "homeplanet", "fingerprint": "07B8FC5B66719C355FABF84B4F5E0131E127DF01", "or_addresses": ["85.91.153.163:9001"], "flags": ["Running", "Stable", "V2Dir", "Valid"], "country": "bg", "consensus_weight": 26, "observed_bandwidth": 304654, "advertised_bandwidth": 262144, "exit_policy": ["reject *:*"], "ipv4_address": "85.91.153.163", "latitude": 42.6951, "longitude": 23.325, "distance": 2200.534621510159}, {"nickname": "Unnamed", "fingerprint": "08673A8132DC43D23462AE5F983A9B12ED51C00B", "or_addresses": ["5.255.88.102:36488"], "flags": ["Running", "Stable", "V2Dir", "Valid"], "country": "nl", "consensus_weight": 17, "observed_bandwidth": 181337, "advertised_bandwidth": 181337, "exit_policy": ["reject *:*"], "ipv4_address": "5.255.88.102", "latitude": 52.3712, "longitude": 4.9044, "distance": 1050.0618986977408}, {"nickname": "8lyWARGTU4wesrfy8i", "fingerprint": "0882440874034AFBE2FBF16463A290F3278E24F7", "or_addresses": ["176.58.121.159:9001", "[2a01:7e00::f03c:91ff:fe70:e0b8]:9099"], "flags": ["Fast", "HSDir", "Running", "Stable", "V2Dir", "Valid"], "country": "gb", "consensus_weight": 110, "observed_bandwidth": 610061, "advertised_bandwidth": 512000, "exit_policy": ["reject *:*"], "ipv4_address": "176.58.121.159", "latitude": 51.5095, "longitude": -0.0955, "distance": 1278.9103134648597}, {"nickname": "rs1", "fingerprint": "08DE6297E89BF0827126189FFB7521863977A6AB", "or_addresses": ["37.35.107.238:9001", "[2a03:2040:1:533:e23f:49ff:fe6e:1004]:9001"], "flags": ["Running", "Stable", "V2Dir", "Valid"], "country": "ch", "consensus_weight": 32, "observed_bandwidth": 284627, "advertised_bandwidth": 284627, "exit_policy": ["reject *:*"], "ipv4_address": "37.35.107.238", "latitude": 46.8225, "longitude": 6.9825, "distance": 1616.4572182403388}, {"nickname": "0x7c0", "fingerprint": "08E3B41A86FFBFFEA0F1A5B9334550B7FA6F03D1", "or_addresses": ["185.73.44.145:22380", "[2001:ba8:0:4031::]:22380"], "flags": ["Fast", "HSDir", "Running", "Stable", "V2Dir", "Valid"], "country": "gb", "consensus_weight": 8000, "observed_bandwidth": 5449209, "advertised_bandwidth": 5242880, "exit_policy": ["reject *:*"], "ipv4_address": "185.73.44.145", "latitude": 51.4964, "longitude": -0.1224, "distance": 1281.0843613921256}, {"nickname": "Unnamed", "fingerprint": "08FE27F74EC48B4D7667EBFAF654E5151B9924F1", "or_addresses": ["84.191.175.133:9001"], "flags": ["Fast", "Running", "Stable", "V2Dir", "Valid"], "country": "de", "consensus_weight": 220, "observed_bandwidth": 701440, "advertised_bandwidth": 701440, "exit_policy": ["reject *:*"], "ipv4_address": "84.191.175.133", "latitude": 47.7229, "longitude": 10.3288, "distance": 1492.9917005051918}, {"nickname": "Mercury", "fingerprint": "090975875D1BBE53F6FF2ADCA8BA41C97DBB3E59", "or_addresses": ["45.9.168.191:9001", "[2a0e:bfc0:0:3::2]:9001"], "flags": ["Running", "Stable", "V2Dir", "Valid"], "country": "hu", "consensus_weight": 6, "observed_bandwidth": 135578, "advertised_bandwidth": 135578, "exit_policy": ["reject *:*"], "ipv4_address": "45.9.168.191", "latitude": 47.4919, "longitude": 19.05, "distance": 1594.3327509091648}, {"nickname": "STOPDevelopingCBDC", "fingerprint": "093D587644F270A30267B336D35535006DBD1C50", "or_addresses": ["176.97.76.91:443"], "flags": ["Fast", "Running", "Stable", "Valid"], "country": "ro", "consensus_weight": 1700, "observed_bandwidth": 4700007, "advertised_bandwidth": 4700007, "exit_policy": ["reject *:*"], "ipv4_address": "176.97.76.91", "latitude": 45.9968, "longitude": 24.997, "distance": 1900.3088822316822}, {"nickname": "hpRelayThing", "fingerprint": "095ED24D8DB7F3891555579126D2E2339FAF026C", "or_addresses": ["50.24.143.253:9001"], "flags": ["Fast", "HSDir", "Running", "Stable", "V2Dir", "Valid"], "country": "us", "consensus_weight": 930, "observed_bandwidth": 1895440, "advertised_bandwidth": 1895440, "exit_policy": ["reject *:*"], "ipv4_address": "50.24.143.253", "latitude": 30.6032, "longitude": -96.3136, "distance": 7937.561440801681}, {"nickname": "CooRelay", "fingerprint": "097761255FF0C6FEEDEA787D9F389EA431C27882", "or_addresses": ["84.231.41.122:12002"], "flags": ["Fast", "HSDir", "Running", "Stable", "V2Dir", "Valid"], "country": "fi", "consensus_weight": 96, "observed_bandwidth": 483678, "advertised_bandwidth": 483678, "exit_policy": ["reject *:*"], "ipv4_address": "84.231.41.122", "latitude": 60.1797, "longitude": 24.9344, "distance": 745.4529965220947}, {"nickname": "tourette", "fingerprint": "098D9CF7568D27A8288FA4BB3819A99913315D6E", "or_addresses": ["91.47.194.114:443"], "flags": ["Fast", "HSDir", "Running", "Stable", "V2Dir", "Valid"], "country": "de", "consensus_weight": 700, "observed_bandwidth": 1295231, "advertised_bandwidth": 1280000, "exit_policy": ["reject *:*"], "ipv4_address": "91.47.194.114", "latitude": 50.1811, "longitude": 8.476, "distance": 1231.2605990126422}, {"nickname": "Anankke", "fingerprint": "0990E0F4F2C127BDDA9B6726400FAC077F6C83B0", "or_addresses": ["139.162.123.5:443", "[2400:8902::f03c:93ff:fef5:5412]:443"], "flags": ["Fast", "HSDir", "Running", "Stable", "V2Dir", "Valid"], "country": "us", "consensus_weight": 580, "observed_bandwidth": 1947960, "advertised_bandwidth": 1947960, "exit_policy": ["reject *:*"], "ipv4_address": "139.162.123.5", "latitude": 35.6893, "longitude": 139.6899, "distance": 8283.10621585121}, {"nickname": "Unnamed", "fingerprint": "09E0BD68FBAEB7C10107DE67624D25B007FF26A2", "or_addresses": ["91.219.29.94:9001"], "flags": ["Fast", "HSDir", "Running", "Stable", "V2Dir", "Valid"], "country": "ua", "consensus_weight": 420, "observed_bandwidth": 4712448, "advertised_bandwidth": 1024000, "exit_policy": ["reject *:*"], "ipv4_address": "91.219.29.94", "latitude": 50.4522, "longitude": 30.5287, "distance": 1675.1207423240035}, {"nickname": "waxcs4edb69m7yh", "fingerprint": "09E59CBD300AE3FD73577A68050739E89E617070", "or_addresses": ["144.76.104.119:9001"], "flags": ["Fast", "HSDir", "Running", "Stable", "V2Dir", "Valid"], "country": "de", "consensus_weight": 130, "observed_bandwidth": 505856, "advertised_bandwidth": 505856, "exit_policy": ["reject *:*"], "ipv4_address": "144.76.104.119", "latitude": 51.2993, "longitude": 9.491, "distance": 1099.7627743542018}, {"nickname": "mureyuame", "fingerprint": "09F4EC72C2DE0C00EB19BB3B14724B75F07676F5", "or_addresses": ["46.226.105.119:10400", "[2001:4b98:dc0:43:f816:3eff:fec1:106e]:10400"], "flags": ["Fast", "Running", "V2Dir", "Valid"], "country": "fr", "consensus_weight": 4200, "observed_bandwidth": 7851595, "advertised_bandwidth": 2621440, "exit_policy": ["reject *:*"], "ipv4_address": "46.226.105.119", "latitude": 48.8582, "longitude": 2.3387, "distance": 1478.6913602924574}, {"nickname": "TheTwinkleStar", "fingerprint": "09FEBDF9C8A397889FA55AFD6BC98C6AA6303772", "or_addresses": ["185.163.204.78:443"], "flags": ["BadExit", "Fast", "MiddleOnly", "Running", "Stable", "Valid"], "country": "hu", "consensus_weight": 22000, "observed_bandwidth": 19917278, "advertised_bandwidth": 19917278, "exit_policy": ["reject 0.0.0.0/8:*", "reject 169.254.0.0/16:*", "reject 127.0.0.0/8:*", "reject 192.168.0.0/16:*", "reject 10.0.0.0/8:*", "reject 172.16.0.0/12:*", "reject 185.163.204.78:*", "accept *:20-21", "accept *:43", "accept *:53", "accept *:80", "accept *:110", "accept *:143", "accept *:220", "accept *:443", "accept *:873", "accept *:989-990", "accept *:991", "accept *:992", "accept *:993", "accept *:995", "accept *:1194", "accept *:1293", "accept *:3690", "accept *:4321", "accept *:5222-5223", "accept *:5228", "accept *:9418", "accept *:11371", "accept *:64738", "reject *:*"], "ipv4_address": "185.163.204.78", "latitude": 47.4919, "longitude": 19.05, "distance": 1594.3327509091648}, {"nickname": "Unnamed", "fingerprint": "0A2851C0BAEDC9592824DCA088D917BA1F0856F0", "or_addresses": ["46.151.29.168:443"], "flags": ["Running", "Valid"], "country": "nl", "consensus_weight": 1, "observed_bandwidth": 0, "advertised_bandwidth": 0, "exit_policy": ["reject *:*"], "ipv4_address": "46.151.29.168", "latitude": 52.3824, "longitude": 4.8995, "distance": 1048.9971128437512}, {"nickname": "hondoyouknowwho4", "fingerprint": "0A349CD59F9EB7198E6C63F59148821EB9F04F63", "or_addresses": ["5.34.176.184:9001"], "flags": ["Fast", "HSDir", "Running", "Stable", "V2Dir", "Valid"], "country": "sg", "consensus_weight": 440, "observed_bandwidth": 1634373, "advertised_bandwidth": 1634373, "exit_policy": ["reject *:*"], "ipv4_address": "5.34.176.184", "latitude": 1.2929, "longitude": 103.8547, "distance": 10018.025412929204}, {"nickname": "405tor2", "fingerprint": "0A4B66D203EEB134506975F78578AAF9C5EE05A6", "or_addresses": ["174.67.36.109:446"], "flags": ["Fast", "HSDir", "Running", "Stable", "V2Dir", "Valid"], "country": "us", "consensus_weight": 190, "observed_bandwidth": 833673, "advertised_bandwidth": 833673, "exit_policy": ["reject *:*"], "ipv4_address": "174.67.36.109", "latitude": 35.4312, "longitude": -97.4934, "distance": 7523.139326335775}, {"nickname": "arighttosurf", "fingerprint": "0A6001B1E3A9F5365BD3C2988BD69BB8EAD71289", "or_addresses": ["45.83.234.114:9002", "[2a10:3781:1854:1::2d53:ea72]:9002"], "flags": ["Fast", "HSDir", "Running", "Stable", "V2Dir", "Valid"], "country": "nl", "consensus_weight": 820, "observed_bandwidth": 1628669, "advertised_bandwidth": 1572864, "exit_policy": ["reject *:*"], "ipv4_address": "45.83.234.114", "latitude": 52.0874, "longitude": 5.1168, "distance": 1075.2796332020678}, {"nickname": "Unnamed", "fingerprint": "0A7DE4CF5FE49E0034553D716FCABB9AD5ED7924", "or_addresses": ["23.94.220.202:9001"], "flags": ["Fast", "Running", "Valid"], "country": "us", "consensus_weight": 480, "observed_bandwidth": 1043314, "advertised_bandwidth": 1024000, "exit_policy": ["reject *:*"], "ipv4_address": "23.94.220.202", "latitude": 52.3759, "longitude": 4.8975, "distance": 1049.7241763614602}, {"nickname": "TorMo1", "fingerprint": "0A8A7FCA7B87D7DA66609AA5574983D86AE31FB8", "or_addresses": ["176.123.4.96:443"], "flags": ["Fast", "Running", "Valid"], "country": "md", "consensus_weight": 1400, "observed_bandwidth": 1939387, "advertised_bandwidth": 1939387, "exit_policy": ["reject *:*"], "ipv4_address": "176.123.4.96", "latitude": 47.0042, "longitude": 28.8574, "distance": 1929.0170909015399}, {"nickname": "tinaTOR", "fingerprint": "0AC3E8D9FD63EC3E47738C0CBA77C3C581A50935", "or_addresses": ["91.245.255.87:9001"], "flags": ["Fast", "Running", "Stable", "Valid"], "country": "hk", "consensus_weight": 950, "observed_bandwidth": 2478345, "advertised_bandwidth": 2478345, "exit_policy": ["reject *:*"], "ipv4_address": "91.245.255.87", "latitude": 22.2908, "longitude": 114.1501, "distance": 8509.586165534902}, {"nickname": "vanaheim", "fingerprint": "0ADF4982A6231ECD6D04170435BFB4C0E4CADF5B", "or_addresses": ["108.34.248.88:443"], "flags": ["Fast", "Running", "Stable", "V2Dir", "Valid"], "country": "us", "consensus_weight": 8500, "observed_bandwidth": 7164928, "advertised_bandwidth": 7164928, "exit_policy": ["reject *:*"], "ipv4_address": "108.34.248.88", "latitude": 41.815, "longitude": -71.3663, "distance": 5672.378579966078}, {"nickname": "tdxchg", "fingerprint": "0BA30A3D11B73F95D1447CC9B35BE5F0681D5A1C", "or_addresses": ["207.180.192.66:9001", "[2a02:c207:3002:8686::66]:9001"], "flags": ["Running", "Stable", "V2Dir", "Valid"], "country": "de", "consensus_weight": 23, "observed_bandwidth": 205114, "advertised_bandwidth": 204800, "exit_policy": ["reject *:*"], "ipv4_address": "207.180.192.66", "latitude": 49.405, "longitude": 11.1617, "distance": 1304.4805987690977}, {"nickname": "Unnamed", "fingerprint": "0BA446CDA4DBFD7BDC235926456512ADF1B20BD0", "or_addresses": ["14.9.101.224:8351", "[240b:13:65e0:900:8557:7d07:ef6:9efe]:8351"], "flags": ["Fast", "Running", "Stable", "Valid"], "country": "jp", "consensus_weight": 570, "observed_bandwidth": 1714150, "advertised_bandwidth": 1714150, "exit_policy": ["reject *:*"], "ipv4_address": "14.9.101.224", "latitude": 38.3712, "longitude": 140.2691, "distance": 8029.1640982092895}, {"nickname": "DntBrickDemortcracy", "fingerprint": "0BBA78A08B235A085D26D1455621E8CF597170DD", "or_addresses": ["149.172.106.14:9001"], "flags": ["Fast", "HSDir", "Running", "Stable", "V2Dir", "Valid"], "country": "de", "consensus_weight": 340, "observed_bandwidth": 879483, "advertised_bandwidth": 879483, "exit_policy": ["reject *:*"], "ipv4_address": "149.172.106.14", "latitude": 47.7817, "longitude": 9.6186, "distance": 1489.1585518833128}, {"nickname": "quark", "fingerprint": "0BD744C4674FFB60CD1F2A6E877B02F7BE4558B5", "or_addresses": ["178.63.68.78:9001", "[2a01:4f8:121:12b3::2]:9001"], "flags": ["Fast", "HSDir", "Running", "Stable", "V2Dir", "Valid"], "country": "de", "consensus_weight": 140, "observed_bandwidth": 547116, "advertised_bandwidth": 524288, "exit_policy": ["reject *:*"], "ipv4_address": "178.63.68.78", "latitude": 51.2993, "longitude": 9.491, "distance": 1099.7627743542018}, {"nickname": "NerdscaveHosting", "fingerprint": "0BDE2DE7C234212042BD0690908F29DBDE969888", "or_addresses": ["193.25.201.121:80", "[2a05:bec0:46:2::121]:80"], "flags": ["Running", "V2Dir", "Valid"], "country": "de", "consensus_weight": 1, "observed_bandwidth": 7910400, "advertised_bandwidth": 7910400, "exit_policy": ["reject *:*"], "ipv4_address": "193.25.201.121", "latitude": 51.2993, "longitude": 9.491, "distance": 1099.7627743542018}, {"nickname": "0x766c6164", "fingerprint": "0BF606DE836D4C794CAFF7CA78720F8C87660998", "or_addresses": ["5.12.14.108:9162"], "flags": ["Fast", "HSDir", "Running", "Stable", "V2Dir", "Valid"], "country": "ro", "consensus_weight": 7900, "observed_bandwidth": 8692314, "advertised_bandwidth": 8692314, "exit_policy": ["reject *:*"], "ipv4_address": "5.12.14.108", "latitude": 44.405, "longitude": 26.0718, "distance": 2096.1244420134594}, {"nickname": "RozsafaUgrik", "fingerprint": "0C10F007E2ADFC741B1FC9CD5CC0F420D9ABCDA1", "or_addresses": ["167.99.210.64:443", "[2a03:b0c0:2:d0::104e:2001]:9001"], "flags": ["Fast", "Running", "Stable", "Valid"], "country": "us", "consensus_weight": 140, "observed_bandwidth": 921358, "advertised_bandwidth": 512000, "exit_policy": ["reject *:*"], "ipv4_address": "167.99.210.64", "latitude": 52.352, "longitude": 4.9392, "distance": 1051.2964157766933}, {"nickname": "F39BV7hXBPwoDAqypeh", "fingerprint": "0C219BF19C149A4921F508A5A3532D798196C4B6", "or_addresses": ["208.115.210.177:443"], "flags": ["Running", "V2Dir", "Valid"], "country": "us", "consensus_weight": 0, "observed_bandwidth": 0, "advertised_bandwidth": 0, "exit_policy": ["reject *:*"], "ipv4_address": "208.115.210.177", "latitude": 33.9214, "longitude": -118.413, "distance": 8516.25979267322}, {"nickname": "marlonbrando", "fingerprint": "0C4D7C61271C32DFBD0DF4A0296E4CE1BA2E952A", "or_addresses": ["45.77.136.58:9001", "[2001:19f0:5001:3d94:5400:3ff:fe7d:64dc]:9001"], "flags": ["Fast", "Running", "Valid"], "country": "us", "consensus_weight": 490, "observed_bandwidth": 1024080, "advertised_bandwidth": 1024080, "exit_policy": ["reject *:*"], "ipv4_address": "45.77.136.58", "latitude": 52.3891, "longitude": 4.6563, "distance": 1053.8687452009751}, {"nickname": "doppelganger", "fingerprint": "0C8A49FE62B7C7DED64B7C6A941EF5240E4F3F74", "or_addresses": ["95.217.5.88:9101", "[2a01:4f9:c010:54f8::1]:9101"], "flags": ["Fast", "Running", "Stable", "Valid"], "country": "fi", "consensus_weight": 27000, "observed_bandwidth": 26342980, "advertised_bandwidth": 26342980, "exit_policy": ["reject *:*"], "ipv4_address": "95.217.5.88", "latitude": 60.1719, "longitude": 24.9347, "distance": 745.6799838645395}, {"nickname": "prsv", "fingerprint": "0C8FCCC80948BAEC9440B8FF5BDD8882D1B7A018", "or_addresses": ["5.180.252.176:9200", "[2a0e:6a81:d:2b::]:9200"], "flags": ["Fast", "Running", "Stable", "V2Dir", "Valid"], "country": "de", "consensus_weight": 24000, "observed_bandwidth": 13575168, "advertised_bandwidth": 13575168, "exit_policy": ["reject *:*"], "ipv4_address": "5.180.252.176", "latitude": 50.1093, "longitude": 8.7321, "distance": 1236.976637329296}, {"nickname": "lodrich2", "fingerprint": "0CA3F4D95BCF24964FC4623588A3F17E2EE216DE", "or_addresses": ["85.195.253.5:9005", "[2a02:168:83d4:7777:44bd:c9ff:fe2e:3165]:443"], "flags": ["Fast", "Running", "V2Dir", "Valid"], "country": "ch", "consensus_weight": 31000, "observed_bandwidth": 0, "advertised_bandwidth": 0, "exit_policy": ["reject *:*"], "ipv4_address": "85.195.253.5", "latitude": 47.4234, "longitude": 9.3696, "distance": 1530.1800190366007}, {"nickname": "TheSecondRelay", "fingerprint": "0CADF9650BE6F3CB6A09F29D8B91250D93DD91E6", "or_addresses": ["107.189.10.86:9001"], "flags": ["Fast", "HSDir", "Running", "Stable", "V2Dir", "Valid"], "country": "lu", "consensus_weight": 410, "observed_bandwidth": 1062855, "advertised_bandwidth": 1048576, "exit_policy": ["reject *:*"], "ipv4_address": "107.189.10.86", "latitude": 49.7895, "longitude": 6.0679, "distance": 1304.1791977588578}, {"nickname": "mgvx", "fingerprint": "0CAFFFE470E88AF156D6750B616995B3790F24EF", "or_addresses": ["86.123.52.188:9001"], "flags": ["Fast", "HSDir", "Running", "Stable", "V2Dir", "Valid"], "country": "ro", "consensus_weight": 470, "observed_bandwidth": 951381, "advertised_bandwidth": 951381, "exit_policy": ["reject *:*"], "ipv4_address": "86.123.52.188", "latitude": 45.1002, "longitude": 24.3644, "distance": 1974.5994010286533}, {"nickname": "Unnamed", "fingerprint": "0CB71F3C1CE31F99EA0187A53155548B34948296", "or_addresses": ["185.189.149.243:32774"], "flags": ["Running", "Stable", "V2Dir", "Valid"], "country": "ch", "consensus_weight": 19, "observed_bandwidth": 239421, "advertised_bandwidth": 185344, "exit_policy": ["reject *:*"], "ipv4_address": "185.189.149.243", "latitude": 47.1449, "longitude": 8.1551, "distance": 1569.3863170144703}, {"nickname": "BESTIOMONDE", "fingerprint": "0CBC3FC6CC863ECCF367616D5495E53A8613B5CC", "or_addresses": ["172.105.242.117:443", "[2400:8902::f03c:91ff:fede:8f5]:443"], "flags": ["Fast", "HSDir", "Running", "Stable", "V2Dir", "Valid"], "country": "us", "consensus_weight": 670, "observed_bandwidth": 2132733, "advertised_bandwidth": 2132733, "exit_policy": ["reject *:*"], "ipv4_address": "172.105.242.117", "latitude": 35.6893, "longitude": 139.6899, "distance": 8283.10621585121}, {"nickname": "eita", "fingerprint": "0CDC8FDD8A487271DECB791C0D46585F16BC8F19", "or_addresses": ["185.26.127.24:443", "[2001:4b98:dc2:45:216:3eff:fe42:b953]:443"], "flags": ["Fast", "HSDir", "Running", "Stable", "V2Dir", "Valid"], "country": "lu", "consensus_weight": 210, "observed_bandwidth": 676311, "advertised_bandwidth": 676311, "exit_policy": ["reject *:*"], "ipv4_address": "185.26.127.24", "latitude": 48.8582, "longitude": 2.3387, "distance": 1478.6913602924574}, {"nickname": "mymiddlerelay2", "fingerprint": "0CE6FD562AF46800BF181F889865FC2DD440C3F1", "or_addresses": ["170.39.194.240:7046"], "flags": ["Running", "Valid"], "country": "us", "consensus_weight": 1, "observed_bandwidth": 2680832, "advertised_bandwidth": 2680832, "exit_policy": ["reject *:*"], "ipv4_address": "170.39.194.240", "latitude": 39.0469, "longitude": -77.4903, "distance": 6229.409692868388}, {"nickname": "mef", "fingerprint": "0CFC3C013E3C49587843796106C5E3AD093F55FE", "or_addresses": ["94.23.248.158:9001", "[2001:41d0:2:7b9e::]:9001"], "flags": ["Running", "Stable", "V2Dir", "Valid"], "country": "fr", "consensus_weight": 37, "observed_bandwidth": 261577, "advertised_bandwidth": 261577, "exit_policy": ["reject *:*"], "ipv4_address": "94.23.248.158", "latitude": 48.8582, "longitude": 2.3387, "distance": 1478.6913602924574}, {"nickname": "oli", "fingerprint": "0D09185AF590E2943A94EF34E4BE3C265D891DC6", "or_addresses": ["188.93.140.207:9001"], "flags": ["Fast", "Running", "Valid"], "country": "se", "consensus_weight": 6700, "observed_bandwidth": 5445632, "advertised_bandwidth": 5120000, "exit_policy": ["reject *:*"], "ipv4_address": "188.93.140.207", "latitude": 59.3287, "longitude": 18.0717, "distance": 420.62903518355375}, {"nickname": "0480alphadev", "fingerprint": "0D3BF6CFF321E30F039DFC7F4EAA74AF21256090", "or_addresses": ["217.231.123.136:9009"], "flags": ["Running", "V2Dir", "Valid"], "country": "de", "consensus_weight": 3, "observed_bandwidth": 125342, "advertised_bandwidth": 76800, "exit_policy": ["reject *:*"], "ipv4_address": "217.231.123.136", "latitude": 47.6712, "longitude": 9.1633, "distance": 1503.8605111035454}, {"nickname": "Starlight", "fingerprint": "0D8877392F2FF5AD8D8E5BC438087F02EF97B904", "or_addresses": ["58.107.82.46:9001"], "flags": ["Fast", "Running", "Stable", "V2Dir", "Valid"], "country": "au", "consensus_weight": 200, "observed_bandwidth": 1360896, "advertised_bandwidth": 1360896, "exit_policy": ["reject *:*"], "ipv4_address": "58.107.82.46", "latitude": -33.8715, "longitude": 151.2006, "distance": 15860.998497089897}, {"nickname": "Nicodeamuz", "fingerprint": "0DB484FA006DEE8D1CBC2F2F7C92FAAE5AF56D57", "or_addresses": ["64.99.244.246:9001"], "flags": ["Running", "Stable", "V2Dir", "Valid"], "country": "ca", "consensus_weight": 9, "observed_bandwidth": 138330, "advertised_bandwidth": 131072, "exit_policy": ["reject *:*"], "ipv4_address": "64.99.244.246", "latitude": 38.0271, "longitude": -78.4797, "distance": 6371.727928551159}, {"nickname": "FrankyThePooper", "fingerprint": "0DE94B9FB82DDF39EA7615F10FFCBD05AA53339A", "or_addresses": ["152.69.181.33:443"], "flags": ["Fast", "Running", "Stable", "Valid"], "country": "us", "consensus_weight": 1000, "observed_bandwidth": 3195904, "advertised_bandwidth": 3195904, "exit_policy": ["reject *:*"], "ipv4_address": "152.69.181.33", "latitude": -37.755, "longitude": 144.7465, "distance": 15902.830811109274}, {"nickname": "82320e8da3", "fingerprint": "0DFFE5D2846C53794E9C4BAB7A7D6BDAC073285B", "or_addresses": ["195.90.208.20:9001"], "flags": ["Running", "Stable", "V2Dir", "Valid"], "country": "de", "consensus_weight": 6, "observed_bandwidth": 131089, "advertised_bandwidth": 102400, "exit_policy": ["reject *:*"], "ipv4_address": "195.90.208.20", "latitude": 51.2993, "longitude": 9.491, "distance": 1099.7627743542018}, {"nickname": "BloodAndIron", "fingerprint": "0E0DF8C1D9D0F290E94CA675A46B5FC96B6AFF53", "or_addresses": ["192.99.35.83:9001"], "flags": ["Fast", "HSDir", "Running", "Stable", "V2Dir", "Valid"], "country": "ca", "consensus_weight": 440, "observed_bandwidth": 1273393, "advertised_bandwidth": 1024000, "exit_policy": ["reject *:*"], "ipv4_address": "192.99.35.83", "latitude": 43.6319, "longitude": -79.3716, "distance": 5911.682625331168}, {"nickname": "quebracho", "fingerprint": "0E7C1DFA9E6F9889B37474C5C892F7C28BE0E4DA", "or_addresses": ["190.105.205.139:443"], "flags": ["Fast", "HSDir", "Running", "Stable", "V2Dir", "Valid"], "country": "ar", "consensus_weight": 220, "observed_bandwidth": 1028323, "advertised_bandwidth": 1028323, "exit_policy": ["reject *:*"], "ipv4_address": "190.105.205.139", "latitude": -34.6022, "longitude": -58.3845, "distance": 12356.32102183473}, {"nickname": "tor44228d65a8814007", "fingerprint": "0E8460BB5F608A851187F343A3687FBFA3D62F27", "or_addresses": ["45.88.200.93:80"], "flags": ["Fast", "Running", "Stable", "V2Dir", "Valid"], "country": "nl", "consensus_weight": 380, "observed_bandwidth": 970095, "advertised_bandwidth": 970095, "exit_policy": ["reject *:*"], "ipv4_address": "45.88.200.93", "latitude": 52.352, "longitude": 4.9392, "distance": 1051.2964157766933}, {"nickname": "AndranikMarkosyan", "fingerprint": "0E94E6E286132300562BD12A6B881708CC032BAF", "or_addresses": ["172.105.68.180:9001", "[2a01:7e01::f03c:92ff:fe58:5755]:9001"], "flags": ["Fast", "Running", "Stable", "Valid"], "country": "us", "consensus_weight": 1400, "observed_bandwidth": 2207152, "advertised_bandwidth": 1966080, "exit_policy": ["reject *:*"], "ipv4_address": "172.105.68.180", "latitude": 50.1188, "longitude": 8.6843, "distance": 1236.3237974767553}, {"nickname": "myrpirelay", "fingerprint": "0EB77826FBEFFE3A7496616DCB2CB0F478778A33", "or_addresses": ["72.68.41.151:443"], "flags": ["Fast", "Running", "Stable", "Valid"], "country": "us", "consensus_weight": 520, "observed_bandwidth": 1361314, "advertised_bandwidth": 1024000, "exit_policy": ["reject *:*"], "ipv4_address": "72.68.41.151", "latitude": 40.7182, "longitude": -74.0476, "distance": 5905.659897086413}, {"nickname": "linuxoniontest", "fingerprint": "0EF98FD54A0B26965AEE3C13287E2F6192E56297", "or_addresses": ["140.82.9.172:443", "[2001:19f0:1000:1b58:5400:4ff:fe58:b748]:443"], "flags": ["Running", "Stable", "Valid"], "country": "us", "consensus_weight": 24, "observed_bandwidth": 220769, "advertised_bandwidth": 204800, "exit_policy": ["reject *:*"], "ipv4_address": "140.82.9.172", "latitude": 40.5511, "longitude": -74.4606, "distance": 5941.461473518861}, {"nickname": "cadory", "fingerprint": "0F23950B0863ABAFD119D7E3276AD458D515F4FC", "or_addresses": ["178.200.169.85:19001"], "flags": ["Fast", "HSDir", "Running", "Stable", "V2Dir", "Valid"], "country": "de", "consensus_weight": 130, "observed_bandwidth": 538895, "advertised_bandwidth": 524288, "exit_policy": ["reject *:*"], "ipv4_address": "178.200.169.85", "latitude": 50.1004, "longitude": 8.6752, "distance": 1238.4325299802533}, {"nickname": "beatifulpeople", "fingerprint": "0F2E1CB5403A576FBABF8362764A225E454BA799", "or_addresses": ["185.181.60.66:443", "[2a03:94e0:ffff:185:181:60:0:66]:443"], "flags": ["Fast", "Running", "Stable", "Valid"], "country": "no", "consensus_weight": 27000, "observed_bandwidth": 23302702, "advertised_bandwidth": 23302702, "exit_policy": ["reject *:*"], "ipv4_address": "185.181.60.66", "latitude": 59.1728, "longitude": 10.2221, "distance": 227.03461387303517}, {"nickname": "Qazwsxedcrfv", "fingerprint": "0F3B1BCB42C0E688D4A45887EFDD762B8D2F08F9", "or_addresses": ["76.89.223.26:9001", "[2603:8000:b00:9100:e139:a2df:f3b:e56f]:9001"], "flags": ["Fast", "HSDir", "Running", "Stable", "V2Dir", "Valid"], "country": "us", "consensus_weight": 500, "observed_bandwidth": 2153482, "advertised_bandwidth": 1048576, "exit_policy": ["reject *:*"], "ipv4_address": "76.89.223.26", "latitude": 33.9212, "longitude": -118.1424, "distance": 8506.732996777519}, {"nickname": "Tochar", "fingerprint": "0F3D8493DD75CB13E5359A46280562484580BA73", "or_addresses": ["113.20.28.243:9001"], "flags": ["Fast", "HSDir", "Running", "Stable", "V2Dir", "Valid"], "country": "id", "consensus_weight": 410, "observed_bandwidth": 1376793, "advertised_bandwidth": 1376793, "exit_policy": ["reject *:*"], "ipv4_address": "113.20.28.243", "latitude": -6.1728, "longitude": 106.8272, "distance": 10904.561282112094}, {"nickname": "whynot1", "fingerprint": "0F53B4B16768A8A18B838103DD500068C4D656EB", "or_addresses": ["139.99.134.168:443"], "flags": ["Fast", "HSDir", "Running", "Stable", "V2Dir", "Valid"], "country": "au", "consensus_weight": 330, "observed_bandwidth": 1438355, "advertised_bandwidth": 1438355, "exit_policy": ["reject *:*"], "ipv4_address": "139.99.134.168", "latitude": -33.8715, "longitude": 151.2006, "distance": 15860.998497089897}, {"nickname": "pilvi", "fingerprint": "0F6A04276CB95D042AEE8D28B745878F827D210D", "or_addresses": ["87.100.220.163:9011", "[2001:14ba:ab00:cd33::1]:9011"], "flags": ["Running", "Stable", "V2Dir", "Valid"], "country": "fi", "consensus_weight": 55, "observed_bandwidth": 567961, "advertised_bandwidth": 204800, "exit_policy": ["reject *:*"], "ipv4_address": "87.100.220.163", "latitude": 65.013, "longitude": 25.4957, "distance": 829.4724484848351}, {"nickname": "TBB", "fingerprint": "0F87B10519E5649121C4B6FB14D2FA8003F42709", "or_addresses": ["100.19.145.164:443"], "flags": ["Fast", "Running", "Stable", "V2Dir", "Valid"], "country": "us", "consensus_weight": 3700, "observed_bandwidth": 4279285, "advertised_bandwidth": 4279285, "exit_policy": ["reject *:*"], "ipv4_address": "100.19.145.164", "latitude": 39.9195, "longitude": -75.1565, "distance": 6033.095942315697}, {"nickname": "schubduese", "fingerprint": "0F96BFE4FBAC54DD354B74466B94ABA16D9ACF09", "or_addresses": ["84.118.10.49:9001"], "flags": ["Running", "Stable", "V2Dir", "Valid"], "country": "de", "consensus_weight": 6, "observed_bandwidth": 107499, "advertised_bandwidth": 102400, "exit_policy": ["reject *:*"], "ipv4_address": "84.118.10.49", "latitude": 51.309, "longitude": 6.5956, "distance": 1131.1065912270515}, {"nickname": "Unimatrix01", "fingerprint": "0F9F904D61F256C32F01A73FBF0BC57041636BF4", "or_addresses": ["84.158.119.151:443"], "flags": ["Fast", "Running", "V2Dir", "Valid"], "country": "de", "consensus_weight": 980, "observed_bandwidth": 1485131, "advertised_bandwidth": 1485131, "exit_policy": ["reject *:*"], "ipv4_address": "84.158.119.151", "latitude": 49.1269, "longitude": 9.2286, "distance": 1342.1006659384473}, {"nickname": "RussiaOutOfUkraine", "fingerprint": "0FA14FE7E36580F69978DF58CA7AFE5D528082ED", "or_addresses": ["92.32.77.156:9001"], "flags": ["Running", "Stable", "V2Dir", "Valid"], "country": "se", "consensus_weight": 6, "observed_bandwidth": 107809, "advertised_bandwidth": 102400, "exit_policy": ["reject *:*"], "ipv4_address": "92.32.77.156", "latitude": 57.7065, "longitude": 11.967, "distance": 382.52248890496014}, {"nickname": "NaruOTORI", "fingerprint": "0FA6178AE39C413FE657642DDC095C93B1842A79", "or_addresses": ["157.147.121.24:9001"], "flags": ["Running", "Stable", "V2Dir", "Valid"], "country": "jp", "consensus_weight": 87, "observed_bandwidth": 405504, "advertised_bandwidth": 405504, "exit_policy": ["reject *:*"], "ipv4_address": "157.147.121.24", "latitude": 35.0203, "longitude": 135.7602, "distance": 8207.085785556717}, {"nickname": "mentor", "fingerprint": "0FC12F2B7DD0E94930F9B3CDD321308996652957", "or_addresses": ["72.14.177.164:9001"], "flags": ["Running", "Stable", "V2Dir", "Valid"], "country": "us", "consensus_weight": 32, "observed_bandwidth": 369337, "advertised_bandwidth": 256000, "exit_policy": ["reject *:*"], "ipv4_address": "72.14.177.164", "latitude": 32.9473, "longitude": -96.7028, "distance": 7727.885310097038}, {"nickname": "baxTianRelay", "fingerprint": "0FE1F61102A4B10EE33ADC2B4275AD5632E2D31C", "or_addresses": ["92.222.172.56:9001"], "flags": ["Running", "Stable", "V2Dir", "Valid"], "country": "fr", "consensus_weight": 6, "observed_bandwidth": 107519, "advertised_bandwidth": 102400, "exit_policy": ["reject *:*"], "ipv4_address": "92.222.172.56", "latitude": 48.8323, "longitude": 2.4075, "distance": 1479.7593298167446}, {"nickname": "cryzrelay04", "fingerprint": "101C18886B30BB23B36CBAAD159261188852E112", "or_addresses": ["82.149.227.123:9001", "[2a01:440:108:11:82:149:227:123]:9001"], "flags": ["Fast", "HSDir", "Running", "Stable", "V2Dir", "Valid"], "country": "de", "consensus_weight": 170, "observed_bandwidth": 615085, "advertised_bandwidth": 615085, "exit_policy": ["reject *:*"], "ipv4_address": "82.149.227.123", "latitude": 53.5544, "longitude": 9.996, "distance": 846.8626047412404}, {"nickname": "max7", "fingerprint": "102EA149211F490C122CACC4054F1BC6A8503EB4", "or_addresses": ["93.170.246.217:1294"], "flags": ["Running", "V2Dir", "Valid"], "country": "ru", "consensus_weight": 20, "observed_bandwidth": 424704, "advertised_bandwidth": 424704, "exit_policy": ["reject *:*"], "ipv4_address": "93.170.246.217", "latitude": 55.463, "longitude": 38.4509, "distance": 1688.5714834590424}, {"nickname": "juwonpee", "fingerprint": "102EBA826A3BCB603F6EC68338876BF61F0F6090", "or_addresses": ["220.85.171.118:4430"], "flags": ["Fast", "HSDir", "Running", "Stable", "V2Dir", "Valid"], "country": "kr", "consensus_weight": 450, "observed_bandwidth": 1180906, "advertised_bandwidth": 1180906, "exit_policy": ["reject *:*"], "ipv4_address": "220.85.171.118", "latitude": 37.6294, "longitude": 127.0067, "distance": 7600.341844273791}, {"nickname": "tommyboy", "fingerprint": "10805A3833774B812D07EB7D1D75A54021590F56", "or_addresses": ["116.12.180.237:7443"], "flags": ["Fast", "HSDir", "Running", "Stable", "V2Dir", "Valid"], "country": "sg", "consensus_weight": 990, "observed_bandwidth": 3595971, "advertised_bandwidth": 3595971, "exit_policy": ["reject *:*"], "ipv4_address": "116.12.180.237", "latitude": 1.2929, "longitude": 103.8547, "distance": 10018.025412929204}, {"nickname": "accidental", "fingerprint": "1083F8B7F92726F59F213930CA3018E1E5DCBFC4", "or_addresses": ["188.127.30.114:9001"], "flags": ["Fast", "HSDir", "Running", "Stable", "V2Dir", "Valid"], "country": "pl", "consensus_weight": 4600, "observed_bandwidth": 4551535, "advertised_bandwidth": 4194304, "exit_policy": ["reject *:*"], "ipv4_address": "188.127.30.114", "latitude": 51.2487, "longitude": 22.5757, "distance": 1295.8315614223884}, {"nickname": "MuddyMouse", "fingerprint": "10A9C1EC3BCC85C209767E374D93A6CFF5F22CA2", "or_addresses": ["94.156.128.10:9001"], "flags": ["Running", "Stable", "V2Dir", "Valid"], "country": "bg", "consensus_weight": 22, "observed_bandwidth": 227440, "advertised_bandwidth": 204800, "exit_policy": ["reject *:*"], "ipv4_address": "94.156.128.10", "latitude": 42.696, "longitude": 23.332, "distance": 2200.6080910733917}, {"nickname": "Guya", "fingerprint": "10DB3E90330886F6C4D74403EB4458669B577185", "or_addresses": ["200.25.27.8:443"], "flags": ["BadExit", "Fast", "MiddleOnly", "Running", "Stable", "Valid"], "country": "co", "consensus_weight": 2500, "observed_bandwidth": 4064007, "advertised_bandwidth": 4064007, "exit_policy": ["reject 0.0.0.0/8:*", "reject 169.254.0.0/16:*", "reject 127.0.0.0/8:*", "reject 192.168.0.0/16:*", "reject 10.0.0.0/8:*", "reject 172.16.0.0/12:*", "reject 200.25.27.8:*", "accept *:20-21", "accept *:43", "accept *:53", "accept *:80", "accept *:110", "accept *:143", "accept *:220", "accept *:443", "accept *:873", "accept *:989-990", "accept *:991", "accept *:992", "accept *:993", "accept *:995", "accept *:1194", "accept *:1293", "accept *:3690", "accept *:4321", "accept *:5222-5223", "accept *:5228", "accept *:9418", "accept *:11371", "accept *:64738", "reject *:*"], "ipv4_address": "200.25.27.8", "latitude": 4.5981, "longitude": -74.0799, "distance": 9318.69931858335}, {"nickname": "ByteBob", "fingerprint": "10DF0DD9AA44A86F576A23218D50E7D3EFA15DD3", "or_addresses": ["84.83.93.100:9001"], "flags": ["Fast", "Running", "V2Dir", "Valid"], "country": "nl", "consensus_weight": 390, "observed_bandwidth": 1074176, "advertised_bandwidth": 1048576, "exit_policy": ["reject *:*"], "ipv4_address": "84.83.93.100", "latitude": 52.5788, "longitude": 6.6089, "distance": 993.8588516080051}, {"nickname": "torry2", "fingerprint": "10F5F46073C92F71F9FBF0D2B8D9EDC642CF65FF", "or_addresses": ["77.190.150.105:9998"], "flags": ["Fast", "Running", "V2Dir", "Valid"], "country": "de", "consensus_weight": 3100, "observed_bandwidth": 3113984, "advertised_bandwidth": 3072000, "exit_policy": ["reject *:*"], "ipv4_address": "77.190.150.105", "latitude": 49.4764, "longitude": 8.4773, "distance": 1309.0354798426554}, {"nickname": "ruminant", "fingerprint": "1112436FB1DDD1D28C7D753C97126E91CFF6D20A", "or_addresses": ["80.145.65.103:9001"], "flags": ["Fast", "Running", "Stable", "V2Dir", "Valid"], "country": "de", "consensus_weight": 650, "observed_bandwidth": 1197675, "advertised_bandwidth": 1197675, "exit_policy": ["reject *:*"], "ipv4_address": "80.145.65.103", "latitude": 50.0403, "longitude": 10.2309, "distance": 1235.7841281685526}, {"nickname": "hashy", "fingerprint": "114C43B2BAD588861BC7A83FA9889ECC4F4E85EF", "or_addresses": ["103.152.178.118:443", "[2001:df4:1780:3000:cb4b:95b6:1d99:4544]:443"], "flags": ["Fast", "HSDir", "Running", "Stable", "V2Dir", "Valid"], "country": "jp", "consensus_weight": 420, "observed_bandwidth": 1184126, "advertised_bandwidth": 1184126, "exit_policy": ["reject *:*"], "ipv4_address": "103.152.178.118", "latitude": 35.6897, "longitude": 139.6895, "distance": 8283.051099909544}, {"nickname": "yogapants", "fingerprint": "1152163F91C3AA2D30B8FB8FFCA8D8442115EF85", "or_addresses": ["172.105.237.238:9001", "[2400:8902::f03c:91ff:febf:f72]:9001"], "flags": ["Running", "Stable", "V2Dir", "Valid"], "country": "us", "consensus_weight": 16, "observed_bandwidth": 316027, "advertised_bandwidth": 204800, "exit_policy": ["reject 0.0.0.0/8:*", "reject 169.254.0.0/16:*", "reject 127.0.0.0/8:*", "reject 192.168.0.0/16:*", "reject 10.0.0.0/8:*", "reject 172.16.0.0/12:*", "reject 172.105.237.238:*", "accept *:53", "accept *:443", "reject *:*"], "ipv4_address": "172.105.237.238", "latitude": 35.6893, "longitude": 139.6899, "distance": 8283.10621585121}, {"nickname": "lazylamerlimur", "fingerprint": "115AE9359A36A3829FFDCB7E50691BCD99901429", "or_addresses": ["184.88.4.232:9001"], "flags": ["Fast", "Running", "Stable", "V2Dir", "Valid"], "country": "us", "consensus_weight": 500, "observed_bandwidth": 1097728, "advertised_bandwidth": 1048576, "exit_policy": ["reject *:*"], "ipv4_address": "184.88.4.232", "latitude": 28.5531, "longitude": -81.7597, "distance": 7419.9450279462735}, {"nickname": "jonasBebe2", "fingerprint": "11ABDB4D0B944F186A898560CB82C70439957DCA", "or_addresses": ["213.95.190.181:9001", "[2001:780:131:13::2]:9001"], "flags": ["Running", "Stable", "V2Dir", "Valid"], "country": "de", "consensus_weight": 36, "observed_bandwidth": 322061, "advertised_bandwidth": 256000, "exit_policy": ["reject *:*"], "ipv4_address": "213.95.190.181", "latitude": 51.2993, "longitude": 9.491, "distance": 1099.7627743542018}, {"nickname": "mekansm", "fingerprint": "11C9529C9D0671545EAEF80DFE209AD977BCE908", "or_addresses": ["77.22.55.98:9999"], "flags": ["Fast", "Running", "V2Dir", "Valid"], "country": "de", "consensus_weight": 950, "observed_bandwidth": 1540262, "advertised_bandwidth": 1540262, "exit_policy": ["reject *:*"], "ipv4_address": "77.22.55.98", "latitude": 51.9841, "longitude": 9.2493, "distance": 1025.68504713899}, {"nickname": "ozarks", "fingerprint": "11ECBFDEBB8321222BFCAB592F8997D7E732840C", "or_addresses": ["89.68.159.68:12443"], "flags": ["Fast", "HSDir", "Running", "Stable", "V2Dir", "Valid"], "country": "pl", "consensus_weight": 2200, "observed_bandwidth": 2618972, "advertised_bandwidth": 2618972, "exit_policy": ["reject *:*"], "ipv4_address": "89.68.159.68", "latitude": 50.0585, "longitude": 19.9342, "distance": 1341.5300404416303}, {"nickname": "seasite", "fingerprint": "11F401E027AE8B2525B47654B760B6C754142A3E", "or_addresses": ["185.193.125.208:443", "[2a0a:3840:1337:125:0:b9c1:7dd0:1337]:443"], "flags": ["Fast", "Running", "Valid"], "country": "se", "consensus_weight": 1800, "observed_bandwidth": 2137939, "advertised_bandwidth": 2097152, "exit_policy": ["reject *:*"], "ipv4_address": "185.193.125.208", "latitude": 60.1717, "longitude": 24.9349, "distance": 745.6961354475849}, {"nickname": "EnzoTheBackupBox", "fingerprint": "12046CF05F7C07A2DBAA3EA8866A117F143A2306", "or_addresses": ["64.226.23.78:9002", "[2001:470:b88c::2]:9002"], "flags": ["Running", "V2Dir", "Valid"], "country": "us", "consensus_weight": 5, "observed_bandwidth": 144290, "advertised_bandwidth": 102400, "exit_policy": ["reject *:*"], "ipv4_address": "64.226.23.78", "latitude": 35.4698, "longitude": -92.3803, "distance": 7285.527068465279}, {"nickname": "AgrippaRelay", "fingerprint": "12062607778B54C2215A68606C7C3B01DD7CE8F2", "or_addresses": ["88.99.76.10:9001"], "flags": ["Fast", "Running", "Stable", "Valid"], "country": "de", "consensus_weight": 140, "observed_bandwidth": 534745, "advertised_bandwidth": 524288, "exit_policy": ["reject *:*"], "ipv4_address": "88.99.76.10", "latitude": 51.2993, "longitude": 9.491, "distance": 1099.7627743542018}, {"nickname": "TeleMishka002", "fingerprint": "121ECC8A7BD881823DAEA3C0858D51FDF19B1990", "or_addresses": ["157.245.184.13:9001"], "flags": ["Fast", "Running", "Stable", "Valid"], "country": "us", "consensus_weight": 710, "observed_bandwidth": 1235569, "advertised_bandwidth": 1235569, "exit_policy": ["reject *:*"], "ipv4_address": "157.245.184.13", "latitude": 37.3417, "longitude": -121.9753, "distance": 8283.411667910237}, {"nickname": "FermentationLabs2", "fingerprint": "12357592948022430A8FE76D312FFA8C5584C5A8", "or_addresses": ["99.150.229.21:9001"], "flags": ["Fast", "HSDir", "Running", "Stable", "V2Dir", "Valid"], "country": "us", "consensus_weight": 270, "observed_bandwidth": 779119, "advertised_bandwidth": 779119, "exit_policy": ["reject *:*"], "ipv4_address": "99.150.229.21", "latitude": 35.9182, "longitude": -79.0035, "distance": 6591.258112545183}, {"nickname": "TheFloatingLab", "fingerprint": "126F8FDC1A6FE56F256F50AAB2C3B026E98B43CD", "or_addresses": ["82.221.141.107:9001"], "flags": ["Running", "Stable", "Valid"], "country": "is", "consensus_weight": 6, "observed_bandwidth": 425230, "advertised_bandwidth": 102400, "exit_policy": ["reject *:*"], "ipv4_address": "82.221.141.107", "latitude": 65.0, "longitude": -18.0, "distance": 1525.3055949605869}, {"nickname": "torarch", "fingerprint": "12A4F207EE231F342CC5B5A3F2C6DC80A8A59E98", "or_addresses": ["45.33.55.238:9001", "[2600:3c01::f03c:93ff:fe25:b23e]:9001"], "flags": ["Fast", "Running", "Stable", "Valid"], "country": "us", "consensus_weight": 130, "observed_bandwidth": 529566, "advertised_bandwidth": 512000, "exit_policy": ["reject *:*"], "ipv4_address": "45.33.55.238", "latitude": 37.5625, "longitude": -122.0004, "distance": 8261.349514570014}, {"nickname": "mdfnet1", "fingerprint": "12AD30E5D25AA67F519780E2111E611A455FDC89", "or_addresses": ["193.11.114.43:9001", "[2001:6b0:30:1000::99]:9050"], "flags": ["Fast", "Running", "V2Dir", "Valid"], "country": "se", "consensus_weight": 20000, "observed_bandwidth": 17017321, "advertised_bandwidth": 17017321, "exit_policy": ["reject *:*"], "ipv4_address": "193.11.114.43", "latitude": 57.7963, "longitude": 14.1376, "distance": 402.5467452609556}, {"nickname": "bauruine", "fingerprint": "12C2B0CD1B8C7A12229A7C36E134274550DCD7F4", "or_addresses": ["95.214.53.216:8445", "[2a03:cfc0:8000:7::5fd6:35d8]:8445"], "flags": ["Fast", "Running", "Stable", "V2Dir", "Valid"], "country": "pl", "consensus_weight": 29000, "observed_bandwidth": 19219456, "advertised_bandwidth": 19219456, "exit_policy": ["reject *:*"], "ipv4_address": "95.214.53.216", "latitude": 52.2394, "longitude": 21.0362, "distance": 1149.2861161017515}, {"nickname": "bammbamm", "fingerprint": "12CB4C0E78A71C846069605361B1E1FF528E1AF0", "or_addresses": ["193.43.147.241:9001"], "flags": ["Fast", "Running", "Stable", "V2Dir", "Valid"], "country": "cz", "consensus_weight": 4100, "observed_bandwidth": 6797312, "advertised_bandwidth": 6797312, "exit_policy": ["reject *:*"], "ipv4_address": "193.43.147.241", "latitude": 48.9345, "longitude": 14.4134, "distance": 1370.160994847119}, {"nickname": "Unnamed", "fingerprint": "12D7EDDFDBE9462AC1FB3F89AD3640EDD3720787", "or_addresses": ["180.150.77.240:9001"], "flags": ["Fast", "HSDir", "Running", "Stable", "V2Dir", "Valid"], "country": "au", "consensus_weight": 300, "observed_bandwidth": 1195166, "advertised_bandwidth": 1195166, "exit_policy": ["reject *:*"], "ipv4_address": "180.150.77.240", "latitude": -33.8715, "longitude": 151.2006, "distance": 15860.998497089897}, {"nickname": "shortmax", "fingerprint": "12D978C2A4CB4AC17940FE88F899B67A0FF9BAAD", "or_addresses": ["95.216.141.19:9001", "[2a01:4f9:c010:513::1]:9001"], "flags": ["Fast", "Running", "Stable", "Valid"], "country": "fi", "consensus_weight": 28000, "observed_bandwidth": 22477028, "advertised_bandwidth": 22477028, "exit_policy": ["reject *:*"], "ipv4_address": "95.216.141.19", "latitude": 60.1719, "longitude": 24.9347, "distance": 745.6799838645395}, {"nickname": "ridcully", "fingerprint": "12F88798DD4B9BFB25A6978DA83F082EF1D5051A", "or_addresses": ["188.40.99.69:9001", "[2a01:4f8:221:1901::12]:9001"], "flags": ["Fast", "Running", "Valid"], "country": "de", "consensus_weight": 1900, "observed_bandwidth": 9991116, "advertised_bandwidth": 1048576, "exit_policy": ["reject *:*"], "ipv4_address": "188.40.99.69", "latitude": 51.2993, "longitude": 9.491, "distance": 1099.7627743542018}, {"nickname": "funkturm", "fingerprint": "130E69E8F783DEF256E757FA78154B7DC2A39E0E", "or_addresses": ["185.72.247.145:9001"], "flags": ["Fast", "HSDir", "Running", "Stable", "V2Dir", "Valid"], "country": "de", "consensus_weight": 3400, "observed_bandwidth": 4317558, "advertised_bandwidth": 4317558, "exit_policy": ["reject *:*"], "ipv4_address": "185.72.247.145", "latitude": 37.751, "longitude": -97.822, "distance": 7313.814090698954}, {"nickname": "apollo", "fingerprint": "131C2E46F47DE274857DF55C756161AA32A08D7D", "or_addresses": ["74.83.80.254:9001"], "flags": ["Fast", "Running", "V2Dir", "Valid"], "country": "us", "consensus_weight": 5300, "observed_bandwidth": 4911877, "advertised_bandwidth": 4911877, "exit_policy": ["reject *:*"], "ipv4_address": "74.83.80.254", "latitude": 39.1059, "longitude": -84.5047, "distance": 6570.128189451371}, {"nickname": "N3ur0Relay2", "fingerprint": "132605DF7B6750A6634730FBA2E1F99B93925E24", "or_addresses": ["65.109.165.235:443", "[2a01:4f9:c010:dc9a::1]:443"], "flags": ["Fast", "Running", "Valid"], "country": "fi", "consensus_weight": 65000, "observed_bandwidth": 43809807, "advertised_bandwidth": 43809807, "exit_policy": ["reject *:*"], "ipv4_address": "65.109.165.235", "latitude": 60.1797, "longitude": 24.9344, "distance": 745.4529965220947}, {"nickname": "SubjectDelta", "fingerprint": "132F529D2860B0DD4E7C272ED23DFE7E2FDEE2A3", "or_addresses": ["185.21.217.34:10015"], "flags": ["Fast", "Running", "Stable", "Valid"], "country": "gb", "consensus_weight": 37000, "observed_bandwidth": 35625187, "advertised_bandwidth": 35625187, "exit_policy": ["reject *:*"], "ipv4_address": "185.21.217.34", "latitude": 51.4964, "longitude": -0.1224, "distance": 1281.0843613921256}, {"nickname": "Maraz", "fingerprint": "1333F517F6C518CA9B4F7D68302940B4C56A3929", "or_addresses": ["45.63.126.247:109", "[2401:c080:1000:4fe4:5400:2ff:feb2:8c10]:109"], "flags": ["Fast", "Running", "Valid"], "country": "us", "consensus_weight": 340, "observed_bandwidth": 1157366, "advertised_bandwidth": 1048576, "exit_policy": ["reject *:*"], "ipv4_address": "45.63.126.247", "latitude": 35.6887, "longitude": 139.745, "distance": 8285.123725521162}, {"nickname": "KoolJack", "fingerprint": "1339157A141484AB5F41F2591902643F0745CBF0", "or_addresses": ["154.67.217.229:443"], "flags": ["Fast", "Running", "Valid"], "country": "re", "consensus_weight": 270, "observed_bandwidth": 1115136, "advertised_bandwidth": 1115136, "exit_policy": ["reject *:*"], "ipv4_address": "154.67.217.229", "latitude": -20.8864, "longitude": 55.4511, "distance": 9935.352167308178}, {"nickname": "jellyfixerpitbowl", "fingerprint": "135FF44CC334E6632F2F74B9D99E7D433422ABDA", "or_addresses": ["45.79.14.141:9001", "[2600:3c00::f03c:92ff:fe97:c70b]:9001"], "flags": ["Fast", "Running", "Stable", "Valid"], "country": "us", "consensus_weight": 440, "observed_bandwidth": 1077648, "advertised_bandwidth": 1024000, "exit_policy": ["reject *:*"], "ipv4_address": "45.79.14.141", "latitude": 32.9473, "longitude": -96.7028, "distance": 7727.885310097038}, {"nickname": "doerak", "fingerprint": "13809CC1C07828752A248CDBC81869C52E76BEBD", "or_addresses": ["65.108.210.174:443", "[2a01:4f9:c011:3711::1]:443"], "flags": ["Fast", "Running", "Stable", "Valid"], "country": "fi", "consensus_weight": 13000, "observed_bandwidth": 10779127, "advertised_bandwidth": 10240000, "exit_policy": ["reject *:*"], "ipv4_address": "65.108.210.174", "latitude": 60.1797, "longitude": 24.9344, "distance": 745.4529965220947}, {"nickname": "srnfprivacy", "fingerprint": "1384152DA3613F39076FC9325C0FD8B6AAD44D0C", "or_addresses": ["87.172.125.191:9001"], "flags": ["Fast", "Running", "Stable", "V2Dir", "Valid"], "country": "de", "consensus_weight": 460, "observed_bandwidth": 1007616, "advertised_bandwidth": 1007616, "exit_policy": ["reject *:*"], "ipv4_address": "87.172.125.191", "latitude": 51.501, "longitude": 7.0469, "distance": 1103.3958120680122}, {"nickname": "RoarHound", "fingerprint": "13CE18FDA95C3F628B2D1772030C925B7F716BD7", "or_addresses": ["91.228.52.211:9001"], "flags": ["Fast", "Running", "Valid"], "country": "de", "consensus_weight": 17000, "observed_bandwidth": 13136278, "advertised_bandwidth": 13136278, "exit_policy": ["reject *:*"], "ipv4_address": "91.228.52.211", "latitude": 51.1878, "longitude": 6.8607, "distance": 1140.1857060789603}, {"nickname": "t1saczhbu0dgljekrq", "fingerprint": "13E943C7B0C0DD6A1BC8201B62037B4BF71EB376", "or_addresses": ["51.154.39.70:8080", "[2a04:ee41:84:9066:200:ff:fe00:202]:8080"], "flags": ["Fast", "Running", "Stable", "V2Dir", "Valid"], "country": "ch", "consensus_weight": 490, "observed_bandwidth": 1043456, "advertised_bandwidth": 1043456, "exit_policy": ["reject *:*"], "ipv4_address": "51.154.39.70", "latitude": 47.3934, "longitude": 8.5163, "distance": 1539.0146564467536}, {"nickname": "Unnamed", "fingerprint": "13EBF3B038090EBACC84B2A5241C910265BBCD6E", "or_addresses": ["153.127.192.183:9001"], "flags": ["Fast", "HSDir", "Running", "Stable", "V2Dir", "Valid"], "country": "jp", "consensus_weight": 330, "observed_bandwidth": 1087713, "advertised_bandwidth": 1048576, "exit_policy": ["reject *:*"], "ipv4_address": "153.127.192.183", "latitude": 35.6837, "longitude": 139.6805, "distance": 8283.345052603494}, {"nickname": "synergy", "fingerprint": "13F7A62A9704C5CE0C37BB4D677469EACA15A8AB", "or_addresses": ["64.176.183.43:443", "[2a05:f480:3400:2349:5400:4ff:fe6d:8560]:443"], "flags": ["Running", "V2Dir", "Valid"], "country": "us", "consensus_weight": 1, "observed_bandwidth": 0, "advertised_bandwidth": 0, "exit_policy": ["reject *:*"], "ipv4_address": "64.176.183.43", "latitude": 37.751, "longitude": -97.822, "distance": 7313.814090698954}, {"nickname": "Vulcano", "fingerprint": "141E9A5A2EFC1F8CCEDB032CDEBAD3207ECC6501", "or_addresses": ["94.172.84.96:9001"], "flags": ["Fast", "Running", "Stable", "V2Dir", "Valid"], "country": "pl", "consensus_weight": 120, "observed_bandwidth": 468992, "advertised_bandwidth": 468992, "exit_policy": ["reject *:*"], "ipv4_address": "94.172.84.96", "latitude": 52.0733, "longitude": 21.0075, "distance": 1164.9237221285948}, {"nickname": "SofiaLamb", "fingerprint": "14313174C360A3012C4F7A9EABE552C33CE4F306", "or_addresses": ["185.21.217.29:10128"], "flags": ["Fast", "Running", "Stable", "Valid"], "country": "gb", "consensus_weight": 37000, "observed_bandwidth": 34769425, "advertised_bandwidth": 34769425, "exit_policy": ["reject *:*"], "ipv4_address": "185.21.217.29", "latitude": 51.4964, "longitude": -0.1224, "distance": 1281.0843613921256}, {"nickname": "TD403", "fingerprint": "14870B5C03E71E1550EAE776FA3FB2DFEA495CF7", "or_addresses": ["169.150.198.75:57138"], "flags": ["Fast", "Running", "V2Dir", "Valid"], "country": "br", "consensus_weight": 210, "observed_bandwidth": 1084931, "advertised_bandwidth": 1084931, "exit_policy": ["reject *:*"], "ipv4_address": "169.150.198.75", "latitude": -23.5335, "longitude": -46.6359, "distance": 10746.210432016609}, {"nickname": "DaffyMcduck", "fingerprint": "14BA402FE00684C6DC6BF1BE314848B0982D4E56", "or_addresses": ["185.101.34.74:443"], "flags": ["BadExit", "Fast", "MiddleOnly", "Running", "Stable", "Valid"], "country": "no", "consensus_weight": 14000, "observed_bandwidth": 11626197, "advertised_bandwidth": 11626197, "exit_policy": ["reject 0.0.0.0/8:*", "reject 169.254.0.0/16:*", "reject 127.0.0.0/8:*", "reject 192.168.0.0/16:*", "reject 10.0.0.0/8:*", "reject 172.16.0.0/12:*", "reject 185.101.34.74:*", "accept *:20-21", "accept *:43", "accept *:53", "accept *:80", "accept *:110", "accept *:143", "accept *:220", "accept *:443", "accept *:873", "accept *:989-990", "accept *:991", "accept *:992", "accept *:993", "accept *:995", "accept *:1194", "accept *:1293", "accept *:3690", "accept *:4321", "accept *:5222-5223", "accept *:5228", "accept *:9418", "accept *:11371", "accept *:64738", "reject *:*"], "ipv4_address": "185.101.34.74", "latitude": 59.8636, "longitude": 10.7961, "distance": 144.58302104642053}, {"nickname": "tk1", "fingerprint": "14E7425932F342E59BDC9E31BF414A2F832721FA", "or_addresses": ["118.27.10.181:9001", "[2400:8500:1801:405:118:27:10:181]:9001"], "flags": ["Fast", "HSDir", "Running", "Stable", "V2Dir", "Valid"], "country": "jp", "consensus_weight": 360, "observed_bandwidth": 993325, "advertised_bandwidth": 993325, "exit_policy": ["reject *:*"], "ipv4_address": "118.27.10.181", "latitude": 35.6897, "longitude": 139.6895, "distance": 8283.051099909544}, {"nickname": "casaholiday", "fingerprint": "1523C502A9754B6B42CCA5EB402A833CFF0E402D", "or_addresses": ["209.90.224.5:39001"], "flags": ["Running", "Stable", "Valid"], "country": "us", "consensus_weight": 6, "observed_bandwidth": 107520, "advertised_bandwidth": 102400, "exit_policy": ["reject *:*"], "ipv4_address": "209.90.224.5", "latitude": 47.4902, "longitude": -122.3004, "distance": 7246.313171583875}, {"nickname": "lptr02ORFzF4Za", "fingerprint": "1547B9364B79A91D2F26E19BAF7F9FE807785855", "or_addresses": ["173.212.242.110:9001", "[2a02:c207:2013:844::1]:9001"], "flags": ["Running", "Stable", "V2Dir", "Valid"], "country": "de", "consensus_weight": 48, "observed_bandwidth": 322618, "advertised_bandwidth": 307200, "exit_policy": ["reject *:*"], "ipv4_address": "173.212.242.110", "latitude": 49.405, "longitude": 11.1617, "distance": 1304.4805987690977}, {"nickname": "mac68tm", "fingerprint": "155513DAF42E18FA16FCE77D08417E460785A95B", "or_addresses": ["95.147.86.153:9001"], "flags": ["Fast", "Running", "Stable", "V2Dir", "Valid"], "country": "gb", "consensus_weight": 470, "observed_bandwidth": 1185618, "advertised_bandwidth": 1048576, "exit_policy": ["reject *:*"], "ipv4_address": "95.147.86.153", "latitude": 52.9292, "longitude": -1.1065, "distance": 1180.456749061945}, {"nickname": "Bundesgebaermutter", "fingerprint": "15841A96CA5C1171985A9565BF7CDDFE2BF8E91E", "or_addresses": ["88.77.190.68:8080"], "flags": ["Running", "Valid"], "country": "de", "consensus_weight": 10, "observed_bandwidth": 174599, "advertised_bandwidth": 153600, "exit_policy": ["reject *:*"], "ipv4_address": "88.77.190.68", "latitude": 51.2948, "longitude": 7.6717, "distance": 1117.43935259087}, {"nickname": "WowieZowie", "fingerprint": "15A48E7325C34D33B8499E6E02065914BA1801C7", "or_addresses": ["150.136.142.129:9001", "[2603:c020:400e:2d00:1dab:577c:9b9:1ff0]:9001"], "flags": ["Fast", "HSDir", "Running", "Stable", "V2Dir", "Valid"], "country": "us", "consensus_weight": 130, "observed_bandwidth": 532443, "advertised_bandwidth": 512000, "exit_policy": ["reject *:*"], "ipv4_address": "150.136.142.129", "latitude": 39.018, "longitude": -77.539, "distance": 6234.472751018612}, {"nickname": "5b82I0IfxsHI7ekh", "fingerprint": "15AE6FFE0E245A820D4F74EA64B4C304EE555C1D", "or_addresses": ["94.134.61.11:8443"], "flags": ["Fast", "Running", "V2Dir", "Valid"], "country": "de", "consensus_weight": 490, "observed_bandwidth": 985340, "advertised_bandwidth": 985340, "exit_policy": ["reject *:*"], "ipv4_address": "94.134.61.11", "latitude": 52.4746, "longitude": 13.4164, "distance": 970.8792112999554}, {"nickname": "FuckXandao", "fingerprint": "15C84E55A7B91A498908A527757F951B55B0A15D", "or_addresses": ["164.152.240.210:9090", "[2603:c025:4001:280a:6363:7e28:2521:c8b4]:9090"], "flags": ["Fast", "HSDir", "Running", "Stable", "V2Dir", "Valid"], "country": "us", "consensus_weight": 1300, "observed_bandwidth": 2567066, "advertised_bandwidth": 2567066, "exit_policy": ["reject *:*"], "ipv4_address": "164.152.240.210", "latitude": -23.0251, "longitude": -46.9785, "distance": 10709.156341183025}, {"nickname": "RandomPersonX", "fingerprint": "15D7FBA0A3EF08C73A7A42606197399B706CDC46", "or_addresses": ["2.204.196.157:13001"], "flags": ["Running", "Stable", "V2Dir", "Valid"], "country": "de", "consensus_weight": 3, "observed_bandwidth": 156076, "advertised_bandwidth": 76800, "exit_policy": ["reject *:*"], "ipv4_address": "2.204.196.157", "latitude": 51.4496, "longitude": 6.6398, "distance": 1115.1800777878755}, {"nickname": "peci1tornode", "fingerprint": "15EFE7269FB3F8BE7B6E5EF8471ED6A04799B020", "or_addresses": ["94.142.236.196:9001"], "flags": ["Fast", "HSDir", "Running", "Stable", "V2Dir", "Valid"], "country": "cz", "consensus_weight": 86, "observed_bandwidth": 396797, "advertised_bandwidth": 396797, "exit_policy": ["reject *:*"], "ipv4_address": "94.142.236.196", "latitude": 50.05, "longitude": 14.4, "distance": 1246.9437753570974}, {"nickname": "cloak", "fingerprint": "15FCFEC81522453A58AE3884D660A621A8472816", "or_addresses": ["185.26.156.13:40745", "[2a00:d0c0:200:0:6ca2:b2ff:fee6:2c13]:40745"], "flags": ["Fast", "Running", "Valid"], "country": "de", "consensus_weight": 720, "observed_bandwidth": 1358308, "advertised_bandwidth": 1228800, "exit_policy": ["reject *:*"], "ipv4_address": "185.26.156.13", "latitude": 51.2993, "longitude": 9.491, "distance": 1099.7627743542018}, {"nickname": "DefCon", "fingerprint": "161B67AD2BFBD43602903088A330EFA642E7D98D", "or_addresses": ["94.220.70.135:9001"], "flags": ["Running", "V2Dir", "Valid"], "country": "de", "consensus_weight": 3, "observed_bandwidth": 81542, "advertised_bandwidth": 81542, "exit_policy": ["reject *:*"], "ipv4_address": "94.220.70.135", "latitude": 51.5018, "longitude": 7.3423, "distance": 1099.1255902642133}, {"nickname": "mypirelay", "fingerprint": "16530D8CCD6A7C2C13564A573E9B23CE1A4AD24F", "or_addresses": ["37.133.187.77:9001"], "flags": ["Fast", "Running", "Stable", "V2Dir", "Valid"], "country": "es", "consensus_weight": 130, "observed_bandwidth": 515072, "advertised_bandwidth": 512000, "exit_policy": ["reject *:*"], "ipv4_address": "37.133.187.77", "latitude": 41.387, "longitude": 2.1701, "distance": 2282.555589616474}, {"nickname": "toraway", "fingerprint": "165A4E8431369F246F74BF83EEB515B4B1D234C7", "or_addresses": ["24.190.192.15:9001"], "flags": ["Running", "Valid"], "country": "us", "consensus_weight": 43, "observed_bandwidth": 275256, "advertised_bandwidth": 262144, "exit_policy": ["reject *:*"], "ipv4_address": "24.190.192.15", "latitude": 40.6327, "longitude": -73.6333, "distance": 5892.208111782595}, {"nickname": "boats", "fingerprint": "1669E51A8F1D7D7255683F5536D3BE643EB11664", "or_addresses": ["89.58.0.89:443", "[2a03:4000:5d:dd7:1451:c9ff:fe68:1d78]:443"], "flags": ["Fast", "Running", "V2Dir", "Valid"], "country": "de", "consensus_weight": 28000, "observed_bandwidth": 25804800, "advertised_bandwidth": 25804800, "exit_policy": ["reject *:*"], "ipv4_address": "89.58.0.89", "latitude": 51.2993, "longitude": 9.491, "distance": 1099.7627743542018}, {"nickname": "Unnamed", "fingerprint": "167CED9E01D1A1099365DC86C39FE1FC68EA6608", "or_addresses": ["159.138.35.68:9001"], "flags": ["Running", "Stable", "V2Dir", "Valid"], "country": "hk", "consensus_weight": 14, "observed_bandwidth": 194589, "advertised_bandwidth": 194589, "exit_policy": ["reject *:*"], "ipv4_address": "159.138.35.68", "latitude": 22.2908, "longitude": 114.1501, "distance": 8509.586165534902}, {"nickname": "Unnamed", "fingerprint": "169D36A75108D9D77B422C89EFA783CFBC662BF8", "or_addresses": ["93.72.79.64:9001"], "flags": ["Fast", "Running", "Stable", "V2Dir", "Valid"], "country": "ua", "consensus_weight": 310, "observed_bandwidth": 1052672, "advertised_bandwidth": 786432, "exit_policy": ["reject *:*"], "ipv4_address": "93.72.79.64", "latitude": 50.458, "longitude": 30.5303, "distance": 1674.6785684540214}, {"nickname": "vistrelay", "fingerprint": "16F4F221974E80E5B89F814791D2522E9D2ECFF1", "or_addresses": ["198.211.125.179:9001"], "flags": ["Fast", "Running", "Stable", "Valid"], "country": "us", "consensus_weight": 240, "observed_bandwidth": 699568, "advertised_bandwidth": 699568, "exit_policy": ["reject *:*"], "ipv4_address": "198.211.125.179", "latitude": 52.3006, "longitude": 4.9479, "distance": 1056.5024617172191}, {"nickname": "RelayTheFuckOutOfIt", "fingerprint": "16F50F2728581FE5CA7AC31F5066DCE8653F996C", "or_addresses": ["195.201.226.88:9001", "[2a01:4f8:c2c:f672::1]:9001"], "flags": ["Fast", "Running", "Stable", "Valid"], "country": "de", "consensus_weight": 23000, "observed_bandwidth": 15496734, "advertised_bandwidth": 15496734, "exit_policy": ["reject *:*"], "ipv4_address": "195.201.226.88", "latitude": 49.1156, "longitude": 10.7511, "distance": 1337.171538168562}, {"nickname": "bluesnake", "fingerprint": "16F7E9E93D6CC469392AD0BA020A3F359DF98345", "or_addresses": ["5.150.196.99:9001", "[2001:470:28:228::100]:9001"], "flags": ["Running", "Stable", "V2Dir", "Valid"], "country": "se", "consensus_weight": 37, "observed_bandwidth": 277755, "advertised_bandwidth": 262144, "exit_policy": ["reject *:*"], "ipv4_address": "5.150.196.99", "latitude": 56.1979, "longitude": 15.5162, "distance": 598.6324412339169}, {"nickname": "ghostventures", "fingerprint": "16FF2EC6F7B5A93D4BBDACA7CA6D38CE18DD2853", "or_addresses": ["139.28.36.142:443"], "flags": ["BadExit", "Fast", "MiddleOnly", "Running", "Stable", "Valid"], "country": "ua", "consensus_weight": 16000, "observed_bandwidth": 13769862, "advertised_bandwidth": 13769862, "exit_policy": ["reject 0.0.0.0/8:*", "reject 169.254.0.0/16:*", "reject 127.0.0.0/8:*", "reject 192.168.0.0/16:*", "reject 10.0.0.0/8:*", "reject 172.16.0.0/12:*", "reject 139.28.36.142:*", "accept *:20-21", "accept *:23", "accept *:43", "accept *:53", "accept *:79", "accept *:80-81", "accept *:88", "accept *:110", "accept *:194", "accept *:220", "accept *:389", "accept *:443", "accept *:464", "accept *:465", "accept *:531", "accept *:543-544", "accept *:554", "accept *:563", "accept *:587", "accept *:636", "accept *:706", "accept *:749", "accept *:873", "accept *:902-904", "accept *:981", "accept *:989-990", "accept *:991", "accept *:992", "accept *:994", "accept *:995", "accept *:1194", "accept *:1220", "accept *:1293", "accept *:1500", "accept *:1533", "accept *:1677", "accept *:1723", "accept *:1755", "accept *:1863", "accept *:2082", "accept *:2083", "accept *:2086-2087", "accept *:2095-2096", "accept *:2102-2104", "accept *:3128", "accept *:3389", "accept *:3690", "accept *:4321", "accept *:4643", "accept *:5050", "accept *:5190", "accept *:5222-5223", "accept *:5228", "accept *:5900", "accept *:6660-6669", "accept *:6679", "accept *:6697", "accept *:8000", "accept *:8008", "accept *:8074", "accept *:8080", "accept *:8082", "accept *:8087-8088", "accept *:8232-8233", "accept *:8332-8333", "accept *:8443", "accept *:8888", "accept *:9418", "accept *:9999", "accept *:10000", "accept *:11371", "accept *:19294", "accept *:19638", "accept *:50002", "accept *:64738", "reject *:*"], "ipv4_address": "139.28.36.142", "latitude": 50.458, "longitude": 30.5303, "distance": 1674.6785684540214}, {"nickname": "Unnamed", "fingerprint": "172375185493D9D6248B01CF9683A5409D0168FA", "or_addresses": ["108.16.255.18:9099"], "flags": ["Running", "Stable", "V2Dir", "Valid"], "country": "us", "consensus_weight": 5, "observed_bandwidth": 107974, "advertised_bandwidth": 102400, "exit_policy": ["reject *:*"], "ipv4_address": "108.16.255.18", "latitude": 40.2874, "longitude": -75.2156, "distance": 6003.1942070988}, {"nickname": "Unnamed", "fingerprint": "172E09BC94C019395776AF150976482C730A52F7", "or_addresses": ["193.200.17.56:9001", "[2a10:1fc0:8::a38c:7e20]:9001"], "flags": ["Running", "Stable", "V2Dir", "Valid"], "country": "pl", "consensus_weight": 3, "observed_bandwidth": 106549, "advertised_bandwidth": 76800, "exit_policy": ["reject *:*"], "ipv4_address": "193.200.17.56", "latitude": 52.2296, "longitude": 21.0067, "distance": 1149.3522115640899}, {"nickname": "blackPanther", "fingerprint": "17460997E66C47F805A834BE93CC14EC0DC608EA", "or_addresses": ["213.183.56.140:443"], "flags": ["Fast", "Running", "Stable", "V2Dir", "Valid"], "country": "ru", "consensus_weight": 590, "observed_bandwidth": 3876864, "advertised_bandwidth": 655360, "exit_policy": ["reject *:*"], "ipv4_address": "213.183.56.140", "latitude": 55.7483, "longitude": 37.6171, "distance": 1627.3397012068133}, {"nickname": "260VoltLive", "fingerprint": "1746FE95BC6EB9CF1063F5063B23090C14F865AF", "or_addresses": ["106.70.251.222:443"], "flags": ["Fast", "HSDir", "Running", "Stable", "V2Dir", "Valid"], "country": "au", "consensus_weight": 220, "observed_bandwidth": 2249965, "advertised_bandwidth": 2249965, "exit_policy": ["reject *:*"], "ipv4_address": "106.70.251.222", "latitude": -37.8411, "longitude": 144.9799, "distance": 15922.568891989109}, {"nickname": "lenada", "fingerprint": "174A87D7E75082E5DC7CB3B058FFF1956A389599", "or_addresses": ["148.153.0.42:9001"], "flags": ["Fast", "HSDir", "Running", "Stable", "V2Dir", "Valid"], "country": "us", "consensus_weight": 330, "observed_bandwidth": 971528, "advertised_bandwidth": 971528, "exit_policy": ["reject *:*"], "ipv4_address": "148.153.0.42", "latitude": 34.0544, "longitude": -118.2441, "distance": 8496.637200442277}, {"nickname": "AveCaesar", "fingerprint": "1752DCDB9794770FCAF93AFEEE1EA6BD620E084D", "or_addresses": ["178.165.27.216:9011"], "flags": ["Fast", "Running", "Valid"], "country": "ua", "consensus_weight": 440, "observed_bandwidth": 1071266, "advertised_bandwidth": 1024000, "exit_policy": ["reject *:*"], "ipv4_address": "178.165.27.216", "latitude": 49.982, "longitude": 36.2566, "distance": 1976.3345850713608}, {"nickname": "czrpYOL8Pp", "fingerprint": "175D59B37F65EFEB2B9B6B33E53D4754680BBCF9", "or_addresses": ["149.172.239.44:9001", "[2a02:8071:4483:b940:dea6:32ff:fe5a:4ba6]:9001"], "flags": ["Running", "Stable", "V2Dir", "Valid"], "country": "de", "consensus_weight": 34, "observed_bandwidth": 248630, "advertised_bandwidth": 248630, "exit_policy": ["reject *:*"], "ipv4_address": "149.172.239.44", "latitude": 48.8795, "longitude": 8.6979, "distance": 1373.2065269578104},