[{"nickname": "RandomRecipes", "fingerprint": "A0B5B5906EB13F213D7CA9AFEC91934BE3A5930F", "or_addresses": ["38.97.116.244:9001"], "flags": ["Exit", "Fast", "Guard", "HSDir", "Running", "Stable", "V2Dir", "Valid"], "country": "us", "consensus_weight": 310000, "observed_bandwidth": 113903990, "advertised_bandwidth": 113903990, "exit_policy": ["reject 0.0.0.0/8:*", "reject 169.254.0.0/16:*", "reject 127.0.0.0/8:*", "reject 192.168.0.0/16:*", "reject 10.0.0.0/8:*", "reject 172.16.0.0/12:*", "reject 4.21.160.8/29:*", "reject 18.0.0.0/11:*", "reject 38.97.116.0/24:*", "reject 128.30.0.0/15:*", "reject 128.52.0.0/16:*", "reject 128.128.0.0/16:*", "reject 129.55.0.0/16:*", "reject 192.12.11.0/24:*", "reject 192.52.61.0/24:*", "reject 192.52.62.0/24:*", "reject 192.52.63.0/24:*", "reject 192.52.64.0/24:*", "reject 192.52.65.0/24:*", "reject 192.52.66.0/24:*", "reject 192.54.222.0/24:*", "reject 192.233.95.0/24:*", "reject 198.125.160.0/22:*", "reject 198.125.176.0/20:*", "reject *:22", "reject *:25", "reject *:119", "reject *:135-139", "reject *:445", "reject *:563", "reject *:1214", "reject *:4661-4666", "reject *:6346-6429", "reject *:6699", "reject *:6881-6999", "accept *:*"], "ipv4_address": "38.97.116.244", "latitude": 42.3576, "longitude": -71.0514, "distance": 5608.878183399309}, {"nickname": "poiuty", "fingerprint": "F6740DEABFD5F62612FA025A5079EA72846B1F67", "or_addresses": ["46.4.20.30:443", "[2a01:4f8:221:39a2::2]:443"], "flags": ["Fast", "Guard", "HSDir", "Running", "Stable", "V2Dir", "Valid"], "country": "de", "consensus_weight": 130000, "observed_bandwidth": 106681321, "advertised_bandwidth": 106681321, "exit_policy": ["reject *:*"], "ipv4_address": "46.4.20.30", "latitude": 51.2993, "longitude": 9.491, "distance": 1099.7627743542018}, {"nickname": "chooThaineha", "fingerprint": "91892720F9262CB37B91A7176D3D2280F7AF14BE", "or_addresses": ["46.4.66.178:9001", "[2a01:4f8:140:2459::2]:9001"], "flags": ["Fast", "Guard", "HSDir", "Running", "Stable", "V2Dir", "Valid"], "country": "de", "consensus_weight": 150000, "observed_bandwidth": 103725458, "advertised_bandwidth": 103725458, "exit_policy": ["reject *:*"], "ipv4_address": "46.4.66.178", "latitude": 51.2993, "longitude": 9.491, "distance": 1099.7627743542018}, {"nickname": "StayStrongRelay01", "fingerprint": "ED9A731373456FA071C12A3E63E2C8BEF0A6E721", "or_addresses": ["162.55.91.19:443"], "flags": ["Fast", "Guard", "HSDir", "Running", "Stable", "V2Dir", "Valid"], "country": "de", "consensus_weight": 190000, "observed_bandwidth": 100093760, "advertised_bandwidth": 100093760, "exit_policy": ["reject *:*"], "ipv4_address": "162.55.91.19", "latitude": 51.2993, "longitude": 9.491, "distance": 1099.7627743542018}, {"nickname": "xor", "fingerprint": "CBCC85F335E20705F791CFC8685951C90E24134D", "or_addresses": ["185.56.83.83:9001", "[2a06:e80:3000:1:bad:babe:ca11:911]:9050"], "flags": ["Exit", "Fast", "Guard", "HSDir", "Running", "Stable", "V2Dir", "Valid"], "country": "ch", "consensus_weight": 140000, "observed_bandwidth": 96119165, "advertised_bandwidth": 96119165, "exit_policy": ["reject 0.0.0.0/8:*", "reject 169.254.0.0/16:*", "reject 127.0.0.0/8:*", "reject 192.168.0.0/16:*", "reject 10.0.0.0/8:*", "reject 172.16.0.0/12:*", "reject 185.56.83.83:*", "reject *:25", "reject *:119", "reject *:135-139", "reject *:445", "reject *:563", "reject *:1214", "reject *:4661-4666", "reject *:6346-6429", "reject *:6699", "reject *:6881-6999", "accept *:*"], "ipv4_address": "185.56.83.83", "latitude": -4.5833, "longitude": 55.6667, "distance": 8238.714737142012}, {"nickname": "0x90", "fingerprint": "EF25C1F9BEF8C4A3F2859493C7C8C5148725B4E7", "or_addresses": ["176.9.98.108:9001"], "flags": ["Fast", "Guard", "HSDir", "Running", "Stable", "V2Dir", "Valid"], "country": "de", "consensus_weight": 150000, "observed_bandwidth": 93586782, "advertised_bandwidth": 93586782, "exit_policy": ["reject *:*"], "ipv4_address": "176.9.98.108", "latitude": 51.2993, "longitude": 9.491, "distance": 1099.7627743542018}, {"nickname": "shhovh", "fingerprint": "39F096961ED2576975C866D450373A9913AFDC92", "or_addresses": ["198.50.191.95:443"], "flags": ["Fast", "Guard", "HSDir", "Running", "Stable", "V2Dir", "Valid"], "country": "ca", "consensus_weight": 250000, "observed_bandwidth": 90308126, "advertised_bandwidth": 90308126, "exit_policy": ["reject 0.0.0.0/8:*", "reject 169.254.0.0/16:*", "reject 127.0.0.0/8:*", "reject 192.168.0.0/16:*", "reject 10.0.0.0/8:*", "reject 172.16.0.0/12:*", "reject 198.50.191.95:*", "accept *:6660-6669", "accept *:6697", "accept *:7000", "accept *:9999", "reject *:*"], "ipv4_address": "198.50.191.95", "latitude": 43.6319, "longitude": -79.3716, "distance": 5911.682625331168}, {"nickname": "snousage", "fingerprint": "6EDC0A79B083ECCE0D1B797B101ED88EB3ED90D1", "or_addresses": ["141.95.146.50:443"], "flags": ["Fast", "Guard", "HSDir", "Running", "Stable", "V2Dir", "Valid"], "country": "fr", "consensus_weight": 120000, "observed_bandwidth": 89543377, "advertised_bandwidth": 89543377, "exit_policy": ["reject *:*"], "ipv4_address": "141.95.146.50", "latitude": 48.8582, "longitude": 2.3387, "distance": 1478.6913602924574}, {"nickname": "Kumquat", "fingerprint": "04102613D8F998E956A7868D2DE5A532EE2473EA", "or_addresses": ["207.244.78.230:443"], "flags": ["Fast", "Guard", "HSDir", "Running", "Stable", "V2Dir", "Valid"], "country": "us", "consensus_weight": 200000, "observed_bandwidth": 83950339, "advertised_bandwidth": 83950339, "exit_policy": ["reject *:*"], "ipv4_address": "207.244.78.230", "latitude": 39.6566, "longitude": -75.5661, "distance": 6077.395547683369}, {"nickname": "robinmixer", "fingerprint": "C23A35AB5BF3052B020883EC8CE25AB4382CA745", "or_addresses": ["51.81.72.213:9001"], "flags": ["Fast", "Guard", "HSDir", "Running", "Stable", "V2Dir", "Valid"], "country": "us", "consensus_weight": 260000, "observed_bandwidth": 82258408, "advertised_bandwidth": 82258408, "exit_policy": ["reject *:*"], "ipv4_address": "51.81.72.213", "latitude": 37.751, "longitude": -97.822, "distance": 7313.814090698954}, {"nickname": "Vulnerar", "fingerprint": "1B7F47827E2FFAFE05B92B1C5A92B8F9A4AF67DD", "or_addresses": ["157.90.179.103:8001"], "flags": ["Fast", "Guard", "HSDir", "Running", "Stable", "V2Dir", "Valid"], "country": "de", "consensus_weight": 140000, "observed_bandwidth": 80819620, "advertised_bandwidth": 80819620, "exit_policy": ["reject *:*"], "ipv4_address": "157.90.179.103", "latitude": 51.2993, "longitude": 9.491, "distance": 1099.7627743542018}, {"nickname": "Cornball", "fingerprint": "1F2FC2214D63A90926D0A6837896F84A16F4DB60", "or_addresses": ["198.244.212.57:443"], "flags": ["Fast", "Guard", "HSDir", "Running", "Stable", "V2Dir", "Valid"], "country": "gb", "consensus_weight": 110000, "observed_bandwidth": 79712339, "advertised_bandwidth": 79712339, "exit_policy": ["reject *:*"], "ipv4_address": "198.244.212.57", "latitude": 51.5095, "longitude": -0.0955, "distance": 1278.9103134648597}, {"nickname": "NixOS", "fingerprint": "9EEE861CD8A5FE26A1F276879323172F5B91082C", "or_addresses": ["176.9.161.22:443"], "flags": ["Fast", "Guard", "HSDir", "Running", "Stable", "V2Dir", "Valid"], "country": "de", "consensus_weight": 120000, "observed_bandwidth": 79521586, "advertised_bandwidth": 79521586, "exit_policy": ["reject *:*"], "ipv4_address": "176.9.161.22", "latitude": 51.2993, "longitude": 9.491, "distance": 1099.7627743542018}, {"nickname": "8rijgto8", "fingerprint": "8404E8B8AAB98208FAEFB1727B637133AD9C6FAF", "or_addresses": ["66.206.0.82:9001"], "flags": ["Fast", "Guard", "HSDir", "Running", "Stable", "V2Dir", "Valid"], "country": "us", "consensus_weight": 200000, "observed_bandwidth": 79137253, "advertised_bandwidth": 79137253, "exit_policy": ["reject *:*"], "ipv4_address": "66.206.0.82", "latitude": 40.6063, "longitude": -74.1774, "distance": 5922.190408288835}, {"nickname": "Unnamed", "fingerprint": "EE2A621042994B29452C12FF3B6F62D9E957758C", "or_addresses": ["145.239.41.102:9001"], "flags": ["Fast", "Guard", "HSDir", "Running", "Stable", "V2Dir", "Valid"], "country": "fr", "consensus_weight": 100000, "observed_bandwidth": 77689615, "advertised_bandwidth": 77689615, "exit_policy": ["reject *:*"], "ipv4_address": "145.239.41.102", "latitude": 48.8582, "longitude": 2.3387, "distance": 1478.6913602924574}, {"nickname": "moosegrease", "fingerprint": "89999C2F1D64A4620FC0CD601FC44C5F8E736286", "or_addresses": ["15.204.142.37:443"], "flags": ["Fast", "Guard", "HSDir", "Running", "Stable", "V2Dir", "Valid"], "country": "us", "consensus_weight": 260000, "observed_bandwidth": 75933841, "advertised_bandwidth": 75933841, "exit_policy": ["reject *:*"], "ipv4_address": "15.204.142.37", "latitude": 38.9609, "longitude": -77.3429, "distance": 6229.769869741755}, {"nickname": "blix", "fingerprint": "BD2BC415D5D8AE3C34430E70EC82CF3B0C61BDDF", "or_addresses": ["185.177.126.118:443"], "flags": ["Fast", "Guard", "Running", "Stable", "V2Dir", "Valid"], "country": "nl", "consensus_weight": 110000, "observed_bandwidth": 75295744, "advertised_bandwidth": 75295744, "exit_policy": ["reject *:*"], "ipv4_address": "185.177.126.118", "latitude": 51.9934, "longitude": 4.2158, "distance": 1105.5528981331706}, {"nickname": "MIGHTYWANG", "fingerprint": "9B2BC7EFD661072AFADC533BE8DCF1C19D8C2DCC", "or_addresses": ["188.127.69.60:443", "[2a02:29d0:8008:c0de:bad:beef::]:443"], "flags": ["Fast", "Guard", "HSDir", "Running", "Stable", "V2Dir", "Valid"], "country": "gb", "consensus_weight": 110000, "observed_bandwidth": 75227738, "advertised_bandwidth": 75227738, "exit_policy": ["reject *:*"], "ipv4_address": "188.127.69.60", "latitude": 51.1398, "longitude": -0.1206, "distance": 1315.9191864511429}, {"nickname": "daeyang", "fingerprint": "A1F0CE79654498732F100925230BE9E4801DFBBC", "or_addresses": ["172.106.112.250:443"], "flags": ["Fast", "Guard", "HSDir", "Running", "Stable", "V2Dir", "Valid"], "country": "us", "consensus_weight": 200000, "observed_bandwidth": 74969529, "advertised_bandwidth": 74969529, "exit_policy": ["reject *:*"], "ipv4_address": "172.106.112.250", "latitude": 39.018, "longitude": -77.539, "distance": 6234.472751018612}, {"nickname": "m4rs", "fingerprint": "4B7F4885DC18018C0B870DD7D8415E265099C187", "or_addresses": ["142.132.204.112:4443", "[2a01:4f8:261:5099::2]:4443"], "flags": ["Fast", "Guard", "HSDir", "Running", "Stable", "V2Dir", "Valid"], "country": "de", "consensus_weight": 90000, "observed_bandwidth": 73771028, "advertised_bandwidth": 73771028, "exit_policy": ["reject *:*"], "ipv4_address": "142.132.204.112", "latitude": 51.2993, "longitude": 9.491, "distance": 1099.7627743542018}, {"nickname": "antifaang", "fingerprint": "BFC4044119080D8BEE70218978EE83C3FC16AE7A", "or_addresses": ["78.46.123.26:8443", "[2a01:4f8:190:62d9::2]:8443"], "flags": ["Fast", "Guard", "HSDir", "Running", "Stable", "V2Dir", "Valid"], "country": "de", "consensus_weight": 110000, "observed_bandwidth": 73224483, "advertised_bandwidth": 73224483, "exit_policy": ["reject *:*"], "ipv4_address": "78.46.123.26", "latitude": 51.2993, "longitude": 9.491, "distance": 1099.7627743542018}, {"nickname": "ElonTusk", "fingerprint": "50B7C4F6C18A3E5FC1D4E2ECE6B7B316B29FB26C", "or_addresses": ["94.130.142.182:8443", "[2a01:4f8:13b:2dab::2]:8443"], "flags": ["Fast", "Guard", "HSDir", "Running", "Stable", "V2Dir", "Valid"], "country": "de", "consensus_weight": 94000, "observed_bandwidth": 71584639, "advertised_bandwidth": 71584639, "exit_policy": ["reject *:*"], "ipv4_address": "94.130.142.182", "latitude": 51.2993, "longitude": 9.491, "distance": 1099.7627743542018}, {"nickname": "Unnamed", "fingerprint": "3A04AC8969E55DF51C8D11C49ABF18A0CC847FC0", "or_addresses": ["145.239.41.102:9100"], "flags": ["Fast", "Guard", "HSDir", "Running", "Stable", "V2Dir", "Valid"], "country": "fr", "consensus_weight": 91000, "observed_bandwidth": 71205557, "advertised_bandwidth": 71205557, "exit_policy": ["reject *:*"], "ipv4_address": "145.239.41.102", "latitude": 48.8582, "longitude": 2.3387, "distance": 1478.6913602924574}, {"nickname": "bituman", "fingerprint": "431702B3A68A6015F9955DD4FD0129175B43EA0F", "or_addresses": ["45.132.246.38:9001", "[2a03:4000:48:182:74dd:c1ff:fea8:d21e]:9001"], "flags": ["Fast", "Guard", "HSDir", "Running", "Stable", "V2Dir", "Valid"], "country": "de", "consensus_weight": 73000, "observed_bandwidth": 70552681, "advertised_bandwidth": 70552681, "exit_policy": ["reject *:*"], "ipv4_address": "45.132.246.38", "latitude": 51.2993, "longitude": 9.491, "distance": 1099.7627743542018}, {"nickname": "webkult", "fingerprint": "CE9003208A047960246052C604A213C3BF096F61", "or_addresses": ["144.76.219.195:9001", "[2a01:4f8:200:92c2::2]:9001"], "flags": ["Fast", "Guard", "HSDir", "Running", "Stable", "V2Dir", "Valid"], "country": "de", "consensus_weight": 110000, "observed_bandwidth": 69230576, "advertised_bandwidth": 69230576, "exit_policy": ["reject *:*"], "ipv4_address": "144.76.219.195", "latitude": 51.2993, "longitude": 9.491, "distance": 1099.7627743542018}, {"nickname": "sklep", "fingerprint": "F72AF9F63CD443B2CC7FEB8552EC588EF1992F0A", "or_addresses": ["95.216.22.24:9090", "[2a01:4f9:2a:164a::2]:9090"], "flags": ["Fast", "Guard", "HSDir", "Running", "Stable", "V2Dir", "Valid"], "country": "fi", "consensus_weight": 78000, "observed_bandwidth": 69144700, "advertised_bandwidth": 69144700, "exit_policy": ["reject *:*"], "ipv4_address": "95.216.22.24", "latitude": 60.1719, "longitude": 24.9347, "distance": 745.6799838645395}, {"nickname": "D4rkKn1gh7", "fingerprint": "CA1684516B7FECF3DB76D43FD02F56D8B95E8A69", "or_addresses": ["142.132.157.35:8443", "[2a01:4f8:261:2ced::2]:8443"], "flags": ["Fast", "Guard", "HSDir", "Running", "Stable", "V2Dir", "Valid"], "country": "de", "consensus_weight": 89000, "observed_bandwidth": 68168201, "advertised_bandwidth": 68168201, "exit_policy": ["reject *:*"], "ipv4_address": "142.132.157.35", "latitude": 50.4777, "longitude": 12.3649, "distance": 1186.6886353851216}, {"nickname": "oOoOoOo", "fingerprint": "920FF090D8A853946E407241916F6CAE890BF625", "or_addresses": ["89.39.104.175:8443"], "flags": ["Fast", "Guard", "HSDir", "Running", "Stable", "V2Dir", "Valid"], "country": "nl", "consensus_weight": 92000, "observed_bandwidth": 67893850, "advertised_bandwidth": 67893850, "exit_policy": ["reject *:*"], "ipv4_address": "89.39.104.175", "latitude": 51.9934, "longitude": 4.2158, "distance": 1105.5528981331706}, {"nickname": "4mnesia", "fingerprint": "9BD0EE79BB9878DD6D8D8EA2A288D5E301E5C136", "or_addresses": ["88.99.2.111:9001", "[2a01:4f8:173:2953::2]:9001"], "flags": ["Fast", "Guard", "HSDir", "Running", "Stable", "V2Dir", "Valid"], "country": "de", "consensus_weight": 110000, "observed_bandwidth": 67741731, "advertised_bandwidth": 67741731, "exit_policy": ["reject *:*"], "ipv4_address": "88.99.2.111", "latitude": 51.2993, "longitude": 9.491, "distance": 1099.7627743542018}, {"nickname": "Unnamed", "fingerprint": "FC2C8BCCD8313004F8623FBF62ADD044105DE429", "or_addresses": ["94.130.53.211:443"], "flags": ["Fast", "Guard", "HSDir", "Running", "Stable", "V2Dir", "Valid"], "country": "de", "consensus_weight": 88000, "observed_bandwidth": 67416064, "advertised_bandwidth": 67416064, "exit_policy": ["reject *:*"], "ipv4_address": "94.130.53.211", "latitude": 51.2993, "longitude": 9.491, "distance": 1099.7627743542018}, {"nickname": "chaosDelroth", "fingerprint": "DD0C8EEC5CA402A9FA4478F10C31A440F71F6885", "or_addresses": ["195.201.9.37:143"], "flags": ["Fast", "Guard", "HSDir", "Running", "Stable", "V2Dir", "Valid"], "country": "de", "consensus_weight": 86000, "observed_bandwidth": 67191203, "advertised_bandwidth": 67191203, "exit_policy": ["reject *:*"], "ipv4_address": "195.201.9.37", "latitude": 49.1156, "longitude": 10.7511, "distance": 1337.171538168562}, {"nickname": "Unnamed", "fingerprint": "A0E3BE25F816068DE049C2D47E20942914744E90", "or_addresses": ["144.76.199.183:9002", "[2a01:4f8:200:80b6::2]:9002"], "flags": ["Fast", "Guard", "HSDir", "Running", "Stable", "V2Dir", "Valid"], "country": "de", "consensus_weight": 94000, "observed_bandwidth": 66973405, "advertised_bandwidth": 66973405, "exit_policy": ["reject *:*"], "ipv4_address": "144.76.199.183", "latitude": 51.2993, "longitude": 9.491, "distance": 1099.7627743542018}, {"nickname": "sutsuj", "fingerprint": "CC701FCE86D6AF95FC3D5B71645D3430794910C1", "or_addresses": ["157.90.183.103:9001"], "flags": ["Fast", "Guard", "HSDir", "Running", "Stable", "V2Dir", "Valid"], "country": "de", "consensus_weight": 82000, "observed_bandwidth": 66919801, "advertised_bandwidth": 65536000, "exit_policy": ["reject *:*"], "ipv4_address": "157.90.183.103", "latitude": 51.2993, "longitude": 9.491, "distance": 1099.7627743542018}, {"nickname": "portugesecartel", "fingerprint": "427526EBD012CFE50FCFFCBFE221EFFE199AFA8C", "or_addresses": ["88.99.94.231:4443", "[2a01:4f8:10a:1f06::2]:4443"], "flags": ["Fast", "Guard", "HSDir", "Running", "Stable", "V2Dir", "Valid"], "country": "de", "consensus_weight": 97000, "observed_bandwidth": 66195159, "advertised_bandwidth": 66195159, "exit_policy": ["reject *:*"], "ipv4_address": "88.99.94.231", "latitude": 51.2993, "longitude": 9.491, "distance": 1099.7627743542018}, {"nickname": "lw", "fingerprint": "FD449127D30D8F5D124653D9EF736EDF4A12B4DC", "or_addresses": ["77.174.62.158:43261", "[2a02:a468:8d92:1::baf]:43261"], "flags": ["Fast", "Guard", "HSDir", "Running", "Stable", "V2Dir", "Valid"], "country": "nl", "consensus_weight": 97000, "observed_bandwidth": 66018375, "advertised_bandwidth": 66018375, "exit_policy": ["reject *:*"], "ipv4_address": "77.174.62.158", "latitude": 52.1008, "longitude": 4.3255, "distance": 1091.742248109003}, {"nickname": "chonk", "fingerprint": "4561FC085C3F3A7271FE960317F02DCD1E9C1188", "or_addresses": ["66.206.0.138:443"], "flags": ["Fast", "Guard", "HSDir", "Running", "Stable", "V2Dir", "Valid"], "country": "us", "consensus_weight": 170000, "observed_bandwidth": 65871520, "advertised_bandwidth": 65871520, "exit_policy": ["reject *:*"], "ipv4_address": "66.206.0.138", "latitude": 40.6063, "longitude": -74.1774, "distance": 5922.190408288835}, {"nickname": "spicyavocado", "fingerprint": "6CBA90E31188A65E2B6AC1EE8412E8DE571ECAD6", "or_addresses": ["142.132.204.165:4080", "[2a01:4f8:261:50da::2]:4080"], "flags": ["Fast", "Guard", "HSDir", "Running", "Stable", "V2Dir", "Valid"], "country": "de", "consensus_weight": 84000, "observed_bandwidth": 65413126, "advertised_bandwidth": 65413126, "exit_policy": ["reject *:*"], "ipv4_address": "142.132.204.165", "latitude": 51.2993, "longitude": 9.491, "distance": 1099.7627743542018}, {"nickname": "lancelot", "fingerprint": "0C36AE99B744E32088C9ED23D7A31F8D23AE1A58", "or_addresses": ["95.216.13.120:8000", "[2a01:4f9:2a:d96::2]:8000"], "flags": ["Fast", "Guard", "HSDir", "Running", "Stable", "V2Dir", "Valid"], "country": "fi", "consensus_weight": 70000, "observed_bandwidth": 64949377, "advertised_bandwidth": 64949377, "exit_policy": ["reject *:*"], "ipv4_address": "95.216.13.120", "latitude": 60.1719, "longitude": 24.9347, "distance": 745.6799838645395}, {"nickname": "trash1", "fingerprint": "EEDB9FEFC9165F9B41B515A282F95A574A807FBA", "or_addresses": ["51.81.56.195:443"], "flags": ["Fast", "Guard", "HSDir", "Running", "Stable", "V2Dir", "Valid"], "country": "us", "consensus_weight": 160000, "observed_bandwidth": 64847835, "advertised_bandwidth": 64847835, "exit_policy": ["reject *:*"], "ipv4_address": "51.81.56.195", "latitude": 38.719, "longitude": -77.7416, "distance": 6271.736654079693}, {"nickname": "arbertDelroth", "fingerprint": "0432BEE829FCB155CE92CF418B7280F9849E12D0", "or_addresses": ["77.109.152.11:143"], "flags": ["Fast", "Guard", "HSDir", "Running", "Stable", "V2Dir", "Valid"], "country": "ch", "consensus_weight": 110000, "observed_bandwidth": 64472964, "advertised_bandwidth": 64472964, "exit_policy": ["reject *:*"], "ipv4_address": "77.109.152.11", "latitude": 47.3604, "longitude": 8.5388, "distance": 1542.4972514776778}, {"nickname": "z0rb4l2", "fingerprint": "4FFE84056F9CBAEC8D67E55107FA8FF1B638FA89", "or_addresses": ["148.251.11.21:443"], "flags": ["Fast", "Guard", "HSDir", "Running", "Stable", "V2Dir", "Valid"], "country": "de", "consensus_weight": 96000, "observed_bandwidth": 64413823, "advertised_bandwidth": 64413823, "exit_policy": ["reject *:*"], "ipv4_address": "148.251.11.21", "latitude": 51.9568, "longitude": 11.7187, "distance": 1020.7963869799818}, {"nickname": "Peabody", "fingerprint": "D8F4634366466972842F5102FE44738326E43DF0", "or_addresses": ["88.99.145.25:9993", "[2a01:4f8:10a:295e::2]:9993"], "flags": ["Fast", "Guard", "HSDir", "Running", "Stable", "V2Dir", "Valid"], "country": "de", "consensus_weight": 100000, "observed_bandwidth": 64099294, "advertised_bandwidth": 64099294, "exit_policy": ["reject *:*"], "ipv4_address": "88.99.145.25", "latitude": 51.2993, "longitude": 9.491, "distance": 1099.7627743542018}, {"nickname": "ChumBucket", "fingerprint": "00DA4A3852EA5EF6841B8B4372DB0EFD3AB0BE92", "or_addresses": ["5.9.56.249:4080", "[2a01:4f8:161:52cb::2]:4080"], "flags": ["Fast", "Guard", "HSDir", "Running", "Stable", "V2Dir", "Valid"], "country": "de", "consensus_weight": 76000, "observed_bandwidth": 63933004, "advertised_bandwidth": 63933004, "exit_policy": ["reject *:*"], "ipv4_address": "5.9.56.249", "latitude": 49.9686, "longitude": 8.0641, "distance": 1258.6382303818139}, {"nickname": "peacemarauder", "fingerprint": "B17565B56DA028F45ABEC5EAB31F01675B26241F", "or_addresses": ["144.76.199.183:9001", "[2a01:4f8:200:80b6::2]:9001"], "flags": ["Fast", "Guard", "HSDir", "Running", "Stable", "V2Dir", "Valid"], "country": "de", "consensus_weight": 110000, "observed_bandwidth": 63845786, "advertised_bandwidth": 63845786, "exit_policy": ["reject *:*"], "ipv4_address": "144.76.199.183", "latitude": 51.2993, "longitude": 9.491, "distance": 1099.7627743542018}, {"nickname": "LupusreginaBeta", "fingerprint": "BF50E09EED25B82861CF95E1AAA42DCFEF53E5D1", "or_addresses": ["213.113.6.230:6881"], "flags": ["Fast", "Guard", "HSDir", "Running", "Stable", "V2Dir", "Valid"], "country": "se", "consensus_weight": 82000, "observed_bandwidth": 63486550, "advertised_bandwidth": 63486550, "exit_policy": ["reject *:*"], "ipv4_address": "213.113.6.230", "latitude": 59.6146, "longitude": 16.5528, "distance": 331.01041191965015}, {"nickname": "fuckfbi", "fingerprint": "67A54EDB7DADDBBC1E8A07F1EF82364BDAA896B7", "or_addresses": ["148.251.51.34:9993", "[2a01:4f8:202:1139::2]:9993"], "flags": ["Fast", "Guard", "HSDir", "Running", "Stable", "V2Dir", "Valid"], "country": "de", "consensus_weight": 100000, "observed_bandwidth": 63134809, "advertised_bandwidth": 63134809, "exit_policy": ["reject *:*"], "ipv4_address": "148.251.51.34", "latitude": 51.2993, "longitude": 9.491, "distance": 1099.7627743542018}, {"nickname": "Silverwing", "fingerprint": "E7EF73B4722CFAF0E8AA2151D3AA78701DE5F19B", "or_addresses": ["178.254.22.21:443"], "flags": ["Fast", "Guard", "HSDir", "Running", "Stable", "V2Dir", "Valid"], "country": "de", "consensus_weight": 89000, "observed_bandwidth": 62996169, "advertised_bandwidth": 62996169, "exit_policy": ["reject *:*"], "ipv4_address": "178.254.22.21", "latitude": 51.2993, "longitude": 9.491, "distance": 1099.7627743542018}, {"nickname": "0xdeadbeef", "fingerprint": "2717355D1ED1C421E3F8930F721BF2FDABA35CDA", "or_addresses": ["95.216.72.20:9001"], "flags": ["Fast", "Guard", "Running", "Stable", "V2Dir", "Valid"], "country": "fi", "consensus_weight": 85000, "observed_bandwidth": 62440448, "advertised_bandwidth": 62440448, "exit_policy": ["reject *:*"], "ipv4_address": "95.216.72.20", "latitude": 60.1719, "longitude": 24.9347, "distance": 745.6799838645395}, {"nickname": "privator", "fingerprint": "62AFE393020CC3AA3AA30CA78902F5D40E760926", "or_addresses": ["217.160.49.126:443"], "flags": ["Fast", "Guard", "HSDir", "Running", "Stable", "V2Dir", "Valid"], "country": "de", "consensus_weight": 67000, "observed_bandwidth": 62114848, "advertised_bandwidth": 62114848, "exit_policy": ["reject *:*"], "ipv4_address": "217.160.49.126", "latitude": 51.2993, "longitude": 9.491, "distance": 1099.7627743542018}, {"nickname": "setsun", "fingerprint": "2AA5F598F9A1812F01CD99E3B59BB87362ED7438", "or_addresses": ["144.76.200.80:9001"], "flags": ["Fast", "Guard", "HSDir", "Running", "Stable", "V2Dir", "Valid"], "country": "de", "consensus_weight": 83000, "observed_bandwidth": 61905240, "advertised_bandwidth": 61905240, "exit_policy": ["reject *:*"], "ipv4_address": "144.76.200.80", "latitude": 51.2993, "longitude": 9.491, "distance": 1099.7627743542018}, {"nickname": "willwallace", "fingerprint": "E04861C32098EF38D6BB2AEFEC81095953FEF0ED", "or_addresses": ["95.217.72.151:9002", "[2a01:4f9:4a:1812::2]:9002"], "flags": ["Fast", "Guard", "HSDir", "Running", "Stable", "V2Dir", "Valid"], "country": "fi", "consensus_weight": 73000, "observed_bandwidth": 61900310, "advertised_bandwidth": 61900310, "exit_policy": ["reject *:*"], "ipv4_address": "95.217.72.151", "latitude": 60.1719, "longitude": 24.9347, "distance": 745.6799838645395}, {"nickname": "striga", "fingerprint": "C00C926124C9DCC6647964931B56BD874B931E8D", "or_addresses": ["38.154.239.242:443"], "flags": ["Fast", "Guard", "HSDir", "Running", "Stable", "V2Dir", "Valid"], "country": "us", "consensus_weight": 140000, "observed_bandwidth": 61856918, "advertised_bandwidth": 61856918, "exit_policy": ["reject *:*"], "ipv4_address": "38.154.239.242", "latitude": 40.5511, "longitude": -74.4606, "distance": 5941.461473518861}, {"nickname": "bruxa", "fingerprint": "0C5CFD7CC30251555AC3A8B2F87E523430477FB1", "or_addresses": ["38.154.239.250:443"], "flags": ["Fast", "Guard", "HSDir", "Running", "Stable", "V2Dir", "Valid"], "country": "us", "consensus_weight": 170000, "observed_bandwidth": 61837371, "advertised_bandwidth": 61837371, "exit_policy": ["reject *:*"], "ipv4_address": "38.154.239.250", "latitude": 40.5511, "longitude": -74.4606, "distance": 5941.461473518861}, {"nickname": "churrodawg", "fingerprint": "AC7C88D67339B90F2C10FF7B702DCB1EF3B8D663", "or_addresses": ["138.201.196.252:9993", "[2a01:4f8:172:3e99::2]:9993"], "flags": ["Fast", "Guard", "HSDir", "Running", "Stable", "V2Dir", "Valid"], "country": "de", "consensus_weight": 84000, "observed_bandwidth": 61788136, "advertised_bandwidth": 61788136, "exit_policy": ["reject *:*"], "ipv4_address": "138.201.196.252", "latitude": 52.1977, "longitude": 5.9587, "distance": 1046.5439421944911}, {"nickname": "dotsrcRelay2", "fingerprint": "AC7C0F9D57DADAD5D8F4568EE1543EF3E22A47CE", "or_addresses": ["130.225.244.90:9001", "[2001:878:346:1cf9:446a:c4eb:4548:7062]:9001"], "flags": ["Fast", "Guard", "HSDir", "Running", "Stable", "V2Dir", "Valid"], "country": "dk", "consensus_weight": 94000, "observed_bandwidth": 61717011, "advertised_bandwidth": 61717011, "exit_policy": ["reject *:*"], "ipv4_address": "130.225.244.90", "latitude": 55.6802, "longitude": 12.5892, "distance": 610.5338234178643}, {"nickname": "ENiGMA", "fingerprint": "42B4F52C5B11E4D39855F654955425B0D5A0598B", "or_addresses": ["5.9.121.207:443"], "flags": ["Fast", "Guard", "HSDir", "Running", "Stable", "V2Dir", "Valid"], "country": "de", "consensus_weight": 93000, "observed_bandwidth": 61353596, "advertised_bandwidth": 61353596, "exit_policy": ["reject *:*"], "ipv4_address": "5.9.121.207", "latitude": 51.2993, "longitude": 9.491, "distance": 1099.7627743542018}, {"nickname": "cupcake", "fingerprint": "5783B5EDC8F4E84FA04E6E5E249A03F271BB35C3", "or_addresses": ["131.153.152.146:443"], "flags": ["Fast", "Guard", "HSDir", "Running", "Stable", "V2Dir", "Valid"], "country": "us", "consensus_weight": 140000, "observed_bandwidth": 61225314, "advertised_bandwidth": 61225314, "exit_policy": ["reject *:*"], "ipv4_address": "131.153.152.146", "latitude": 37.751, "longitude": -97.822, "distance": 7313.814090698954}, {"nickname": "privaterII", "fingerprint": "BB2F9504B41CE4DF1BE3EA22A8A1853CA774BA36", "or_addresses": ["135.181.213.167:9100", "[2a01:4f9:3a:2b96::2]:9100"], "flags": ["Fast", "Guard", "HSDir", "Running", "Stable", "V2Dir", "Valid"], "country": "fi", "consensus_weight": 89000, "observed_bandwidth": 61136980, "advertised_bandwidth": 61136980, "exit_policy": ["reject *:*"], "ipv4_address": "135.181.213.167", "latitude": 60.1719, "longitude": 24.9347, "distance": 745.6799838645395}, {"nickname": "scarlet", "fingerprint": "4E8E8AE29D1200DBE3148295C4C0C3CC68C49549", "or_addresses": ["172.106.200.150:443"], "flags": ["Fast", "Guard", "HSDir", "Running", "Stable", "V2Dir", "Valid"], "country": "us", "consensus_weight": 150000, "observed_bandwidth": 61064410, "advertised_bandwidth": 61064410, "exit_policy": ["reject *:*"], "ipv4_address": "172.106.200.150", "latitude": 38.9258, "longitude": -77.3939, "distance": 6235.512476979818}, {"nickname": "pablito", "fingerprint": "DAE65AD32A074CECB30AD3FBB7504F0CDC616CD1", "or_addresses": ["213.239.213.220:8000", "[2a01:4f8:a0:8070::2]:8000"], "flags": ["Fast", "Guard", "HSDir", "Running", "Stable", "V2Dir", "Valid"], "country": "de", "consensus_weight": 74000, "observed_bandwidth": 60406590, "advertised_bandwidth": 60406590, "exit_policy": ["reject *:*"], "ipv4_address": "213.239.213.220", "latitude": 51.2993, "longitude": 9.491, "distance": 1099.7627743542018}, {"nickname": "kikimora", "fingerprint": "5CDEC940C15EA7DABBFA8F58CD8945B875DA80C6", "or_addresses": ["38.154.240.58:443"], "flags": ["Fast", "Guard", "HSDir", "Running", "Stable", "V2Dir", "Valid"], "country": "us", "consensus_weight": 150000, "observed_bandwidth": 60159535, "advertised_bandwidth": 60159535, "exit_policy": ["reject *:*"], "ipv4_address": "38.154.240.58", "latitude": 40.5511, "longitude": -74.4606, "distance": 5941.461473518861}, {"nickname": "sn0rlax", "fingerprint": "5C386C4F91FD616F0F60F4E6D674D9E3F192C931", "or_addresses": ["176.9.85.41:8080", "[2a01:4f8:151:2324::2]:8080"], "flags": ["Fast", "Guard", "HSDir", "Running", "Stable", "V2Dir", "Valid"], "country": "de", "consensus_weight": 100000, "observed_bandwidth": 60123007, "advertised_bandwidth": 60123007, "exit_policy": ["reject *:*"], "ipv4_address": "176.9.85.41", "latitude": 51.2993, "longitude": 9.491, "distance": 1099.7627743542018}, {"nickname": "Unnamed", "fingerprint": "E4B0D0ABF76FAEBC0C95E9363A75A6F0CA0F5E10", "or_addresses": ["116.202.169.30:8080"], "flags": ["Fast", "Guard", "HSDir", "Running", "Stable", "V2Dir", "Valid"], "country": "de", "consensus_weight": 100000, "observed_bandwidth": 59845299, "advertised_bandwidth": 59845299, "exit_policy": ["reject *:*"], "ipv4_address": "116.202.169.30", "latitude": 51.2993, "longitude": 9.491, "distance": 1099.7627743542018}, {"nickname": "PWKR", "fingerprint": "5F3B05B9A5575E614337AFA84DF04F526CD14C1B", "or_addresses": ["95.216.96.44:4443", "[2a01:4f9:2b:f53::2]:4443"], "flags": ["Fast", "Guard", "HSDir", "Running", "Stable", "V2Dir", "Valid"], "country": "fi", "consensus_weight": 71000, "observed_bandwidth": 59655042, "advertised_bandwidth": 59655042, "exit_policy": ["reject *:*"], "ipv4_address": "95.216.96.44", "latitude": 60.1719, "longitude": 24.9347, "distance": 745.6799838645395}, {"nickname": "operator", "fingerprint": "82A4BD0933B59E5A6F94BEA01A8EF55ABC031725", "or_addresses": ["148.251.237.219:443", "[2a01:4f8:202:80ed::2]:443"], "flags": ["Fast", "Guard", "HSDir", "Running", "Stable", "V2Dir", "Valid"], "country": "de", "consensus_weight": 100000, "observed_bandwidth": 59614575, "advertised_bandwidth": 59614575, "exit_policy": ["reject *:*"], "ipv4_address": "148.251.237.219", "latitude": 51.2993, "longitude": 9.491, "distance": 1099.7627743542018}, {"nickname": "lizzie01", "fingerprint": "0165267F20391424CE5AEA316A7C6372C0EEF198", "or_addresses": ["51.89.153.112:9001", "[2001:41d0:800:1f70::]:9001"], "flags": ["Exit", "Fast", "Guard", "HSDir", "Running", "Stable", "V2Dir", "Valid"], "country": "gb", "consensus_weight": 96000, "observed_bandwidth": 59027852, "advertised_bandwidth": 59027852, "exit_policy": ["reject 0.0.0.0/8:*", "reject 169.254.0.0/16:*", "reject 127.0.0.0/8:*", "reject 192.168.0.0/16:*", "reject 10.0.0.0/8:*", "reject 172.16.0.0/12:*", "reject 51.89.153.112:*", "reject *:25", "reject *:119", "reject *:135-139", "reject *:445", "reject *:563", "reject *:1214", "reject *:4661-4666", "reject *:6346-6429", "reject *:6699", "reject *:6881-6999", "accept *:*"], "ipv4_address": "51.89.153.112", "latitude": 51.5095, "longitude": -0.0955, "distance": 1278.9103134648597}, {"nickname": "Sol", "fingerprint": "F5612A75455800DCD427C8FD919EF5CCE1D51952", "or_addresses": ["51.81.93.109:443"], "flags": ["Fast", "Guard", "HSDir", "Running", "Stable", "V2Dir", "Valid"], "country": "us", "consensus_weight": 170000, "observed_bandwidth": 58926680, "advertised_bandwidth": 58926680, "exit_policy": ["reject *:*"], "ipv4_address": "51.81.93.109", "latitude": 38.6583, "longitude": -77.2481, "distance": 6252.3761554801895}, {"nickname": "sc1ptk1dd13", "fingerprint": "AE5BFD2CFA3FEF7B91067BE1FCB20B62CD3B6BE2", "or_addresses": ["95.216.5.245:8080", "[2a01:4f9:2a:60a::2]:8080"], "flags": ["Fast", "Guard", "HSDir", "Running", "Stable", "V2Dir", "Valid"], "country": "fi", "consensus_weight": 73000, "observed_bandwidth": 58905370, "advertised_bandwidth": 58905370, "exit_policy": ["reject *:*"], "ipv4_address": "95.216.5.245", "latitude": 60.1719, "longitude": 24.9347, "distance": 745.6799838645395}, {"nickname": "torrelaymirror", "fingerprint": "58F3E2956EABB81F673E2FB90E16E001DB4AC3AE", "or_addresses": ["85.195.230.249:9001", "[2a02:168:ae0d:99::1111]:9001"], "flags": ["Fast", "Guard", "HSDir", "Running", "Stable", "V2Dir", "Valid"], "country": "ch", "consensus_weight": 76000, "observed_bandwidth": 58837387, "advertised_bandwidth": 58837387, "exit_policy": ["reject *:*"], "ipv4_address": "85.195.230.249", "latitude": 46.9294, "longitude": 7.4203, "distance": 1600.004469144622}, {"nickname": "tournament", "fingerprint": "A2C85DB6C3D64D7178D24848FD8A0E59347F2E6D", "or_addresses": ["74.123.98.18:443"], "flags": ["Fast", "Guard", "HSDir", "Running", "Stable", "V2Dir", "Valid"], "country": "us", "consensus_weight": 110000, "observed_bandwidth": 58655965, "advertised_bandwidth": 58655965, "exit_policy": ["reject *:*"], "ipv4_address": "74.123.98.18", "latitude": 25.7806, "longitude": -80.1826, "distance": 7601.505949205354}, {"nickname": "Hydra91a", "fingerprint": "AEC8D545DDEDC0311FA7F9F9A885D674D1F1C2FF", "or_addresses": ["185.125.171.101:9001", "[2a03:94e0:ffff:185:125:171:0:101]:9001"], "flags": ["Fast", "Guard", "HSDir", "Running", "Stable", "V2Dir", "Valid"], "country": "no", "consensus_weight": 82000, "observed_bandwidth": 58378598, "advertised_bandwidth": 58378598, "exit_policy": ["reject *:*"], "ipv4_address": "185.125.171.101", "latitude": 59.1728, "longitude": 10.2221, "distance": 227.03461387303517}, {"nickname": "sonrisas", "fingerprint": "32742AD57C3D243DA0713BB6DFD82118DF573D2E", "or_addresses": ["15.204.141.95:8080"], "flags": ["Fast", "Guard", "HSDir", "Running", "Stable", "V2Dir", "Valid"], "country": "us", "consensus_weight": 150000, "observed_bandwidth": 58325352, "advertised_bandwidth": 58325352, "exit_policy": ["reject *:*"], "ipv4_address": "15.204.141.95", "latitude": 38.9609, "longitude": -77.3429, "distance": 6229.769869741755}, {"nickname": "Hydra94a", "fingerprint": "61866162CCDFE651B0D76AA57ECA90B9CC7C80DD", "or_addresses": ["198.140.141.30:9001", "[2a03:94e3:ffff:198:140:141:0:30]:9001"], "flags": ["Fast", "Guard", "HSDir", "Running", "Stable", "V2Dir", "Valid"], "country": "nl", "consensus_weight": 88000, "observed_bandwidth": 58081024, "advertised_bandwidth": 58081024, "exit_policy": ["reject *:*"], "ipv4_address": "198.140.141.30", "latitude": 52.3759, "longitude": 4.8975, "distance": 1049.7241763614602}, {"nickname": "DTFNODE01", "fingerprint": "CA45F54BD5C2158EE2E64C9433585EDC84B0E142", "or_addresses": ["79.172.193.65:443", "[2a02:730::2110]:443"], "flags": ["Fast", "Guard", "HSDir", "Running", "Stable", "V2Dir", "Valid"], "country": "hu", "consensus_weight": 78000, "observed_bandwidth": 58080338, "advertised_bandwidth": 58080338, "exit_policy": ["reject *:*"], "ipv4_address": "79.172.193.65", "latitude": 47.0999, "longitude": 17.912, "distance": 1616.0708273760108}, {"nickname": "VivaLaRevolution", "fingerprint": "4F0E831A998B6442BAF41B6FB33D0B445E6AB238", "or_addresses": ["51.81.57.7:443"], "flags": ["Fast", "Guard", "HSDir", "Running", "Stable", "V2Dir", "Valid"], "country": "us", "consensus_weight": 170000, "observed_bandwidth": 58042941, "advertised_bandwidth": 58042941, "exit_policy": ["reject *:*"], "ipv4_address": "51.81.57.7", "latitude": 38.6583, "longitude": -77.2481, "distance": 6252.3761554801895}, {"nickname": "StuRav", "fingerprint": "494E5000BA79F0078DFA05E610911C2AC525572F", "or_addresses": ["144.76.162.202:8080", "[2a01:4f8:200:3391::2]:8080"], "flags": ["Fast", "Guard", "HSDir", "Running", "Stable", "V2Dir", "Valid"], "country": "de", "consensus_weight": 80000, "observed_bandwidth": 57848850, "advertised_bandwidth": 57848850, "exit_policy": ["reject *:*"], "ipv4_address": "144.76.162.202", "latitude": 51.2993, "longitude": 9.491, "distance": 1099.7627743542018}, {"nickname": "frozone", "fingerprint": "C45FE5C41ACC37E4EA4687FFC54A74F124739DAF", "or_addresses": ["144.76.166.141:9002", "[2a01:4f8:200:428c::2]:9002"], "flags": ["Fast", "Guard", "HSDir", "Running", "Stable", "V2Dir", "Valid"], "country": "de", "consensus_weight": 74000, "observed_bandwidth": 57715327, "advertised_bandwidth": 57715327, "exit_policy": ["reject *:*"], "ipv4_address": "144.76.166.141", "latitude": 51.2993, "longitude": 9.491, "distance": 1099.7627743542018}, {"nickname": "billgates", "fingerprint": "EA670AB58CD5E1D5DCAB571D100EA1D36D72CA28", "or_addresses": ["95.217.39.117:4443", "[2a01:4f9:2b:31a0::2]:4443"], "flags": ["Fast", "Guard", "HSDir", "Running", "Stable", "V2Dir", "Valid"], "country": "fi", "consensus_weight": 52000, "observed_bandwidth": 57676422, "advertised_bandwidth": 57676422, "exit_policy": ["reject *:*"], "ipv4_address": "95.217.39.117", "latitude": 60.1719, "longitude": 24.9347, "distance": 745.6799838645395}, {"nickname": "TorchWood", "fingerprint": "DF6F7908E7FDEEE5DE6DD9C92F7C9DFB20B0CE2A", "or_addresses": ["144.76.3.174:9030", "[2a01:4f8:190:73a4::2]:9030"], "flags": ["Fast", "Guard", "HSDir", "Running", "Stable", "V2Dir", "Valid"], "country": "de", "consensus_weight": 66000, "observed_bandwidth": 57461532, "advertised_bandwidth": 57461532, "exit_policy": ["reject *:*"], "ipv4_address": "144.76.3.174", "latitude": 47.9863, "longitude": 8.819, "distance": 1471.1738666404915}, {"nickname": "c0der", "fingerprint": "02351FC88D0BF06F6CDE5452656641E6119DBD7E", "or_addresses": ["95.216.20.80:8080", "[2a01:4f9:2a:14af::2]:8080"], "flags": ["Fast", "Guard", "HSDir", "Running", "Stable", "V2Dir", "Valid"], "country": "fi", "consensus_weight": 56000, "observed_bandwidth": 57313964, "advertised_bandwidth": 57313964, "exit_policy": ["reject *:*"], "ipv4_address": "95.216.20.80", "latitude": 60.3533, "longitude": 24.9851, "distance": 743.7280264596441}, {"nickname": "dotsrcRelay1", "fingerprint": "B4E3546B058FEB655A6D8698D97C1459A2DF8E77", "or_addresses": ["130.225.244.90:443", "[2001:878:346:1cf9:446a:c4eb:4548:7061]:443"], "flags": ["Fast", "Guard", "HSDir", "Running", "Stable", "V2Dir", "Valid"], "country": "dk", "consensus_weight": 86000, "observed_bandwidth": 57177865, "advertised_bandwidth": 57177865, "exit_policy": ["reject *:*"], "ipv4_address": "130.225.244.90", "latitude": 55.6802, "longitude": 12.5892, "distance": 610.5338234178643}, {"nickname": "BEEzar", "fingerprint": "7EEDD54E5457DA009E46C91BBF1F443DCEE01968", "or_addresses": ["144.76.159.218:8443", "[2a01:4f8:200:32e6::2]:8443"], "flags": ["Fast", "Guard", "HSDir", "Running", "Stable", "V2Dir", "Valid"], "country": "de", "consensus_weight": 95000, "observed_bandwidth": 57011859, "advertised_bandwidth": 57011859, "exit_policy": ["reject *:*"], "ipv4_address": "144.76.159.218", "latitude": 50.7748, "longitude": 7.2002, "distance": 1180.376413728419}, {"nickname": "Citadel5", "fingerprint": "1F2EB70268CE9E18CE864D44D793E2091F3CE72C", "or_addresses": ["46.4.57.75:8443", "[2a01:4f8:140:1465::2]:8443"], "flags": ["Fast", "Guard", "HSDir", "Running", "Stable", "V2Dir", "Valid"], "country": "de", "consensus_weight": 78000, "observed_bandwidth": 56984074, "advertised_bandwidth": 56984074, "exit_policy": ["reject *:*"], "ipv4_address": "46.4.57.75", "latitude": 51.2993, "longitude": 9.491, "distance": 1099.7627743542018}, {"nickname": "greenpond", "fingerprint": "276B47FB06DF473F44FDA0DA5C7273B4F659419A", "or_addresses": ["172.106.10.106:443"], "flags": ["Fast", "Guard", "HSDir", "Running", "Stable", "V2Dir", "Valid"], "country": "us", "consensus_weight": 160000, "observed_bandwidth": 56956987, "advertised_bandwidth": 56956987, "exit_policy": ["reject *:*"], "ipv4_address": "172.106.10.106", "latitude": 39.018, "longitude": -77.539, "distance": 6234.472751018612}, {"nickname": "privater", "fingerprint": "57A295377F3167AD554B521F4615184943C39CE1", "or_addresses": ["135.181.213.167:9000", "[2a01:4f9:3a:2b96::2]:9000"], "flags": ["Fast", "Guard", "HSDir", "Running", "Stable", "V2Dir", "Valid"], "country": "fi", "consensus_weight": 75000, "observed_bandwidth": 56770169, "advertised_bandwidth": 56770169, "exit_policy": ["reject *:*"], "ipv4_address": "135.181.213.167", "latitude": 60.1719, "longitude": 24.9347, "distance": 745.6799838645395}, {"nickname": "gurgle", "fingerprint": "BCEDF6C193AA687AE471B8A22EBF6BC57C2D285E", "or_addresses": ["198.96.155.3:5001"], "flags": ["Exit", "Fast", "Guard", "HSDir", "Running", "Stable", "V2Dir", "Valid"], "country": "ca", "consensus_weight": 130000, "observed_bandwidth": 56761442, "advertised_bandwidth": 56761442, "exit_policy": ["reject 0.0.0.0/8:*", "reject 169.254.0.0/16:*", "reject 127.0.0.0/8:*", "reject 192.168.0.0/16:*", "reject 10.0.0.0/8:*", "reject 172.16.0.0/12:*", "reject 198.96.155.3:*", "reject 75.126.9.45:80", "reject 207.179.29.0/24:*", "reject 24.234.175.174:21", "reject 24.234.175.174:443", "reject 24.234.175.174:3389", "reject 209.87.112.0/20:*", "reject 161.215.0.0/16:*", "reject 192.154.254.203:*", "reject 142.93.59.210:*", "reject 192.95.30.32:*", "accept *:20-23", "accept *:43", "accept *:53", "accept *:79-81", "accept *:88", "accept *:110", "accept *:143", "accept *:194", "accept *:220", "accept *:389", "accept *:443", "accept *:464", "accept *:531", "accept *:543-544", "accept *:563", "accept *:636", "accept *:706", "accept *:749", "accept *:873", "accept *:902-904", "accept *:981", "accept *:989-995", "accept *:1194", "accept *:1220", "accept *:1293", "accept *:1500", "accept *:1533", "accept *:1677", "accept *:1723", "accept *:1863", "accept *:2082", "accept *:2083", "accept *:2086-2087", "accept *:2095-2096", "accept *:2102-2104", "accept *:3128", "accept *:3389", "accept *:3690", "accept *:4321", "accept *:4643", "accept *:5050", "accept *:5190", "accept *:5222-5223", "accept *:5228", "accept *:5900", "accept *:6660-6669", "accept *:6679", "accept *:6697", "accept *:8000", "accept *:8008", "accept *:8074", "accept *:8080", "accept *:8087-8088", "accept *:8332-8333", "accept *:8443", "accept *:8888", "accept *:9418", "accept *:9999", "accept *:10000", "accept *:11371", "accept *:19294", "accept *:19638", "accept *:554", "accept *:1755", "accept 129.97.7.154:60753", "reject *:*"], "ipv4_address": "198.96.155.3", "latitude": 43.6319, "longitude": -79.3716, "distance": 5911.682625331168}, {"nickname": "GhostBros", "fingerprint": "2955D8C86F5848FD3469E3F38A027D3E169359D8", "or_addresses": ["138.201.225.177:9100", "[2a01:4f8:173:1d2e::2]:9100"], "flags": ["Fast", "Guard", "HSDir", "Running", "Stable", "V2Dir", "Valid"], "country": "de", "consensus_weight": 71000, "observed_bandwidth": 56683995, "advertised_bandwidth": 56683995, "exit_policy": ["reject *:*"], "ipv4_address": "138.201.225.177", "latitude": 51.2993, "longitude": 9.491, "distance": 1099.7627743542018}, {"nickname": "ChuckyHorror", "fingerprint": "AF0E2DF4861795CD4CECE2A25686D2BC70C96D03", "or_addresses": ["46.4.96.24:9993", "[2a01:4f8:140:8229::2]:9993"], "flags": ["Fast", "Guard", "HSDir", "Running", "Stable", "V2Dir", "Valid"], "country": "de", "consensus_weight": 77000, "observed_bandwidth": 56612714, "advertised_bandwidth": 56612714, "exit_policy": ["reject *:*"], "ipv4_address": "46.4.96.24", "latitude": 51.2993, "longitude": 9.491, "distance": 1099.7627743542018}, {"nickname": "mickymouse", "fingerprint": "46DB04323499DD535956531DF2BF7B03EB2AB15D", "or_addresses": ["46.4.103.29:9001", "[2a01:4f8:140:94d6::2]:9001"], "flags": ["Fast", "Guard", "HSDir", "Running", "Stable", "V2Dir", "Valid"], "country": "de", "consensus_weight": 74000, "observed_bandwidth": 56568366, "advertised_bandwidth": 56568366, "exit_policy": ["reject *:*"], "ipv4_address": "46.4.103.29", "latitude": 51.2993, "longitude": 9.491, "distance": 1099.7627743542018}, {"nickname": "Belgravia", "fingerprint": "93030C201E251DCA9B632142DD678B8E63EAC9B5", "or_addresses": ["65.109.16.187:9001"], "flags": ["Fast", "Guard", "HSDir", "Running", "Stable", "V2Dir", "Valid"], "country": "fi", "consensus_weight": 67000, "observed_bandwidth": 56513393, "advertised_bandwidth": 56513393, "exit_policy": ["reject *:*"], "ipv4_address": "65.109.16.187", "latitude": 60.1797, "longitude": 24.9344, "distance": 745.4529965220947}, {"nickname": "PoochySloochy", "fingerprint": "1079E628FC6B0025656AC024F2D9975C441498CD", "or_addresses": ["51.15.185.201:443"], "flags": ["Fast", "Guard", "HSDir", "Running", "Stable", "V2Dir", "Valid"], "country": "fr", "consensus_weight": 73000, "observed_bandwidth": 56496643, "advertised_bandwidth": 56496643, "exit_policy": ["reject *:*"], "ipv4_address": "51.15.185.201", "latitude": 48.8582, "longitude": 2.3387, "distance": 1478.6913602924574}, {"nickname": "naruto", "fingerprint": "9A82114F767D0A2E5A83FF60815B64044AC224B7", "or_addresses": ["162.251.116.26:443"], "flags": ["Fast", "Guard", "HSDir", "Running", "Stable", "V2Dir", "Valid"], "country": "us", "consensus_weight": 180000, "observed_bandwidth": 56487588, "advertised_bandwidth": 56487588, "exit_policy": ["reject *:*"], "ipv4_address": "162.251.116.26", "latitude": 39.0469, "longitude": -77.4903, "distance": 6229.409692868388}, {"nickname": "Nethergrog", "fingerprint": "114555F8664D317BB9616C02810A8A078049EAE3", "or_addresses": ["162.19.204.163:9000"], "flags": ["Fast", "Guard", "HSDir", "Running", "Stable", "V2Dir", "Valid"], "country": "de", "consensus_weight": 120000, "observed_bandwidth": 56328569, "advertised_bandwidth": 56328569, "exit_policy": ["reject *:*"], "ipv4_address": "162.19.204.163", "latitude": 48.8582, "longitude": 2.3387, "distance": 1478.6913602924574}, {"nickname": "punkpop", "fingerprint": "B3D398B386FAF2CB78B447FBA46BF2648C3F48CD", "or_addresses": ["162.55.131.67:9100", "[2a01:4f8:271:5d58::2]:9100"], "flags": ["Fast", "Guard", "HSDir", "Running", "Stable", "V2Dir", "Valid"], "country": "de", "consensus_weight": 75000, "observed_bandwidth": 56201550, "advertised_bandwidth": 56201550, "exit_policy": ["reject *:*"], "ipv4_address": "162.55.131.67", "latitude": 51.2993, "longitude": 9.491, "distance": 1099.7627743542018}, {"nickname": "PancakeWhore", "fingerprint": "F00EC2E0A2CA79A57FE7A0918A087987747D772D", "or_addresses": ["94.154.159.96:9001", "[2a0b:f300:406::]:9001"], "flags": ["Fast", "Guard", "HSDir", "Running", "Stable", "V2Dir", "Valid"], "country": "us", "consensus_weight": 140000, "observed_bandwidth": 56198055, "advertised_bandwidth": 52428800, "exit_policy": ["reject *:*"], "ipv4_address": "94.154.159.96", "latitude": 40.7157, "longitude": -74.0, "distance": 5903.466561130977}, {"nickname": "zinho", "fingerprint": "EC9621433DF2C996DE55A7063BAAFB2B71C3C01B", "or_addresses": ["15.204.141.10:443"], "flags": ["Fast", "Guard", "HSDir", "Running", "Stable", "V2Dir", "Valid"], "country": "us", "consensus_weight": 150000, "observed_bandwidth": 56015338, "advertised_bandwidth": 56015338, "exit_policy": ["reject *:*"], "ipv4_address": "15.204.141.10", "latitude": 38.9609, "longitude": -77.3429, "distance": 6229.769869741755}, {"nickname": "Unnamed", "fingerprint": "6C3A20880445D8C6214D063F7BE3D5F5C44C1EF0", "or_addresses": ["45.129.181.126:9001"], "flags": ["Fast", "Guard", "HSDir", "Running", "Stable", "V2Dir", "Valid"], "country": "de", "consensus_weight": 72000, "observed_bandwidth": 55924748, "advertised_bandwidth": 55924748, "exit_policy": ["reject *:*"], "ipv4_address": "45.129.181.126", "latitude": 48.3968, "longitude": 10.8432, "distance": 1416.950448344755}, {"nickname": "TORtuga", "fingerprint": "05C32C5EE14454E0C4CD81DAE0F3DC32F729DA4B", "or_addresses": ["144.76.86.5:8080", "[2a01:4f8:192:1318::2]:8080"], "flags": ["Fast", "Guard", "HSDir", "Running", "Stable", "V2Dir", "Valid"], "country": "de", "consensus_weight": 63000, "observed_bandwidth": 55741677, "advertised_bandwidth": 55741677, "exit_policy": ["reject *:*"], "ipv4_address": "144.76.86.5", "latitude": 51.2993, "longitude": 9.491, "distance": 1099.7627743542018}, {"nickname": "redvader", "fingerprint": "77A3ADC5D455778B53C2803761916DFB7DA0A790", "or_addresses": ["148.251.85.195:9030", "[2a01:4f8:202:6096::2]:9030"], "flags": ["Fast", "Guard", "HSDir", "Running", "Stable", "V2Dir", "Valid"], "country": "de", "consensus_weight": 79000, "observed_bandwidth": 55730962, "advertised_bandwidth": 55730962, "exit_policy": ["reject *:*"], "ipv4_address": "148.251.85.195", "latitude": 51.2993, "longitude": 9.491, "distance": 1099.7627743542018}, {"nickname": "Hydra93a", "fingerprint": "5D575ADD108DDBBF17E78AD8CB267D6C1F338206", "or_addresses": ["185.125.171.199:9001", "[2a03:94e0:ffff:185:125:171:0:199]:9001"], "flags": ["Fast", "Guard", "HSDir", "Running", "Stable", "V2Dir", "Valid"], "country": "no", "consensus_weight": 84000, "observed_bandwidth": 55648921, "advertised_bandwidth": 55648921, "exit_policy": ["reject *:*"], "ipv4_address": "185.125.171.199", "latitude": 59.1728, "longitude": 10.2221, "distance": 227.03461387303517}, {"nickname": "goingin", "fingerprint": "24A818D9F1E09F1845FC1589DE5AAF15C8E0867E", "or_addresses": ["162.251.116.106:443"], "flags": ["Fast", "Guard", "HSDir", "Running", "Stable", "V2Dir", "Valid"], "country": "us", "consensus_weight": 150000, "observed_bandwidth": 55502399, "advertised_bandwidth": 55502399, "exit_policy": ["reject *:*"], "ipv4_address": "162.251.116.106", "latitude": 39.0469, "longitude": -77.4903, "distance": 6229.409692868388}, {"nickname": "cello", "fingerprint": "950E02DB326D28101E29286044C5714A204F3222", "or_addresses": ["135.148.150.100:443"], "flags": ["Fast", "Guard", "HSDir", "Running", "Stable", "V2Dir", "Valid"], "country": "us", "consensus_weight": 110000, "observed_bandwidth": 55479485, "advertised_bandwidth": 55479485, "exit_policy": ["reject *:*"], "ipv4_address": "135.148.150.100", "latitude": 38.6877, "longitude": -77.8369, "distance": 6279.367447412066}, {"nickname": "Hydra90a", "fingerprint": "21328917A9379E6B8ABCB49A0DBE3AAE885CFC15", "or_addresses": ["185.125.171.100:9001", "[2a03:94e0:ffff:185:125:171:0:100]:9001"], "flags": ["Fast", "Guard", "HSDir", "Running", "Stable", "V2Dir", "Valid"], "country": "no", "consensus_weight": 68000, "observed_bandwidth": 55452863, "advertised_bandwidth": 55452863, "exit_policy": ["reject *:*"], "ipv4_address": "185.125.171.100", "latitude": 59.1728, "longitude": 10.2221, "distance": 227.03461387303517}, {"nickname": "krustykrab", "fingerprint": "D58ABC85644F021638010310C3C4B3511A8A4142", "or_addresses": ["162.251.116.34:443"], "flags": ["Fast", "Guard", "HSDir", "Running", "Stable", "V2Dir", "Valid"], "country": "us", "consensus_weight": 160000, "observed_bandwidth": 55284741, "advertised_bandwidth": 55284741, "exit_policy": ["reject *:*"], "ipv4_address": "162.251.116.34", "latitude": 39.0469, "longitude": -77.4903, "distance": 6229.409692868388}, {"nickname": "Euphoria", "fingerprint": "85C9E4FFF9B69D43CC54FCC706DAC8554C6C9580", "or_addresses": ["147.135.65.26:443"], "flags": ["Fast", "Guard", "HSDir", "Running", "Stable", "V2Dir", "Valid"], "country": "us", "consensus_weight": 150000, "observed_bandwidth": 55234873, "advertised_bandwidth": 55234873, "exit_policy": ["reject *:*"], "ipv4_address": "147.135.65.26", "latitude": 38.6583, "longitude": -77.2481, "distance": 6252.3761554801895}, {"nickname": "myserver", "fingerprint": "A8A2FD93B62126CDA2A3597AD17AE9CC81174C69", "or_addresses": ["212.227.224.217:443"], "flags": ["Fast", "Guard", "Running", "Stable", "V2Dir", "Valid"], "country": "de", "consensus_weight": 100000, "observed_bandwidth": 54927360, "advertised_bandwidth": 54927360, "exit_policy": ["reject *:*"], "ipv4_address": "212.227.224.217", "latitude": 51.2993, "longitude": 9.491, "distance": 1099.7627743542018}, {"nickname": "nuker", "fingerprint": "5FAE28CF4D1C520341EE104BF72516F4308B9485", "or_addresses": ["148.251.236.209:8443", "[2a01:4f8:201:34d0::2]:8443"], "flags": ["Fast", "Guard", "HSDir", "Running", "Stable", "V2Dir", "Valid"], "country": "de", "consensus_weight": 77000, "observed_bandwidth": 54790624, "advertised_bandwidth": 54790624, "exit_policy": ["reject *:*"], "ipv4_address": "148.251.236.209", "latitude": 51.2993, "longitude": 9.491, "distance": 1099.7627743542018}, {"nickname": "onionsoup", "fingerprint": "408F374F131B45D7D63DBCB00E62F76B647943D9", "or_addresses": ["178.63.41.183:8000", "[2a01:4f8:120:4169::2]:8000"], "flags": ["Fast", "Guard", "HSDir", "Running", "Stable", "V2Dir", "Valid"], "country": "de", "consensus_weight": 58000, "observed_bandwidth": 54787836, "advertised_bandwidth": 54787836, "exit_policy": ["reject *:*"], "ipv4_address": "178.63.41.183", "latitude": 50.4777, "longitude": 12.3649, "distance": 1186.6886353851216}, {"nickname": "Spiegelberg", "fingerprint": "32ED1B555FB140D6DB9BF1AFF81C2B66B321D2A8", "or_addresses": ["51.81.56.228:443"], "flags": ["Fast", "Guard", "HSDir", "Running", "Stable", "V2Dir", "Valid"], "country": "us", "consensus_weight": 170000, "observed_bandwidth": 54725492, "advertised_bandwidth": 54725492, "exit_policy": ["reject *:*"], "ipv4_address": "51.81.56.228", "latitude": 38.719, "longitude": -77.7416, "distance": 6271.736654079693}, {"nickname": "Ukko", "fingerprint": "303509AB910EF207B7438C27435C4A2FD579F1B1", "or_addresses": ["95.216.33.30:443", "[2a01:4f9:2a:2145::1]:443"], "flags": ["Fast", "Guard", "HSDir", "Running", "Stable", "V2Dir", "Valid"], "country": "fi", "consensus_weight": 70000, "observed_bandwidth": 54684577, "advertised_bandwidth": 54684577, "exit_policy": ["reject *:*"], "ipv4_address": "95.216.33.30", "latitude": 60.1719, "longitude": 24.9347, "distance": 745.6799838645395}, {"nickname": "bavariaboys", "fingerprint": "6E1CEDC61F3707C549B88FB9380E4A750621FCB8", "or_addresses": ["136.243.92.194:9001", "[2a01:4f8:171:501::2]:9001"], "flags": ["Fast", "Guard", "HSDir", "Running", "Stable", "V2Dir", "Valid"], "country": "de", "consensus_weight": 67000, "observed_bandwidth": 54640379, "advertised_bandwidth": 54640379, "exit_policy": ["reject *:*"], "ipv4_address": "136.243.92.194", "latitude": 51.2993, "longitude": 9.491, "distance": 1099.7627743542018}, {"nickname": "MichaelAngelo", "fingerprint": "ADEA3D5609FCEC1EF2F4426C49313EB82DFE3E6B", "or_addresses": ["178.63.40.99:9090", "[2a01:4f8:120:205b::2]:9090"], "flags": ["Fast", "Guard", "HSDir", "Running", "Stable", "V2Dir", "Valid"], "country": "de", "consensus_weight": 85000, "observed_bandwidth": 54585839, "advertised_bandwidth": 54585839, "exit_policy": ["reject *:*"], "ipv4_address": "178.63.40.99", "latitude": 50.4777, "longitude": 12.3649, "distance": 1186.6886353851216}, {"nickname": "recyclops", "fingerprint": "3B675F5DB8C36AE6DB5889AE8DA1ACDF5DD51A0D", "or_addresses": ["172.106.12.246:443"], "flags": ["Fast", "Guard", "HSDir", "Running", "Stable", "V2Dir", "Valid"], "country": "us", "consensus_weight": 150000, "observed_bandwidth": 54526243, "advertised_bandwidth": 49283072, "exit_policy": ["reject *:*"], "ipv4_address": "172.106.12.246", "latitude": 39.018, "longitude": -77.539, "distance": 6234.472751018612}, {"nickname": "kuro", "fingerprint": "94F5629AE5F2DC409CD44668176597FF48296BA1", "or_addresses": ["148.251.83.53:8443", "[2a01:4f8:202:5368::2]:8443"], "flags": ["Fast", "Guard", "HSDir", "Running", "Stable", "V2Dir", "Valid"], "country": "de", "consensus_weight": 67000, "observed_bandwidth": 54318262, "advertised_bandwidth": 54318262, "exit_policy": ["reject *:*"], "ipv4_address": "148.251.83.53", "latitude": 51.2993, "longitude": 9.491, "distance": 1099.7627743542018}, {"nickname": "Reeses2", "fingerprint": "A162AB33A75096A780CD8D15A47DC9EC6ABDC4C7", "or_addresses": ["172.106.112.46:443"], "flags": ["Fast", "Guard", "HSDir", "Running", "Stable", "V2Dir", "Valid"], "country": "us", "consensus_weight": 130000, "observed_bandwidth": 54293354, "advertised_bandwidth": 54293354, "exit_policy": ["reject *:*"], "ipv4_address": "172.106.112.46", "latitude": 39.018, "longitude": -77.539, "distance": 6234.472751018612}, {"nickname": "sTORch", "fingerprint": "D56A98D38FC3C75E0347EEF3DD9C12749AF7C7C5", "or_addresses": ["217.182.196.70:443"], "flags": ["Fast", "Guard", "HSDir", "Running", "Stable", "V2Dir", "Valid"], "country": "de", "consensus_weight": 74000, "observed_bandwidth": 54238253, "advertised_bandwidth": 54238253, "exit_policy": ["reject *:*"], "ipv4_address": "217.182.196.70", "latitude": 51.2993, "longitude": 9.491, "distance": 1099.7627743542018}, {"nickname": "muddybits", "fingerprint": "408C9D2F1653D9EF3AF139C153CB27E8FFDB7612", "or_addresses": ["51.81.56.91:443"], "flags": ["Fast", "Guard", "HSDir", "Running", "Stable", "V2Dir", "Valid"], "country": "us", "consensus_weight": 150000, "observed_bandwidth": 53967651, "advertised_bandwidth": 53967651, "exit_policy": ["reject *:*"], "ipv4_address": "51.81.56.91", "latitude": 38.719, "longitude": -77.7416, "distance": 6271.736654079693}, {"nickname": "blackfox", "fingerprint": "03D1EF3EF2BE5145150C58ACC72519DD860E61BA", "or_addresses": ["136.243.3.194:8000", "[2a01:4f8:211:1d41::2]:8000"], "flags": ["Fast", "Guard", "HSDir", "Running", "Stable", "V2Dir", "Valid"], "country": "de", "consensus_weight": 86000, "observed_bandwidth": 53824421, "advertised_bandwidth": 53824421, "exit_policy": ["reject *:*"], "ipv4_address": "136.243.3.194", "latitude": 51.2993, "longitude": 9.491, "distance": 1099.7627743542018}, {"nickname": "torscapes", "fingerprint": "8FB6DF980DAABE530944E29247DAE6E85CF3AB8F", "or_addresses": ["172.107.226.22:9001"], "flags": ["Fast", "Guard", "HSDir", "Running", "Stable", "V2Dir", "Valid"], "country": "us", "consensus_weight": 72000, "observed_bandwidth": 53753920, "advertised_bandwidth": 52428800, "exit_policy": ["reject *:*"], "ipv4_address": "172.107.226.22", "latitude": 52.3463, "longitude": 4.8208, "distance": 1054.5643343027868}, {"nickname": "qwertz2", "fingerprint": "BD1C8CA61A53826A7C33885A7586F9FA13CE7944", "or_addresses": ["195.201.63.203:443"], "flags": ["Fast", "Guard", "HSDir", "Running", "Stable", "V2Dir", "Valid"], "country": "de", "consensus_weight": 85000, "observed_bandwidth": 53698339, "advertised_bandwidth": 53698339, "exit_policy": ["reject *:*"], "ipv4_address": "195.201.63.203", "latitude": 49.1156, "longitude": 10.7511, "distance": 1337.171538168562}, {"nickname": "justinjoker", "fingerprint": "AF2B014CBE98D2E66B288323B47F2E8DDDD9904E", "or_addresses": ["144.76.166.199:9002", "[2a01:4f8:200:42c6::2]:9002"], "flags": ["Fast", "Guard", "HSDir", "Running", "Stable", "V2Dir", "Valid"], "country": "de", "consensus_weight": 77000, "observed_bandwidth": 53605562, "advertised_bandwidth": 53605562, "exit_policy": ["reject *:*"], "ipv4_address": "144.76.166.199", "latitude": 51.2993, "longitude": 9.491, "distance": 1099.7627743542018}, {"nickname": "Zebala", "fingerprint": "90333CD7DF2601BE73557753DEE9B4C8444B5E4A", "or_addresses": ["95.211.208.141:9001"], "flags": ["Fast", "Guard", "HSDir", "Running", "Stable", "V2Dir", "Valid"], "country": "nl", "consensus_weight": 64000, "observed_bandwidth": 53545058, "advertised_bandwidth": 53545058, "exit_policy": ["reject *:*"], "ipv4_address": "95.211.208.141", "latitude": 51.9674, "longitude": 5.5753, "distance": 1078.549870775524}, {"nickname": "amaze", "fingerprint": "78F6CC48735658F9F7C2A9FD587BB726EFCD08B1", "or_addresses": ["135.148.53.55:443"], "flags": ["Fast", "Guard", "HSDir", "Running", "Stable", "V2Dir", "Valid"], "country": "us", "consensus_weight": 120000, "observed_bandwidth": 53537802, "advertised_bandwidth": 53537802, "exit_policy": ["reject *:*"], "ipv4_address": "135.148.53.55", "latitude": 38.6583, "longitude": -77.2481, "distance": 6252.3761554801895}, {"nickname": "normaray", "fingerprint": "CD39C258265B25EAA4ABA4FDCB2DF98104CAA362", "or_addresses": ["94.130.200.167:443"], "flags": ["Fast", "Guard", "HSDir", "Running", "Stable", "V2Dir", "Valid"], "country": "de", "consensus_weight": 63000, "observed_bandwidth": 53307848, "advertised_bandwidth": 53307848, "exit_policy": ["reject *:*"], "ipv4_address": "94.130.200.167", "latitude": 51.2993, "longitude": 9.491, "distance": 1099.7627743542018}, {"nickname": "b0rked01", "fingerprint": "51F0D13D91A60F0B4540F157DB68B70C7FDB1439", "or_addresses": ["51.255.106.107:443"], "flags": ["Fast", "Guard", "HSDir", "Running", "Stable", "V2Dir", "Valid"], "country": "fr", "consensus_weight": 92000, "observed_bandwidth": 52971304, "advertised_bandwidth": 52428800, "exit_policy": ["reject *:*"], "ipv4_address": "51.255.106.107", "latitude": 48.8582, "longitude": 2.3387, "distance": 1478.6913602924574}, {"nickname": "adrian", "fingerprint": "7551C1446DBA7BCF8395389A125445E71952D467", "or_addresses": ["135.148.53.61:443"], "flags": ["Fast", "Guard", "HSDir", "Running", "Stable", "V2Dir", "Valid"], "country": "us", "consensus_weight": 130000, "observed_bandwidth": 52966183, "advertised_bandwidth": 52966183, "exit_policy": ["reject *:*"], "ipv4_address": "135.148.53.61", "latitude": 38.6583, "longitude": -77.2481, "distance": 6252.3761554801895}, {"nickname": "mixminion", "fingerprint": "38F732DD349A2E59078434651162A2F4201934A5", "or_addresses": ["144.76.81.198:8443", "[2a01:4f8:192:3c5::2]:8443"], "flags": ["Fast", "Guard", "HSDir", "Running", "Stable", "V2Dir", "Valid"], "country": "de", "consensus_weight": 73000, "observed_bandwidth": 52943497, "advertised_bandwidth": 52943497, "exit_policy": ["reject *:*"], "ipv4_address": "144.76.81.198", "latitude": 51.2993, "longitude": 9.491, "distance": 1099.7627743542018}, {"nickname": "vrienden", "fingerprint": "A4436E70B8D7E7C5482EFCC55D53D39EC6AE905F", "or_addresses": ["51.81.56.229:443"], "flags": ["Fast", "Guard", "HSDir", "Running", "Stable", "V2Dir", "Valid"], "country": "us", "consensus_weight": 160000, "observed_bandwidth": 52875944, "advertised_bandwidth": 52875944, "exit_policy": ["reject *:*"], "ipv4_address": "51.81.56.229", "latitude": 38.719, "longitude": -77.7416, "distance": 6271.736654079693}, {"nickname": "notgoodatmath", "fingerprint": "42162BD0D9DD0175EB803F3920A87CB55262FF38", "or_addresses": ["135.148.53.59:443"], "flags": ["Fast", "Guard", "HSDir", "Running", "Stable", "V2Dir", "Valid"], "country": "us", "consensus_weight": 120000, "observed_bandwidth": 52813845, "advertised_bandwidth": 52813845, "exit_policy": ["reject *:*"], "ipv4_address": "135.148.53.59", "latitude": 38.6583, "longitude": -77.2481, "distance": 6252.3761554801895}, {"nickname": "tortisserie", "fingerprint": "6A84C1DB4C50934A57E13FC7F93EA5217BA0DAB6", "or_addresses": ["176.9.57.157:9001"], "flags": ["Fast", "Guard", "HSDir", "Running", "Stable", "V2Dir", "Valid"], "country": "de", "consensus_weight": 72000, "observed_bandwidth": 52787535, "advertised_bandwidth": 52787535, "exit_policy": ["reject *:*"], "ipv4_address": "176.9.57.157", "latitude": 51.2993, "longitude": 9.491, "distance": 1099.7627743542018}, {"nickname": "torfu2k22", "fingerprint": "4DF063596392B5DF7064994BE9C1252E49A5E05E", "or_addresses": ["172.106.167.6:443"], "flags": ["Fast", "Guard", "HSDir", "Running", "Stable", "V2Dir", "Valid"], "country": "us", "consensus_weight": 130000, "observed_bandwidth": 52770622, "advertised_bandwidth": 52770622, "exit_policy": ["reject *:*"], "ipv4_address": "172.106.167.6", "latitude": 39.018, "longitude": -77.539, "distance": 6234.472751018612}, {"nickname": "TOR2DFN01a", "fingerprint": "3239007CE1FB2ECDFDF2067DF23B949295DC5EF6", "or_addresses": ["217.182.198.80:443"], "flags": ["Fast", "Guard", "HSDir", "Running", "Stable", "V2Dir", "Valid"], "country": "de", "consensus_weight": 63000, "observed_bandwidth": 52709815, "advertised_bandwidth": 52709815, "exit_policy": ["reject *:*"], "ipv4_address": "217.182.198.80", "latitude": 51.2993, "longitude": 9.491, "distance": 1099.7627743542018}, {"nickname": "shiva", "fingerprint": "8921CB0ECEA669EEF8A2FD20537D58A676F47228", "or_addresses": ["94.23.148.66:8000"], "flags": ["Fast", "Guard", "HSDir", "Running", "Stable", "V2Dir", "Valid"], "country": "nl", "consensus_weight": 92000, "observed_bandwidth": 52648401, "advertised_bandwidth": 52648401, "exit_policy": ["reject *:*"], "ipv4_address": "94.23.148.66", "latitude": 52.3824, "longitude": 4.8995, "distance": 1048.9971128437512}, {"nickname": "prsv", "fingerprint": "554631959653A922A8FE4DBEEF74A6CDBF82AF9B", "or_addresses": ["134.202.120.23:9000"], "flags": ["Fast", "Guard", "Running", "Stable", "V2Dir", "Valid"], "country": "us", "consensus_weight": 120000, "observed_bandwidth": 52633600, "advertised_bandwidth": 52633600, "exit_policy": ["reject *:*"], "ipv4_address": "134.202.120.23", "latitude": 40.5511, "longitude": -74.4606, "distance": 5941.461473518861}, {"nickname": "sauberesache", "fingerprint": "DB6AC7DFB25C9CFC7036B53C78F91D8E3A9279CD", "or_addresses": ["213.239.197.35:18732", "[2a01:4f8:222:141b::1337]:18732"], "flags": ["Fast", "Guard", "HSDir", "Running", "Stable", "V2Dir", "Valid"], "country": "de", "consensus_weight": 60000, "observed_bandwidth": 52587643, "advertised_bandwidth": 52587643, "exit_policy": ["reject *:*"], "ipv4_address": "213.239.197.35", "latitude": 51.2993, "longitude": 9.491, "distance": 1099.7627743542018}, {"nickname": "pirut", "fingerprint": "4D78C54A145911C67C9003FE5D5314726CAF9426", "or_addresses": ["172.106.19.126:443"], "flags": ["Fast", "Guard", "HSDir", "Running", "Stable", "V2Dir", "Valid"], "country": "us", "consensus_weight": 130000, "observed_bandwidth": 52029272, "advertised_bandwidth": 52029272, "exit_policy": ["reject *:*"], "ipv4_address": "172.106.19.126", "latitude": 39.018, "longitude": -77.539, "distance": 6234.472751018612}, {"nickname": "tigris", "fingerprint": "8449C8642A9C9A2C2B2218BB26EE26233690E501", "or_addresses": ["162.251.116.10:443"], "flags": ["Fast", "Guard", "HSDir", "Running", "Stable", "V2Dir", "Valid"], "country": "us", "consensus_weight": 130000, "observed_bandwidth": 52018637, "advertised_bandwidth": 52018637, "exit_policy": ["reject *:*"], "ipv4_address": "162.251.116.10", "latitude": 39.0469, "longitude": -77.4903, "distance": 6229.409692868388}, {"nickname": "zensursula", "fingerprint": "EC167B8C9A38A0F5F79D4A01479035760E0D3D63", "or_addresses": ["178.254.41.45:443", "[2a00:6800:3:6d2::3]:443"], "flags": ["Fast", "Guard", "HSDir", "Running", "Stable", "V2Dir", "Valid"], "country": "de", "consensus_weight": 53000, "observed_bandwidth": 52002816, "advertised_bandwidth": 52002816, "exit_policy": ["reject *:*"], "ipv4_address": "178.254.41.45", "latitude": 51.2993, "longitude": 9.491, "distance": 1099.7627743542018}, {"nickname": "despacitor", "fingerprint": "E00DFD54DC165D5452FBD3530D30186DAD016A0C", "or_addresses": ["163.172.53.201:443"], "flags": ["Fast", "Guard", "HSDir", "Running", "Stable", "V2Dir", "Valid"], "country": "fr", "consensus_weight": 63000, "observed_bandwidth": 51901894, "advertised_bandwidth": 51901894, "exit_policy": ["reject *:*"], "ipv4_address": "163.172.53.201", "latitude": 48.8582, "longitude": 2.3387, "distance": 1478.6913602924574}, {"nickname": "fuego", "fingerprint": "FF353F5D011E69ECDA10A57B46D06BC7B3FEB196", "or_addresses": ["148.251.90.115:4080", "[2a01:4f8:202:7071::2]:4080"], "flags": ["Fast", "Guard", "HSDir", "Running", "Stable", "V2Dir", "Valid"], "country": "de", "consensus_weight": 77000, "observed_bandwidth": 51891474, "advertised_bandwidth": 51891474, "exit_policy": ["reject *:*"], "ipv4_address": "148.251.90.115", "latitude": 50.4777, "longitude": 12.3649, "distance": 1186.6886353851216}, {"nickname": "lenin", "fingerprint": "C4BDBFD1049EE1D4F6977C42485F94CD5F97BA92", "or_addresses": ["95.216.12.30:8000", "[2a01:4f9:2a:c5c::2]:8000"], "flags": ["Fast", "Guard", "HSDir", "Running", "Stable", "V2Dir", "Valid"], "country": "fi", "consensus_weight": 59000, "observed_bandwidth": 51806444, "advertised_bandwidth": 51806444, "exit_policy": ["reject *:*"], "ipv4_address": "95.216.12.30", "latitude": 60.1719, "longitude": 24.9347, "distance": 745.6799838645395}, {"nickname": "Unnamed", "fingerprint": "A5CAF012A4A940914DC441746B9342A6EC116417", "or_addresses": ["51.75.153.22:9900"], "flags": ["Fast", "Guard", "HSDir", "Running", "Stable", "V2Dir", "Valid"], "country": "fr", "consensus_weight": 120000, "observed_bandwidth": 51764821, "advertised_bandwidth": 51764821, "exit_policy": ["reject *:*"], "ipv4_address": "51.75.153.22", "latitude": 48.8582, "longitude": 2.3387, "distance": 1478.6913602924574}, {"nickname": "osterreich", "fingerprint": "AFEAF3A9E0DB1D837BE8FF1983BA0C65A3E71D73", "or_addresses": ["172.106.167.62:443"], "flags": ["Fast", "Guard", "HSDir", "Running", "Stable", "V2Dir", "Valid"], "country": "us", "consensus_weight": 140000, "observed_bandwidth": 51671149, "advertised_bandwidth": 51671149, "exit_policy": ["reject *:*"], "ipv4_address": "172.106.167.62", "latitude": 39.018, "longitude": -77.539, "distance": 6234.472751018612}, {"nickname": "zD86UN93NUE4hPT8", "fingerprint": "BE4896C3B70544B200FE59485392E9656D5E9B61", "or_addresses": ["89.105.216.106:443"], "flags": ["Fast", "Guard", "HSDir", "Running", "Stable", "V2Dir", "Valid"], "country": "nl", "consensus_weight": 59000, "observed_bandwidth": 51559309, "advertised_bandwidth": 51559309, "exit_policy": ["reject *:*"], "ipv4_address": "89.105.216.106", "latitude": 40.7066, "longitude": -74.2027, "distance": 5914.557413322958}, {"nickname": "galtlandeu", "fingerprint": "7B46F20449D6F25150E189428B62E1E3BA5848A9", "or_addresses": ["65.108.10.141:9001", "[2a01:4f9:6a:4642::2]:9001"], "flags": ["Fast", "Guard", "HSDir", "Running", "Stable", "V2Dir", "Valid"], "country": "fi", "consensus_weight": 38000, "observed_bandwidth": 51549977, "advertised_bandwidth": 31457280, "exit_policy": ["reject *:*"], "ipv4_address": "65.108.10.141", "latitude": 60.1797, "longitude": 24.9344, "distance": 745.4529965220947}, {"nickname": "strayWires", "fingerprint": "CED577F091DCB15AD8C87FBD452A51EA9E60BFC2", "or_addresses": ["172.106.16.134:9001"], "flags": ["Fast", "Guard", "HSDir", "Running", "Stable", "V2Dir", "Valid"], "country": "us", "consensus_weight": 130000, "observed_bandwidth": 51481984, "advertised_bandwidth": 51481984, "exit_policy": ["reject *:*"], "ipv4_address": "172.106.16.134", "latitude": 39.018, "longitude": -77.539, "distance": 6234.472751018612}, {"nickname": "sasuke", "fingerprint": "129611304F3D935351FD2550713487EF2EEA505A", "or_addresses": ["162.251.116.82:443"], "flags": ["Fast", "Guard", "HSDir", "Running", "Stable", "V2Dir", "Valid"], "country": "us", "consensus_weight": 150000, "observed_bandwidth": 51469531, "advertised_bandwidth": 51469531, "exit_policy": ["reject *:*"], "ipv4_address": "162.251.116.82", "latitude": 39.0469, "longitude": -77.4903, "distance": 6229.409692868388}, {"nickname": "dominate", "fingerprint": "E84266018D89F4F7A2BB2BCA1C5B83ED3126B5BF", "or_addresses": ["23.238.170.198:443"], "flags": ["Fast", "Guard", "HSDir", "Running", "Stable", "V2Dir", "Valid"], "country": "us", "consensus_weight": 120000, "observed_bandwidth": 51331650, "advertised_bandwidth": 51331650, "exit_policy": ["reject *:*"], "ipv4_address": "23.238.170.198", "latitude": 37.751, "longitude": -97.822, "distance": 7313.814090698954}, {"nickname": "ReacTOR", "fingerprint": "5C426791CB47BDDDD97A71EB2EFC4CCC84DEB299", "or_addresses": ["162.19.204.163:10000"], "flags": ["Fast", "Guard", "HSDir", "Running", "Stable", "V2Dir", "Valid"], "country": "de", "consensus_weight": 76000, "observed_bandwidth": 51330435, "advertised_bandwidth": 51330435, "exit_policy": ["reject *:*"], "ipv4_address": "162.19.204.163", "latitude": 48.8582, "longitude": 2.3387, "distance": 1478.6913602924574}, {"nickname": "Tarmac", "fingerprint": "B39BDC0A4A7C81EF7B3F35097DC4149F09056BBC", "or_addresses": ["172.106.9.14:443"], "flags": ["Fast", "Guard", "HSDir", "Running", "Stable", "V2Dir", "Valid"], "country": "us", "consensus_weight": 140000, "observed_bandwidth": 51301840, "advertised_bandwidth": 51301840, "exit_policy": ["reject *:*"], "ipv4_address": "172.106.9.14", "latitude": 39.018, "longitude": -77.539, "distance": 6234.472751018612}, {"nickname": "freeassange", "fingerprint": "BA13324719485DC3B5FF258C21603287F1AFFD06", "or_addresses": ["144.76.201.253:4080", "[2a01:4f8:200:82ca::2]:4080"], "flags": ["Fast", "Guard", "HSDir", "Running", "Stable", "V2Dir", "Valid"], "country": "de", "consensus_weight": 74000, "observed_bandwidth": 51120453, "advertised_bandwidth": 51120453, "exit_policy": ["reject *:*"], "ipv4_address": "144.76.201.253", "latitude": 51.2993, "longitude": 9.491, "distance": 1099.7627743542018}, {"nickname": "Paphos", "fingerprint": "B56B9FE93F83B4FA69234B17A060E8A8E7446D19", "or_addresses": ["62.210.205.228:443"], "flags": ["Fast", "Guard", "HSDir", "Running", "Stable", "V2Dir", "Valid"], "country": "fr", "consensus_weight": 82000, "observed_bandwidth": 51025003, "advertised_bandwidth": 51025003, "exit_policy": ["reject *:*"], "ipv4_address": "62.210.205.228", "latitude": 48.8582, "longitude": 2.3387, "distance": 1478.6913602924574}, {"nickname": "Felicette", "fingerprint": "26655E1DD93751B652AC8D534495ABB36415BEC7", "or_addresses": ["62.210.97.21:443"], "flags": ["Fast", "Guard", "HSDir", "Running", "Stable", "V2Dir", "Valid"], "country": "fr", "consensus_weight": 76000, "observed_bandwidth": 50989009, "advertised_bandwidth": 50989009, "exit_policy": ["reject *:*"], "ipv4_address": "62.210.97.21", "latitude": 48.8582, "longitude": 2.3387, "distance": 1478.6913602924574}, {"nickname": "violin", "fingerprint": "A06CDA7922E2522BAD37AABDB51BC953CC41BEB8", "or_addresses": ["135.148.150.99:443"], "flags": ["Fast", "Guard", "HSDir", "Running", "Stable", "V2Dir", "Valid"], "country": "us", "consensus_weight": 140000, "observed_bandwidth": 50940754, "advertised_bandwidth": 50940754, "exit_policy": ["reject *:*"], "ipv4_address": "135.148.150.99", "latitude": 38.6877, "longitude": -77.8369, "distance": 6279.367447412066}, {"nickname": "Hypervistor", "fingerprint": "F50755D5018C23F6CD115F23C95CCB2DC8B608B1", "or_addresses": ["95.216.19.41:9030", "[2a01:4f9:2a:134f::2]:9030"], "flags": ["Fast", "Guard", "HSDir", "Running", "Stable", "V2Dir", "Valid"], "country": "fi", "consensus_weight": 61000, "observed_bandwidth": 50748891, "advertised_bandwidth": 50748891, "exit_policy": ["reject *:*"], "ipv4_address": "95.216.19.41", "latitude": 60.1719, "longitude": 24.9347, "distance": 745.6799838645395}, {"nickname": "masterchief", "fingerprint": "99EC64FE9EF0E0ECEC3E125A2327C2779C1E7947", "or_addresses": ["46.4.66.188:8000", "[2a01:4f8:140:244f::2]:8000"], "flags": ["Fast", "Guard", "HSDir", "Running", "Stable", "V2Dir", "Valid"], "country": "de", "consensus_weight": 72000, "observed_bandwidth": 50731625, "advertised_bandwidth": 50731625, "exit_policy": ["reject *:*"], "ipv4_address": "46.4.66.188", "latitude": 51.2993, "longitude": 9.491, "distance": 1099.7627743542018}, {"nickname": "Akka", "fingerprint": "56927E61B51E6F363FB55498150A6DDFCF7077F2", "or_addresses": ["95.216.33.58:443", "[2a01:4f9:2a:2145::2]:443"], "flags": ["Fast", "Guard", "HSDir", "Running", "Stable", "V2Dir", "Valid"], "country": "fi", "consensus_weight": 72000, "observed_bandwidth": 50700300, "advertised_bandwidth": 50700300, "exit_policy": ["reject *:*"], "ipv4_address": "95.216.33.58", "latitude": 60.1719, "longitude": 24.9347, "distance": 745.6799838645395}, {"nickname": "sandman", "fingerprint": "E500B6579C9B37359B73B58C1EE3DEE92E9B4F33", "or_addresses": ["23.238.170.234:443"], "flags": ["Fast", "Guard", "HSDir", "Running", "Stable", "V2Dir", "Valid"], "country": "us", "consensus_weight": 140000, "observed_bandwidth": 50663852, "advertised_bandwidth": 50663852, "exit_policy": ["reject *:*"], "ipv4_address": "23.238.170.234", "latitude": 37.751, "longitude": -97.822, "distance": 7313.814090698954}, {"nickname": "StarAppsTrenton", "fingerprint": "74E8B68042A2774884BBF67E43ABEC4D9E5DF59A", "or_addresses": ["195.15.242.29:9001", "[2001:1600:10:100::3ab]:9001"], "flags": ["Fast", "Guard", "Running", "Stable", "V2Dir", "Valid"], "country": "ch", "consensus_weight": 50000, "observed_bandwidth": 50530304, "advertised_bandwidth": 50530304, "exit_policy": ["reject *:*"], "ipv4_address": "195.15.242.29", "latitude": 46.1953, "longitude": 6.1385, "distance": 1695.5275819139856}, {"nickname": "Charybdis3", "fingerprint": "8BF4E024210FF5DB1D7A4AFEBE11B48C73BFE779", "or_addresses": ["92.205.129.7:21"], "flags": ["Fast", "Guard", "HSDir", "Running", "Stable", "V2Dir", "Valid"], "country": "de", "consensus_weight": 97000, "observed_bandwidth": 50424087, "advertised_bandwidth": 50424087, "exit_policy": ["reject *:*"], "ipv4_address": "92.205.129.7", "latitude": 48.5855, "longitude": 7.7418, "distance": 1414.2397037027317}, {"nickname": "privexrelayfin1", "fingerprint": "C3ACB0492A644E27A549BC3CDF3B7A129186E3BF", "or_addresses": ["95.216.3.171:9001", "[2a01:4f9:2a:3d4::2]:9001"], "flags": ["Fast", "Guard", "HSDir", "Running", "Stable", "V2Dir", "Valid"], "country": "fi", "consensus_weight": 63000, "observed_bandwidth": 50404880, "advertised_bandwidth": 50404880, "exit_policy": ["reject *:*"], "ipv4_address": "95.216.3.171", "latitude": 60.1719, "longitude": 24.9347, "distance": 745.6799838645395}, {"nickname": "YoYuD1N02NoExit", "fingerprint": "9ACD21680CCBE65A5D5A638D85A8388A85D6EE05", "or_addresses": ["213.144.135.22:443", "[2a02:168:6a16:1130::32:102]:443"], "flags": ["Fast", "Guard", "Running", "Stable", "V2Dir", "Valid"], "country": "ch", "consensus_weight": 110000, "observed_bandwidth": 50350942, "advertised_bandwidth": 50350942, "exit_policy": ["reject *:*"], "ipv4_address": "213.144.135.22", "latitude": 47.3512, "longitude": 8.5011, "distance": 1543.7999807582185}, {"nickname": "Luna", "fingerprint": "24523E7B004983EC4CA5033EBC9B7293F12F237C", "or_addresses": ["51.81.93.108:443"], "flags": ["Fast", "Guard", "HSDir", "Running", "Stable", "V2Dir", "Valid"], "country": "us", "consensus_weight": 140000, "observed_bandwidth": 50287280, "advertised_bandwidth": 50287280, "exit_policy": ["reject *:*"], "ipv4_address": "51.81.93.108", "latitude": 38.6583, "longitude": -77.2481, "distance": 6252.3761554801895}, {"nickname": "YoYuD1N01NoExit", "fingerprint": "BB5FAE50BCE5B13C810CD17A931A0498E4681D41", "or_addresses": ["213.144.135.21:443", "[2a02:168:6a16:1130::32:101]:443"], "flags": ["Fast", "Guard", "Running", "Stable", "V2Dir", "Valid"], "country": "ch", "consensus_weight": 76000, "observed_bandwidth": 50282441, "advertised_bandwidth": 50282441, "exit_policy": ["reject *:*"], "ipv4_address": "213.144.135.21", "latitude": 47.3512, "longitude": 8.5011, "distance": 1543.7999807582185}, {"nickname": "qwertz3", "fingerprint": "B24E3BB3F5E5FCEB909054E681016093E6051475", "or_addresses": ["178.63.41.58:443"], "flags": ["Fast", "Guard", "HSDir", "Running", "Stable", "V2Dir", "Valid"], "country": "de", "consensus_weight": 67000, "observed_bandwidth": 50206645, "advertised_bandwidth": 50206645, "exit_policy": ["reject *:*"], "ipv4_address": "178.63.41.58", "latitude": 50.4777, "longitude": 12.3649, "distance": 1186.6886353851216}, {"nickname": "OgresHaveLayers", "fingerprint": "6ABFC90631A8CDA0C2D43D266878DBF9DC5BA485", "or_addresses": ["104.192.3.74:444", "[2605:aa80:0:9::3]:444"], "flags": ["Exit", "Fast", "Guard", "HSDir", "Running", "Stable", "V2Dir", "Valid"], "country": "us", "consensus_weight": 130000, "observed_bandwidth": 50204550, "advertised_bandwidth": 50204550, "exit_policy": ["reject 0.0.0.0/8:*", "reject 169.254.0.0/16:*", "reject 127.0.0.0/8:*", "reject 192.168.0.0/16:*", "reject 10.0.0.0/8:*", "reject 172.16.0.0/12:*", "reject 104.192.3.74:*", "reject *:22", "reject *:23", "reject *:25", "accept *:*"], "ipv4_address": "104.192.3.74", "latitude": 37.751, "longitude": -97.822, "distance": 7313.814090698954}, {"nickname": "derailleur", "fingerprint": "8330C8C52A4DC562135369D317D86887BBFE1685", "or_addresses": ["131.153.152.122:443"], "flags": ["Fast", "Guard", "HSDir", "Running", "Stable", "V2Dir", "Valid"], "country": "us", "consensus_weight": 110000, "observed_bandwidth": 49817278, "advertised_bandwidth": 49817278, "exit_policy": ["reject *:*"], "ipv4_address": "131.153.152.122", "latitude": 37.751, "longitude": -97.822, "distance": 7313.814090698954}, {"nickname": "buttercup", "fingerprint": "A99B0D9E5FD5BC3C8F2D006EC91F8C7F40E09CB8", "or_addresses": ["46.4.78.148:9001"], "flags": ["Fast", "Guard", "HSDir", "Running", "Stable", "V2Dir", "Valid"], "country": "de", "consensus_weight": 81000, "observed_bandwidth": 49807182, "advertised_bandwidth": 49807182, "exit_policy": ["reject *:*"], "ipv4_address": "46.4.78.148", "latitude": 51.2993, "longitude": 9.491, "distance": 1099.7627743542018}, {"nickname": "Chenjesu", "fingerprint": "5DB9AE27A44EB7B476CC04A66C67A71C97A001E6", "or_addresses": ["54.36.205.38:9001"], "flags": ["Fast", "Guard", "HSDir", "Running", "Stable", "V2Dir", "Valid"], "country": "fr", "consensus_weight": 83000, "observed_bandwidth": 49686613, "advertised_bandwidth": 49686613, "exit_policy": ["reject *:*"], "ipv4_address": "54.36.205.38", "latitude": 48.8582, "longitude": 2.3387, "distance": 1478.6913602924574}, {"nickname": "qwertz1", "fingerprint": "ACE420872AF1F8A7E064403D92669D14C5CE74AE", "or_addresses": ["116.202.233.112:443"], "flags": ["Fast", "Guard", "HSDir", "Running", "Stable", "V2Dir", "Valid"], "country": "de", "consensus_weight": 80000, "observed_bandwidth": 49641979, "advertised_bandwidth": 49641979, "exit_policy": ["reject *:*"], "ipv4_address": "116.202.233.112", "latitude": 51.2993, "longitude": 9.491, "distance": 1099.7627743542018}, {"nickname": "onze", "fingerprint": "44FAD1FB2286D1680E5A3EECE5069157719F031E", "or_addresses": ["172.106.11.34:443"], "flags": ["Fast", "Guard", "HSDir", "Running", "Stable", "V2Dir", "Valid"], "country": "us", "consensus_weight": 120000, "observed_bandwidth": 49613722, "advertised_bandwidth": 49613722, "exit_policy": ["reject *:*"], "ipv4_address": "172.106.11.34", "latitude": 39.018, "longitude": -77.539, "distance": 6234.472751018612}, {"nickname": "Tor", "fingerprint": "60F2139EA3E06410A05CBD6E8254E60A9063AD9D", "or_addresses": ["147.135.6.69:443"], "flags": ["Fast", "Guard", "HSDir", "Running", "Stable", "V2Dir", "Valid"], "country": "us", "consensus_weight": 110000, "observed_bandwidth": 49417578, "advertised_bandwidth": 49417578, "exit_policy": ["reject *:*"], "ipv4_address": "147.135.6.69", "latitude": 38.6583, "longitude": -77.2481, "distance": 6252.3761554801895}, {"nickname": "Turik", "fingerprint": "8284C8A45D22F2981C4B6287C7FB4367116E7CCE", "or_addresses": ["176.9.38.121:9100", "[2a01:4f8:161:353a::2]:9100"], "flags": ["Fast", "Guard", "HSDir", "Running", "Stable", "V2Dir", "Valid"], "country": "de", "consensus_weight": 63000, "observed_bandwidth": 49365699, "advertised_bandwidth": 49365699, "exit_policy": ["reject *:*"], "ipv4_address": "176.9.38.121", "latitude": 51.2993, "longitude": 9.491, "distance": 1099.7627743542018}, {"nickname": "arbitraryKenzie3", "fingerprint": "624B7391B9790E7CD2AF6A7238239BA3D6928A57", "or_addresses": ["65.108.136.189:80", "[2a01:4f9:6b:3408::3]:80"], "flags": ["Fast", "Guard", "HSDir", "Running", "Stable", "V2Dir", "Valid"], "country": "fi", "consensus_weight": 25000, "observed_bandwidth": 49291457, "advertised_bandwidth": 22369621, "exit_policy": ["reject *:*"], "ipv4_address": "65.108.136.189", "latitude": 60.1797, "longitude": 24.9344, "distance": 745.4529965220947}, {"nickname": "OnionsHaveLayers", "fingerprint": "849626A2A3DD1364E8C51423D6F3213A3AE16FFD", "or_addresses": ["104.192.3.74:443", "[2605:aa80:0:9::3]:443"], "flags": ["Exit", "Fast", "Guard", "HSDir", "Running", "Stable", "V2Dir", "Valid"], "country": "us", "consensus_weight": 120000, "observed_bandwidth": 49106646, "advertised_bandwidth": 49106646, "exit_policy": ["reject 0.0.0.0/8:*", "reject 169.254.0.0/16:*", "reject 127.0.0.0/8:*", "reject 192.168.0.0/16:*", "reject 10.0.0.0/8:*", "reject 172.16.0.0/12:*", "reject 104.192.3.74:*", "reject *:22", "reject *:23", "reject *:25", "accept *:*"], "ipv4_address": "104.192.3.74", "latitude": 37.751, "longitude": -97.822, "distance": 7313.814090698954}, {"nickname": "CoVna", "fingerprint": "1A66C02A119D6F842F550685E0051C4AE23B8BE8", "or_addresses": ["108.62.103.193:443"], "flags": ["Fast", "Guard", "HSDir", "Running", "Stable", "V2Dir", "Valid"], "country": "us", "consensus_weight": 110000, "observed_bandwidth": 49062255, "advertised_bandwidth": 49062255, "exit_policy": ["reject *:*"], "ipv4_address": "108.62.103.193", "latitude": 40.9163, "longitude": -73.7898, "distance": 5874.99703296916}, {"nickname": "sandstorm", "fingerprint": "A1A2924158198592C3E88CB0DF23C14D9FE64328", "or_addresses": ["51.81.56.74:443"], "flags": ["Fast", "Guard", "HSDir", "Running", "Stable", "V2Dir", "Valid"], "country": "us", "consensus_weight": 140000, "observed_bandwidth": 49047799, "advertised_bandwidth": 49047799, "exit_policy": ["reject *:*"], "ipv4_address": "51.81.56.74", "latitude": 38.719, "longitude": -77.7416, "distance": 6271.736654079693}, {"nickname": "defcon777", "fingerprint": "916DC3199F639168CD20AEC4D45969268E807699", "or_addresses": ["148.251.136.16:9100", "[2a01:4f8:210:400f::2]:9100"], "flags": ["Fast", "Guard", "HSDir", "Running", "Stable", "V2Dir", "Valid"], "country": "de", "consensus_weight": 54000, "observed_bandwidth": 49018296, "advertised_bandwidth": 49018296, "exit_policy": ["reject *:*"], "ipv4_address": "148.251.136.16", "latitude": 51.2993, "longitude": 9.491, "distance": 1099.7627743542018}, {"nickname": "lucuma", "fingerprint": "E4ECCD8EE889E8CC3E839E0D8EB3D350DB13C288", "or_addresses": ["172.106.18.46:443"], "flags": ["Fast", "Guard", "HSDir", "Running", "Stable", "V2Dir", "Valid"], "country": "us", "consensus_weight": 150000, "observed_bandwidth": 48913493, "advertised_bandwidth": 48913493, "exit_policy": ["reject *:*"], "ipv4_address": "172.106.18.46", "latitude": 38.9258, "longitude": -77.3939, "distance": 6235.512476979818}]