[{"nickname": "Waeswynn", "fingerprint": "2BCA0A8B5759DBD764BF9FA5D1B3AEE9D74D2B68", "or_addresses": ["94.23.172.32:443"], "flags": ["Fast", "HSDir", "Running", "Stable", "V2Dir", "Valid"], "country": "cz", "consensus_weight": 120000, "observed_bandwidth": 85432392, "advertised_bandwidth": 85432392, "exit_policy": ["reject *:*"], "ipv4_address": "94.23.172.32", "latitude": 48.8582, "longitude": 2.3387, "distance": 1478.6913602924574}, {"nickname": "Waeswynn", "fingerprint": "799ECF332DECA02C49DE21FF022F7E2DBECDA771", "or_addresses": ["94.23.172.32:444"], "flags": ["Fast", "HSDir", "Running", "Stable", "V2Dir", "Valid"], "country": "cz", "consensus_weight": 110000, "observed_bandwidth": 80412367, "advertised_bandwidth": 80412367, "exit_policy": ["reject *:*"], "ipv4_address": "94.23.172.32", "latitude": 48.8582, "longitude": 2.3387, "distance": 1478.6913602924574}, {"nickname": "moredaysleft777", "fingerprint": "04E96ED4C16CBED0D9E9AE6B979C21E842051687", "or_addresses": ["190.2.143.176:9001"], "flags": ["BadExit", "Fast", "MiddleOnly", "Running", "Stable", "Valid"], "country": "nl", "consensus_weight": 95000, "observed_bandwidth": 68341779, "advertised_bandwidth": 68341779, "exit_policy": ["reject 0.0.0.0/8:*", "reject 169.254.0.0/16:*", "reject 127.0.0.0/8:*", "reject 192.168.0.0/16:*", "reject 10.0.0.0/8:*", "reject 172.16.0.0/12:*", "reject 190.2.143.176:*", "accept *:80", "accept *:443", "accept *:110", "accept *:143", "accept *:993", "accept *:995", "reject *:*"], "ipv4_address": "190.2.143.176", "latitude": 51.9934, "longitude": 4.2158, "distance": 1105.5528981331706}, {"nickname": "RMK", "fingerprint": "3A63820A01459135D2A66188278199130F6B0015", "or_addresses": ["46.4.101.213:9000", "[2a01:4f8:140:935d::2]:9000"], "flags": ["Fast", "Running", "Stable", "StaleDesc", "Valid"], "country": "de", "consensus_weight": 81000, "observed_bandwidth": 64753664, "advertised_bandwidth": 64753664, "exit_policy": ["reject *:*"], "ipv4_address": "46.4.101.213", "latitude": 51.2993, "longitude": 9.491, "distance": 1099.7627743542018}, {"nickname": "a9", "fingerprint": "006AE565CA934C6EE5E82FC64008D61426E8C317", "or_addresses": ["5.9.12.251:9001", "[2a01:4f8:160:82d4::2]:9001"], "flags": ["Fast", "HSDir", "Running", "Stable", "V2Dir", "Valid"], "country": "de", "consensus_weight": 71000, "observed_bandwidth": 60457824, "advertised_bandwidth": 60457824, "exit_policy": ["reject *:*"], "ipv4_address": "5.9.12.251", "latitude": 51.2993, "longitude": 9.491, "distance": 1099.7627743542018}, {"nickname": "Unnamed", "fingerprint": "58A2A0E849E9E3692F7B136223507E93CB099150", "or_addresses": ["188.165.26.13:9000"], "flags": ["Fast", "HSDir", "Running", "Stable", "V2Dir", "Valid"], "country": "lt", "consensus_weight": 82000, "observed_bandwidth": 59995219, "advertised_bandwidth": 59995219, "exit_policy": ["reject *:*"], "ipv4_address": "188.165.26.13", "latitude": 48.8582, "longitude": 2.3387, "distance": 1478.6913602924574}, {"nickname": "SubjectDelta", "fingerprint": "819374FFCB0184491FC1B3A8C7745C4D5ABFEDEC", "or_addresses": ["185.21.217.34:10151"], "flags": ["Fast", "Running", "Stable", "Valid"], "country": "gb", "consensus_weight": 73000, "observed_bandwidth": 58410801, "advertised_bandwidth": 58410801, "exit_policy": ["reject *:*"], "ipv4_address": "185.21.217.34", "latitude": 51.4964, "longitude": -0.1224, "distance": 1281.0843613921256}, {"nickname": "sFtor4", "fingerprint": "68D2ABD936233A569E2B46D6228816149A16B4FA", "or_addresses": ["88.99.31.186:34746"], "flags": ["Fast", "HSDir", "Running", "Stable", "V2Dir", "Valid"], "country": "de", "consensus_weight": 74000, "observed_bandwidth": 55364649, "advertised_bandwidth": 55364649, "exit_policy": ["reject *:*"], "ipv4_address": "88.99.31.186", "latitude": 51.2993, "longitude": 9.491, "distance": 1099.7627743542018}, {"nickname": "Unnamed", "fingerprint": "0E9CF92A1840341AECB39D1F9700C1BAEA51C284", "or_addresses": ["188.165.26.13:9100"], "flags": ["Fast", "HSDir", "Running", "Stable", "V2Dir", "Valid"], "country": "lt", "consensus_weight": 65000, "observed_bandwidth": 50703372, "advertised_bandwidth": 50703372, "exit_policy": ["reject *:*"], "ipv4_address": "188.165.26.13", "latitude": 48.8582, "longitude": 2.3387, "distance": 1478.6913602924574}, {"nickname": "fuckDIS", "fingerprint": "FA5C5A37D7B49D5DA036E6F234F89D8E14B95648", "or_addresses": ["5.75.177.223:9001", "[2a01:4f8:1c1e:9e54::1]:9001"], "flags": ["Fast", "Running", "Valid"], "country": "de", "consensus_weight": 67000, "observed_bandwidth": 50420629, "advertised_bandwidth": 50420629, "exit_policy": ["reject *:*"], "ipv4_address": "5.75.177.223", "latitude": 51.2993, "longitude": 9.491, "distance": 1099.7627743542018}, {"nickname": "LittleSister", "fingerprint": "7AD1567CEDFD7A1CD8049079A7D86EB9D293AC49", "or_addresses": ["185.21.217.33:17743"], "flags": ["Fast", "Running", "Stable", "Valid"], "country": "gb", "consensus_weight": 53000, "observed_bandwidth": 48081366, "advertised_bandwidth": 48081366, "exit_policy": ["reject *:*"], "ipv4_address": "185.21.217.33", "latitude": 51.4964, "longitude": -0.1224, "distance": 1281.0843613921256}, {"nickname": "as212520", "fingerprint": "2EC34ECA8B5CDB181DED6948D8323199A6BBD5EC", "or_addresses": ["185.177.206.67:443", "[2a05:4741:25:8000:fefe::130]:443"], "flags": ["Fast", "HSDir", "Running", "Stable", "V2Dir", "Valid"], "country": "de", "consensus_weight": 57000, "observed_bandwidth": 47898539, "advertised_bandwidth": 47898539, "exit_policy": ["reject *:*"], "ipv4_address": "185.177.206.67", "latitude": 51.2993, "longitude": 9.491, "distance": 1099.7627743542018}, {"nickname": "SofiaLamb", "fingerprint": "01F2BF8CBD0BA82B5354D01BE4AF249C2C73B038", "or_addresses": ["185.21.217.29:10131"], "flags": ["Fast", "Running", "Stable", "Valid"], "country": "gb", "consensus_weight": 59000, "observed_bandwidth": 47559621, "advertised_bandwidth": 47559621, "exit_policy": ["reject *:*"], "ipv4_address": "185.21.217.29", "latitude": 51.4964, "longitude": -0.1224, "distance": 1281.0843613921256}, {"nickname": "tRlyNtpFsn", "fingerprint": "449FF55B44CCEB04A429CB5C0EDE4AA398FBE6F4", "or_addresses": ["167.235.156.255:443"], "flags": ["Fast", "Running", "Stable", "Valid"], "country": "de", "consensus_weight": 65000, "observed_bandwidth": 46343769, "advertised_bandwidth": 46343769, "exit_policy": ["reject *:*"], "ipv4_address": "167.235.156.255", "latitude": 51.2993, "longitude": 9.491, "distance": 1099.7627743542018}, {"nickname": "AS49697", "fingerprint": "E7B4C1A519BCEB0A7E772E08005AEFC083F84393", "or_addresses": ["45.11.231.103:443", "[2001:67c:1250:260::7]:443"], "flags": ["Fast", "HSDir", "Running", "Stable", "V2Dir", "Valid"], "country": "eu", "consensus_weight": 57000, "observed_bandwidth": 46092622, "advertised_bandwidth": 46092622, "exit_policy": ["reject *:*"], "ipv4_address": "45.11.231.103", "latitude": 50.1049, "longitude": 8.6295, "distance": 1238.3222753938524}, {"nickname": "as212520", "fingerprint": "2848309FCE708D38DFEDB8BF34D2DE5433E24C43", "or_addresses": ["185.177.206.66:443", "[2a05:4741:25:8000:fefe::129]:443"], "flags": ["Fast", "HSDir", "Running", "Stable", "V2Dir", "Valid"], "country": "de", "consensus_weight": 51000, "observed_bandwidth": 43995716, "advertised_bandwidth": 43995716, "exit_policy": ["reject *:*"], "ipv4_address": "185.177.206.66", "latitude": 51.2993, "longitude": 9.491, "distance": 1099.7627743542018}, {"nickname": "Unnamed", "fingerprint": "388A1B34CE00231D48ADBAE351FD23AF5FCE6DBF", "or_addresses": ["164.132.75.248:9001"], "flags": ["Fast", "HSDir", "Running", "Stable", "V2Dir", "Valid"], "country": "fr", "consensus_weight": 53000, "observed_bandwidth": 43916297, "advertised_bandwidth": 43916297, "exit_policy": ["reject *:*"], "ipv4_address": "164.132.75.248", "latitude": 48.6103, "longitude": 2.3165, "distance": 1505.2806298785647}, {"nickname": "as212520", "fingerprint": "CFD2895204AEAA82434363B55D9537B88CE6DEFD", "or_addresses": ["185.177.206.71:443", "[2a05:4741:25:8000:fefe::139]:443"], "flags": ["Fast", "HSDir", "Running", "Stable", "V2Dir", "Valid"], "country": "de", "consensus_weight": 46000, "observed_bandwidth": 43497468, "advertised_bandwidth": 43497468, "exit_policy": ["reject *:*"], "ipv4_address": "185.177.206.71", "latitude": 51.2993, "longitude": 9.491, "distance": 1099.7627743542018}, {"nickname": "as212520", "fingerprint": "6D100EE20A83025E4005C655973FF59DF20D9218", "or_addresses": ["185.177.206.70:443", "[2a05:4741:25:8000:fefe::133]:443"], "flags": ["Fast", "HSDir", "Running", "Stable", "V2Dir", "Valid"], "country": "de", "consensus_weight": 49000, "observed_bandwidth": 43373361, "advertised_bandwidth": 43373361, "exit_policy": ["reject *:*"], "ipv4_address": "185.177.206.70", "latitude": 51.2993, "longitude": 9.491, "distance": 1099.7627743542018}, {"nickname": "as212520", "fingerprint": "C81FBEB6BFA5D17CC5730325C29F98AF00EECD4E", "or_addresses": ["185.177.206.73:443", "[2a05:4741:25:8000:fefe::141]:443"], "flags": ["Fast", "HSDir", "Running", "Stable", "V2Dir", "Valid"], "country": "de", "consensus_weight": 41000, "observed_bandwidth": 43310558, "advertised_bandwidth": 43310558, "exit_policy": ["reject *:*"], "ipv4_address": "185.177.206.73", "latitude": 51.2993, "longitude": 9.491, "distance": 1099.7627743542018}, {"nickname": "T4cC0reTor3", "fingerprint": "F29B0F1A91B55CCB7F6CDCA2A1D18C63571F766B", "or_addresses": ["51.15.44.157:9001"], "flags": ["Fast", "Running", "Stable", "V2Dir", "Valid"], "country": "nl", "consensus_weight": 71000, "observed_bandwidth": 42534998, "advertised_bandwidth": 42534998, "exit_policy": ["reject *:*"], "ipv4_address": "51.15.44.157", "latitude": 48.8582, "longitude": 2.3387, "distance": 1478.6913602924574}, {"nickname": "SubjectDelta", "fingerprint": "41C5E9CB0A09308C5FE83EC77CC5FC012CA69C7D", "or_addresses": ["185.21.217.34:10145"], "flags": ["Fast", "Running", "Stable", "Valid"], "country": "gb", "consensus_weight": 44000, "observed_bandwidth": 42114919, "advertised_bandwidth": 42114919, "exit_policy": ["reject *:*"], "ipv4_address": "185.21.217.34", "latitude": 51.4964, "longitude": -0.1224, "distance": 1281.0843613921256}, {"nickname": "AS49697", "fingerprint": "27D50F277EEBC477576AD46A1BA31BE1DA6E2439", "or_addresses": ["45.11.231.104:443", "[2001:67c:1250:260::8]:443"], "flags": ["Fast", "HSDir", "Running", "Stable", "V2Dir", "Valid"], "country": "eu", "consensus_weight": 59000, "observed_bandwidth": 41843192, "advertised_bandwidth": 41843192, "exit_policy": ["reject *:*"], "ipv4_address": "45.11.231.104", "latitude": 50.1049, "longitude": 8.6295, "distance": 1238.3222753938524}, {"nickname": "AS49697", "fingerprint": "323F66BDC56589A61AF52F62A3307830C381CDCD", "or_addresses": ["45.11.231.105:443", "[2001:67c:1250:260::9]:443"], "flags": ["Fast", "HSDir", "Running", "Stable", "V2Dir", "Valid"], "country": "eu", "consensus_weight": 49000, "observed_bandwidth": 40563739, "advertised_bandwidth": 40563739, "exit_policy": ["reject *:*"], "ipv4_address": "45.11.231.105", "latitude": 50.1049, "longitude": 8.6295, "distance": 1238.3222753938524}, {"nickname": "AS49697", "fingerprint": "B0AB68E38CF7D4CBD443162A1DEC8B633891352B", "or_addresses": ["45.11.231.106:443", "[2001:67c:1250:260::a]:443"], "flags": ["Fast", "HSDir", "Running", "Stable", "V2Dir", "Valid"], "country": "eu", "consensus_weight": 55000, "observed_bandwidth": 40324752, "advertised_bandwidth": 40324752, "exit_policy": ["reject *:*"], "ipv4_address": "45.11.231.106", "latitude": 50.1049, "longitude": 8.6295, "distance": 1238.3222753938524}, {"nickname": "whocares", "fingerprint": "C56E98E934EDB5EEFA9322D5D4818E09325F7A80", "or_addresses": ["92.205.17.93:443"], "flags": ["Fast", "Running", "Stable", "V2Dir", "Valid"], "country": "de", "consensus_weight": 52000, "observed_bandwidth": 40257121, "advertised_bandwidth": 40257121, "exit_policy": ["reject *:*"], "ipv4_address": "92.205.17.93", "latitude": 48.5855, "longitude": 7.7418, "distance": 1414.2397037027317}, {"nickname": "Unnamed", "fingerprint": "4839E9CA0DD1B72B4FB6504006CB499A059AEDA0", "or_addresses": ["138.201.155.101:2087", "[2a01:4f8:c17:87f8::]:2087"], "flags": ["Fast", "Running", "Stable", "Valid"], "country": "de", "consensus_weight": 46000, "observed_bandwidth": 39901955, "advertised_bandwidth": 39901955, "exit_policy": ["reject *:*"], "ipv4_address": "138.201.155.101", "latitude": 49.2762, "longitude": 7.1181, "distance": 1345.3867447140778}, {"nickname": "SofiaLamb", "fingerprint": "68725D51274977209AB1ACFA552064E20754EC40", "or_addresses": ["185.21.217.29:10137"], "flags": ["Fast", "Running", "Stable", "Valid"], "country": "gb", "consensus_weight": 39000, "observed_bandwidth": 39362326, "advertised_bandwidth": 39362326, "exit_policy": ["reject *:*"], "ipv4_address": "185.21.217.29", "latitude": 51.4964, "longitude": -0.1224, "distance": 1281.0843613921256}, {"nickname": "twinky", "fingerprint": "9F8787201D2BD769D740A4057190A74954471751", "or_addresses": ["46.20.35.116:443"], "flags": ["Fast", "HSDir", "Running", "Stable", "V2Dir", "Valid"], "country": "de", "consensus_weight": 39000, "observed_bandwidth": 39177858, "advertised_bandwidth": 39177858, "exit_policy": ["reject *:*"], "ipv4_address": "46.20.35.116", "latitude": 51.2993, "longitude": 9.491, "distance": 1099.7627743542018}, {"nickname": "Bigdaddy", "fingerprint": "017B08CC163424CD6ABA4ADD4042B4174D494732", "or_addresses": ["185.21.217.32:10042"], "flags": ["Fast", "Running", "Stable", "Valid"], "country": "gb", "consensus_weight": 42000, "observed_bandwidth": 38994092, "advertised_bandwidth": 38994092, "exit_policy": ["reject *:*"], "ipv4_address": "185.21.217.32", "latitude": 51.4964, "longitude": -0.1224, "distance": 1281.0843613921256}, {"nickname": "hyperion", "fingerprint": "41E041EC676622FFEE59F56BC75B99CD0D47F653", "or_addresses": ["95.216.98.55:143", "[2a01:4f9:2b:1148::]:143"], "flags": ["Fast", "HSDir", "Running", "Stable", "V2Dir", "Valid"], "country": "fi", "consensus_weight": 54000, "observed_bandwidth": 38521022, "advertised_bandwidth": 38521022, "exit_policy": ["reject *:*"], "ipv4_address": "95.216.98.55", "latitude": 60.1719, "longitude": 24.9347, "distance": 745.6799838645395}, {"nickname": "AS49697", "fingerprint": "3595316EC9E9FC333C5B5B29B2DBE2C8A0584F92", "or_addresses": ["45.11.231.102:443", "[2001:67c:1250:260::6]:443"], "flags": ["Fast", "HSDir", "Running", "Stable", "V2Dir", "Valid"], "country": "eu", "consensus_weight": 57000, "observed_bandwidth": 38416579, "advertised_bandwidth": 38416579, "exit_policy": ["reject *:*"], "ipv4_address": "45.11.231.102", "latitude": 50.1049, "longitude": 8.6295, "distance": 1238.3222753938524}, {"nickname": "JNode01", "fingerprint": "DD4B18E94D09A3E8F60573210DAA8414ABC220CD", "or_addresses": ["217.182.170.79:9001"], "flags": ["Fast", "Running", "Stable", "V2Dir", "Valid"], "country": "fr", "consensus_weight": 49000, "observed_bandwidth": 37508096, "advertised_bandwidth": 37508096, "exit_policy": ["reject *:*"], "ipv4_address": "217.182.170.79", "latitude": 48.8582, "longitude": 2.3387, "distance": 1478.6913602924574}, {"nickname": "as212520", "fingerprint": "A53725A60C9A505A066525F433F8AF42FACC44FE", "or_addresses": ["185.177.206.68:443", "[2a05:4741:25:8000:fefe::131]:443"], "flags": ["Fast", "HSDir", "Running", "Stable", "V2Dir", "Valid"], "country": "de", "consensus_weight": 37000, "observed_bandwidth": 36932795, "advertised_bandwidth": 36932795, "exit_policy": ["reject *:*"], "ipv4_address": "185.177.206.68", "latitude": 51.2993, "longitude": 9.491, "distance": 1099.7627743542018}, {"nickname": "SofiaLamb", "fingerprint": "2C2B308B97B5FF357C42B3F71AAA96F709C28D93", "or_addresses": ["185.21.217.29:10135"], "flags": ["Fast", "Running", "Stable", "Valid"], "country": "gb", "consensus_weight": 36000, "observed_bandwidth": 36569852, "advertised_bandwidth": 36569852, "exit_policy": ["reject *:*"], "ipv4_address": "185.21.217.29", "latitude": 51.4964, "longitude": -0.1224, "distance": 1281.0843613921256}, {"nickname": "SubjectDelta", "fingerprint": "83873189EF4EF07B9B2B382C5E126B191B8CA4AA", "or_addresses": ["185.21.217.34:10147"], "flags": ["Fast", "Running", "Stable", "Valid"], "country": "gb", "consensus_weight": 37000, "observed_bandwidth": 35609931, "advertised_bandwidth": 35609931, "exit_policy": ["reject *:*"], "ipv4_address": "185.21.217.34", "latitude": 51.4964, "longitude": -0.1224, "distance": 1281.0843613921256}, {"nickname": "BigDaddy", "fingerprint": "3887FAA20AF621798E92B961E220695B5B747DAE", "or_addresses": ["185.21.217.32:10441"], "flags": ["Fast", "Running", "Stable", "Valid"], "country": "gb", "consensus_weight": 36000, "observed_bandwidth": 35586287, "advertised_bandwidth": 35586287, "exit_policy": ["reject *:*"], "ipv4_address": "185.21.217.32", "latitude": 51.4964, "longitude": -0.1224, "distance": 1281.0843613921256}, {"nickname": "as212520", "fingerprint": "CB6F07BB3D81A32EF2569FC4E0511E36BF24C034", "or_addresses": ["185.177.206.72:443", "[2a05:4741:25:8000:fefe::140]:443"], "flags": ["Fast", "HSDir", "Running", "Stable", "V2Dir", "Valid"], "country": "de", "consensus_weight": 43000, "observed_bandwidth": 35476999, "advertised_bandwidth": 35476999, "exit_policy": ["reject *:*"], "ipv4_address": "185.177.206.72", "latitude": 51.2993, "longitude": 9.491, "distance": 1099.7627743542018}, {"nickname": "lodrich2", "fingerprint": "0CA3F4D95BCF24964FC4623588A3F17E2EE216DE", "or_addresses": ["85.195.253.5:9005", "[2a02:168:83d4:7777:44bd:c9ff:fe2e:3165]:443"], "flags": ["Fast", "Running", "Stable", "V2Dir", "Valid"], "country": "ch", "consensus_weight": 38000, "observed_bandwidth": 35397632, "advertised_bandwidth": 35397632, "exit_policy": ["reject *:*"], "ipv4_address": "85.195.253.5", "latitude": 47.4234, "longitude": 9.3696, "distance": 1530.1800190366007}, {"nickname": "AS49697", "fingerprint": "1DF4E30437AC394224254155CF88581C1B491E96", "or_addresses": ["45.11.231.107:443", "[2001:67c:1250:260::b]:443"], "flags": ["Fast", "HSDir", "Running", "Stable", "V2Dir", "Valid"], "country": "eu", "consensus_weight": 45000, "observed_bandwidth": 35354592, "advertised_bandwidth": 35354592, "exit_policy": ["reject *:*"], "ipv4_address": "45.11.231.107", "latitude": 50.1049, "longitude": 8.6295, "distance": 1238.3222753938524}, {"nickname": "as212520", "fingerprint": "721A251658BA2240EED110C078334AB2DF6C309C", "or_addresses": ["185.177.206.69:443", "[2a05:4741:25:8000:fefe::132]:443"], "flags": ["Fast", "HSDir", "Running", "Stable", "V2Dir", "Valid"], "country": "de", "consensus_weight": 40000, "observed_bandwidth": 35023018, "advertised_bandwidth": 35023018, "exit_policy": ["reject *:*"], "ipv4_address": "185.177.206.69", "latitude": 51.2993, "longitude": 9.491, "distance": 1099.7627743542018}, {"nickname": "everybodywatching", "fingerprint": "A6E4B97CA238DE7E8998D410FB6D2DED07B53509", "or_addresses": ["213.108.108.85:5353"], "flags": ["Fast", "HSDir", "Running", "Stable", "V2Dir", "Valid"], "country": "nl", "consensus_weight": 35000, "observed_bandwidth": 34864504, "advertised_bandwidth": 34864504, "exit_policy": ["reject *:*"], "ipv4_address": "213.108.108.85", "latitude": 52.3824, "longitude": 4.8995, "distance": 1048.9971128437512}, {"nickname": "Cerberus", "fingerprint": "1F398E20EC8763FC2DD897BCDA37EE24C46069E6", "or_addresses": ["85.1.138.212:9001"], "flags": ["Fast", "Running", "Stable", "V2Dir", "Valid"], "country": "ch", "consensus_weight": 43000, "observed_bandwidth": 34480799, "advertised_bandwidth": 34480799, "exit_policy": ["reject *:*"], "ipv4_address": "85.1.138.212", "latitude": 47.3992, "longitude": 8.3956, "distance": 1539.306064560251}, {"nickname": "LittleSister", "fingerprint": "8ADE13FE81E95717711438D3ABD0402031C80F31", "or_addresses": ["185.21.217.33:10035"], "flags": ["Fast", "Running", "Stable", "Valid"], "country": "gb", "consensus_weight": 35000, "observed_bandwidth": 33555952, "advertised_bandwidth": 33555952, "exit_policy": ["reject *:*"], "ipv4_address": "185.21.217.33", "latitude": 51.4964, "longitude": -0.1224, "distance": 1281.0843613921256}, {"nickname": "Ichotolot62", "fingerprint": "7600680249A22080ECC6173FBBF64D6FCF330A61", "or_addresses": ["212.83.43.93:80", "[2a00:f48:2000:1038:88de:45ed:8e:13fe]:80"], "flags": ["Fast", "HSDir", "Running", "Stable", "V2Dir", "Valid"], "country": "de", "consensus_weight": 36000, "observed_bandwidth": 33386572, "advertised_bandwidth": 30720000, "exit_policy": ["reject *:*"], "ipv4_address": "212.83.43.93", "latitude": 47.8874, "longitude": 10.6235, "distance": 1473.9843242356924}, {"nickname": "CombahtonFanclub", "fingerprint": "D62D4ACD66B9FB91AC2EAA7CF29E654A8AEC1C36", "or_addresses": ["5.199.138.88:9001", "[2001:4ba0:cafe:fa5::1]:9001"], "flags": ["Fast", "Running", "V2Dir", "Valid"], "country": "de", "consensus_weight": 41000, "observed_bandwidth": 33272826, "advertised_bandwidth": 33272826, "exit_policy": ["reject *:*"], "ipv4_address": "5.199.138.88", "latitude": 51.2705, "longitude": 6.8144, "distance": 1131.8967522291991}]