[{"nickname": "lint", "fingerprint": "D1CCC0A8ECA0DAD80AE52FEB3B42D28B1018C6F3", "or_addresses": ["84.211.247.39:9002"], "flags": ["Running", "Stable", "V2Dir", "Valid"], "country": "no", "consensus_weight": 23, "observed_bandwidth": 192187, "advertised_bandwidth": 192187, "exit_policy": ["reject *:*"], "ipv4_address": "84.211.247.39", "latitude": 59.955, "longitude": 10.859, "distance": 133.90699693224664}, {"nickname": "lupin", "fingerprint": "F7D0B78E34351C1DFE03E2C88746FD999B04D45D", "or_addresses": ["84.211.247.39:9001"], "flags": ["Running", "Stable", "V2Dir", "Valid"], "country": "no", "consensus_weight": 26, "observed_bandwidth": 224003, "advertised_bandwidth": 224003, "exit_policy": ["reject *:*"], "ipv4_address": "84.211.247.39", "latitude": 59.955, "longitude": 10.859, "distance": 133.90699693224664}, {"nickname": "ElmerFudrucker", "fingerprint": "1F04F90765AA57437144A0351AF197341E47DDBB", "or_addresses": ["217.170.197.121:443"], "flags": ["BadExit", "Fast", "MiddleOnly", "Running", "Stable", "Valid"], "country": "no", "consensus_weight": 14000, "observed_bandwidth": 11646976, "advertised_bandwidth": 11646976, "exit_policy": ["reject 0.0.0.0/8:*", "reject 169.254.0.0/16:*", "reject 127.0.0.0/8:*", "reject 192.168.0.0/16:*", "reject 10.0.0.0/8:*", "reject 172.16.0.0/12:*", "reject 217.170.197.121:*", "accept *:20-21", "accept *:43", "accept *:53", "accept *:80", "accept *:110", "accept *:143", "accept *:220", "accept *:443", "accept *:873", "accept *:989-990", "accept *:991", "accept *:992", "accept *:993", "accept *:995", "accept *:1194", "accept *:1293", "accept *:3690", "accept *:4321", "accept *:5222-5223", "accept *:5228", "accept *:9418", "accept *:11371", "accept *:64738", "reject *:*"], "ipv4_address": "217.170.197.121", "latitude": 59.9452, "longitude": 10.7559, "distance": 136.25704880927736}, {"nickname": "TazTacos", "fingerprint": "AA13113D196C8D182AA5B98BDD6A5D3D9443E4E5", "or_addresses": ["217.170.204.110:443"], "flags": ["BadExit", "Fast", "MiddleOnly", "Running", "Stable", "Valid"], "country": "no", "consensus_weight": 14000, "observed_bandwidth": 11693056, "advertised_bandwidth": 11693056, "exit_policy": ["reject 0.0.0.0/8:*", "reject 169.254.0.0/16:*", "reject 127.0.0.0/8:*", "reject 192.168.0.0/16:*", "reject 10.0.0.0/8:*", "reject 172.16.0.0/12:*", "reject 217.170.204.110:*", "accept *:20-21", "accept *:43", "accept *:53", "accept *:80", "accept *:110", "accept *:143", "accept *:220", "accept *:443", "accept *:873", "accept *:989-990", "accept *:991", "accept *:992", "accept *:993", "accept *:995", "accept *:1194", "accept *:1293", "accept *:3690", "accept *:4321", "accept *:5222-5223", "accept *:5228", "accept *:9418", "accept *:11371", "accept *:64738", "reject *:*"], "ipv4_address": "217.170.204.110", "latitude": 59.9452, "longitude": 10.7559, "distance": 136.25704880927736}, {"nickname": "DaffyMcduck", "fingerprint": "14BA402FE00684C6DC6BF1BE314848B0982D4E56", "or_addresses": ["185.101.34.74:443"], "flags": ["BadExit", "Fast", "MiddleOnly", "Running", "Stable", "Valid"], "country": "no", "consensus_weight": 13000, "observed_bandwidth": 11386880, "advertised_bandwidth": 11386880, "exit_policy": ["reject 0.0.0.0/8:*", "reject 169.254.0.0/16:*", "reject 127.0.0.0/8:*", "reject 192.168.0.0/16:*", "reject 10.0.0.0/8:*", "reject 172.16.0.0/12:*", "reject 185.101.34.74:*", "accept *:20-21", "accept *:43", "accept *:53", "accept *:80", "accept *:110", "accept *:143", "accept *:220", "accept *:443", "accept *:873", "accept *:989-990", "accept *:991", "accept *:992", "accept *:993", "accept *:995", "accept *:1194", "accept *:1293", "accept *:3690", "accept *:4321", "accept *:5222-5223", "accept *:5228", "accept *:9418", "accept *:11371", "accept *:64738", "reject *:*"], "ipv4_address": "185.101.34.74", "latitude": 59.8636, "longitude": 10.7961, "distance": 144.58302104642053}, {"nickname": "klaxzynetxor", "fingerprint": "3C31905C651F5C94966C923BBD4E1DBD6D9DFB56", "or_addresses": ["91.190.155.70:443", "[2a0e:dc0:4:18ac::1]:443"], "flags": ["Fast", "HSDir", "Running", "Stable", "V2Dir", "Valid"], "country": "no", "consensus_weight": 680, "observed_bandwidth": 787582, "advertised_bandwidth": 787582, "exit_policy": ["reject *:*"], "ipv4_address": "91.190.155.70", "latitude": 59.8636, "longitude": 10.7961, "distance": 144.58302104642053}, {"nickname": "BugzBurgers", "fingerprint": "830AEEB2AAEED24C618A88902E155E9BC71A68B8", "or_addresses": ["185.101.34.108:443"], "flags": ["BadExit", "Fast", "MiddleOnly", "Running", "Stable", "Valid"], "country": "no", "consensus_weight": 12000, "observed_bandwidth": 10990592, "advertised_bandwidth": 10990592, "exit_policy": ["reject 0.0.0.0/8:*", "reject 169.254.0.0/16:*", "reject 127.0.0.0/8:*", "reject 192.168.0.0/16:*", "reject 10.0.0.0/8:*", "reject 172.16.0.0/12:*", "reject 185.101.34.108:*", "accept *:20-21", "accept *:43", "accept *:53", "accept *:80", "accept *:110", "accept *:143", "accept *:220", "accept *:443", "accept *:873", "accept *:989-990", "accept *:991", "accept *:992", "accept *:993", "accept *:995", "accept *:1194", "accept *:1293", "accept *:3690", "accept *:4321", "accept *:5222-5223", "accept *:5228", "accept *:9418", "accept *:11371", "accept *:64738", "reject *:*"], "ipv4_address": "185.101.34.108", "latitude": 59.8636, "longitude": 10.7961, "distance": 144.58302104642053}, {"nickname": "MTacTRelay", "fingerprint": "4216299418D750031BD29E2378D7819D8E9F74B6", "or_addresses": ["85.226.159.174:2201"], "flags": ["Fast", "HSDir", "Running", "Stable", "V2Dir", "Valid"], "country": "se", "consensus_weight": 1900, "observed_bandwidth": 2661148, "advertised_bandwidth": 2661148, "exit_policy": ["reject *:*"], "ipv4_address": "85.226.159.174", "latitude": 59.3974, "longitude": 13.5055, "distance": 226.01198316818534}, {"nickname": "pollan", "fingerprint": "977C2A3158FAD567DE92FA99CDB3D70E6201D804", "or_addresses": ["176.10.131.101:9001"], "flags": ["Running", "Stable", "V2Dir", "Valid"], "country": "se", "consensus_weight": 22, "observed_bandwidth": 231963, "advertised_bandwidth": 204800, "exit_policy": ["reject *:*"], "ipv4_address": "176.10.131.101", "latitude": 59.3974, "longitude": 13.5055, "distance": 226.01198316818534}, {"nickname": "beatifulpeople", "fingerprint": "0F2E1CB5403A576FBABF8362764A225E454BA799", "or_addresses": ["185.181.60.66:443", "[2a03:94e0:ffff:185:181:60:0:66]:443"], "flags": ["Fast", "Running", "Valid"], "country": "no", "consensus_weight": 21000, "observed_bandwidth": 20003840, "advertised_bandwidth": 20003840, "exit_policy": ["reject *:*"], "ipv4_address": "185.181.60.66", "latitude": 59.1728, "longitude": 10.2221, "distance": 227.03461387303517}, {"nickname": "HjelmEnterprises02", "fingerprint": "C5F0591A16BD68EB88170D921B0E331F180E624B", "or_addresses": ["192.121.108.237:9001"], "flags": ["Fast", "Running", "V2Dir", "Valid"], "country": "se", "consensus_weight": 3500, "observed_bandwidth": 3949951, "advertised_bandwidth": 3949951, "exit_policy": ["reject *:*"], "ipv4_address": "192.121.108.237", "latitude": 59.5892, "longitude": 15.2256, "distance": 272.68796454100396}, {"nickname": "HjelmEnterprises01", "fingerprint": "CA4ABBB7FC65D3EBEEA0B5BD2AEE373A59888669", "or_addresses": ["192.121.108.236:9001"], "flags": ["Fast", "Running", "V2Dir", "Valid"], "country": "se", "consensus_weight": 80, "observed_bandwidth": 3898261, "advertised_bandwidth": 3898261, "exit_policy": ["reject *:*"], "ipv4_address": "192.121.108.236", "latitude": 59.5892, "longitude": 15.2256, "distance": 272.68796454100396}, {"nickname": "rainyValbo", "fingerprint": "C15A8BE46A0025371C3C41247CF8911AD82A7A1C", "or_addresses": ["213.141.71.102:4433"], "flags": ["Running", "Stable", "V2Dir", "Valid"], "country": "se", "consensus_weight": 5, "observed_bandwidth": 107520, "advertised_bandwidth": 102400, "exit_policy": ["reject *:*"], "ipv4_address": "213.141.71.102", "latitude": 60.6462, "longitude": 17.0363, "distance": 311.1622678425569}, {"nickname": "NXNW", "fingerprint": "6CD04D67F68F65C3C872DA0C8C367B7DB09EC895", "or_addresses": ["92.220.169.102:7355", "[2a01:799:b5a:2501:12dd:b1ff:feca:8d9c]:7355"], "flags": ["Fast", "Running", "V2Dir", "Valid"], "country": "no", "consensus_weight": 2200, "observed_bandwidth": 2784256, "advertised_bandwidth": 2560000, "exit_policy": ["reject *:*"], "ipv4_address": "92.220.169.102", "latitude": 60.3905, "longitude": 5.3281, "distance": 338.4133353217299}, {"nickname": "eckestorrelay", "fingerprint": "AF9011B98279B7E9FB9EC6176F1E08C48ED09228", "or_addresses": ["158.174.112.253:9001"], "flags": ["Fast", "Running", "V2Dir", "Valid"], "country": "se", "consensus_weight": 31000, "observed_bandwidth": 26195968, "advertised_bandwidth": 26195968, "exit_policy": ["reject *:*"], "ipv4_address": "158.174.112.253", "latitude": 59.8551, "longitude": 17.6343, "distance": 371.1461333838208}, {"nickname": "RussiaOutOfUkraine", "fingerprint": "0FA14FE7E36580F69978DF58CA7AFE5D528082ED", "or_addresses": ["92.32.77.156:9001"], "flags": ["Running", "Stable", "V2Dir", "Valid"], "country": "se", "consensus_weight": 5, "observed_bandwidth": 109898, "advertised_bandwidth": 102400, "exit_policy": ["reject *:*"], "ipv4_address": "92.32.77.156", "latitude": 57.7065, "longitude": 11.967, "distance": 382.52248890496014}, {"nickname": "stealthstose", "fingerprint": "2B617BAA96C7C479E98B868D9F65B2D64259D7F7", "or_addresses": ["82.196.126.71:9001"], "flags": ["Fast", "Running", "V2Dir", "Valid"], "country": "se", "consensus_weight": 370, "observed_bandwidth": 935081, "advertised_bandwidth": 921600, "exit_policy": ["reject *:*"], "ipv4_address": "82.196.126.71", "latitude": 57.7065, "longitude": 11.967, "distance": 382.52248890496014}, {"nickname": "StudentNode", "fingerprint": "832167BF565B8C5AB8488BEC942FDA442C25B6D9", "or_addresses": ["46.239.125.212:443"], "flags": ["Fast", "HSDir", "Running", "Stable", "V2Dir", "Valid"], "country": "se", "consensus_weight": 1400, "observed_bandwidth": 2292749, "advertised_bandwidth": 2292749, "exit_policy": ["reject *:*"], "ipv4_address": "46.239.125.212", "latitude": 57.7065, "longitude": 11.967, "distance": 382.52248890496014}, {"nickname": "Strelnikov", "fingerprint": "A0BD104E35D36F5630B01EB5370597EB09204C99", "or_addresses": ["98.128.172.245:443"], "flags": ["Fast", "Running", "V2Dir", "Valid"], "country": "se", "consensus_weight": 13000, "observed_bandwidth": 0, "advertised_bandwidth": 0, "exit_policy": ["reject *:*"], "ipv4_address": "98.128.172.245", "latitude": 57.7065, "longitude": 11.967, "distance": 382.52248890496014}, {"nickname": "freeasinfreedom", "fingerprint": "A33F7DB16AA41823C6148EBF72AFAF9DB2B4ADC7", "or_addresses": ["185.213.154.207:58412"], "flags": ["Fast", "Running", "V2Dir", "Valid"], "country": "se", "consensus_weight": 7300, "observed_bandwidth": 7735296, "advertised_bandwidth": 7735296, "exit_policy": ["reject *:*"], "ipv4_address": "185.213.154.207", "latitude": 57.7065, "longitude": 11.967, "distance": 382.52248890496014}, {"nickname": "freeasinfreedom2", "fingerprint": "CEDB98E021C9AFE6CDC549A503A94BC43D02C883", "or_addresses": ["185.213.154.207:59864"], "flags": ["Fast", "Running", "V2Dir", "Valid"], "country": "se", "consensus_weight": 8000, "observed_bandwidth": 7862272, "advertised_bandwidth": 7862272, "exit_policy": ["reject *:*"], "ipv4_address": "185.213.154.207", "latitude": 57.7065, "longitude": 11.967, "distance": 382.52248890496014}, {"nickname": "carbons", "fingerprint": "98350B16551452ABC7F3457D06032CD30F7280CE", "or_addresses": ["158.174.254.104:32000", "[2001:470:27:704::2]:32000"], "flags": ["Fast", "Running", "Stable", "V2Dir", "Valid"], "country": "se", "consensus_weight": 19000, "observed_bandwidth": 14919680, "advertised_bandwidth": 13107200, "exit_policy": ["reject *:*"], "ipv4_address": "158.174.254.104", "latitude": 57.6568, "longitude": 12.0998, "distance": 388.7550524587411}, {"nickname": "unryzerRelay", "fingerprint": "372DE4EF044885ABB756E10024A410F50CF222E0", "or_addresses": ["83.190.71.129:9001"], "flags": ["Fast", "HSDir", "Running", "Stable", "V2Dir", "Valid"], "country": "se", "consensus_weight": 120, "observed_bandwidth": 484420, "advertised_bandwidth": 484420, "exit_policy": ["reject *:*"], "ipv4_address": "83.190.71.129", "latitude": 57.6442, "longitude": 11.9332, "distance": 389.26762467611695}, {"nickname": "bolar", "fingerprint": "A98F492F6531AE3A068DD35395CA9F5BE8F0355C", "or_addresses": ["84.209.253.12:9001"], "flags": ["Fast", "Running", "Stable", "Valid"], "country": "no", "consensus_weight": 1300, "observed_bandwidth": 1918898, "advertised_bandwidth": 1918898, "exit_policy": ["reject *:*"], "ipv4_address": "84.209.253.12", "latitude": 58.9671, "longitude": 5.7614, "distance": 393.5487557095396}, {"nickname": "mdfnet3", "fingerprint": "B83DC1558F0D34353BB992EF93AFEAFDB226A73E", "or_addresses": ["193.11.114.46:9003", "[2001:6b0:30:1000::101]:9050"], "flags": ["Fast", "Running", "V2Dir", "Valid"], "country": "se", "consensus_weight": 430, "observed_bandwidth": 1392452, "advertised_bandwidth": 1392452, "exit_policy": ["reject *:*"], "ipv4_address": "193.11.114.46", "latitude": 57.7963, "longitude": 14.1376, "distance": 402.5467452609556}, {"nickname": "kalleponken4713", "fingerprint": "209B28B72EC1B8EE5C70431E9FE82BE5809E0CAE", "or_addresses": ["88.129.237.136:9002"], "flags": ["Fast", "Running", "Stable", "Valid"], "country": "se", "consensus_weight": 570, "observed_bandwidth": 1205422, "advertised_bandwidth": 1205422, "exit_policy": ["reject *:*"], "ipv4_address": "88.129.237.136", "latitude": 57.4842, "longitude": 12.0737, "distance": 407.71334303602856}, {"nickname": "Karin4713", "fingerprint": "881BFB430CC43BD9D200BA8348C69E9B625CFADF", "or_addresses": ["88.129.237.138:9003"], "flags": ["Fast", "Running", "Stable", "Valid"], "country": "se", "consensus_weight": 530, "observed_bandwidth": 1199377, "advertised_bandwidth": 1199377, "exit_policy": ["reject *:*"], "ipv4_address": "88.129.237.138", "latitude": 57.4842, "longitude": 12.0737, "distance": 407.71334303602856}, {"nickname": "cryptoanarchy1337", "fingerprint": "4789D2D462CF2E569B72C808E9E80FEAC83E1668", "or_addresses": ["70.34.209.58:443", "[2a05:f480:2000:1f1b:5400:4ff:fe57:75f6]:443"], "flags": ["Running", "Stable", "Valid"], "country": "us", "consensus_weight": 32, "observed_bandwidth": 260096, "advertised_bandwidth": 256000, "exit_policy": ["reject *:*"], "ipv4_address": "70.34.209.58", "latitude": 59.3779, "longitude": 17.9155, "distance": 410.21864218408126}, {"nickname": "toros", "fingerprint": "605AB978F3E00E888AF0B7013708CF5CC3F801E8", "or_addresses": ["70.34.222.94:6001", "[2a05:f480:2000:296e:5400:4ff:fe2c:37a5]:6001"], "flags": ["Fast", "Running", "Stable", "Valid"], "country": "us", "consensus_weight": 410, "observed_bandwidth": 1076085, "advertised_bandwidth": 1024000, "exit_policy": ["reject *:*"], "ipv4_address": "70.34.222.94", "latitude": 59.3779, "longitude": 17.9155, "distance": 410.21864218408126}, {"nickname": "nil", "fingerprint": "97E6A009185FCF2A58D884545E4E18FF612B7B06", "or_addresses": ["92.244.31.28:59001"], "flags": ["Fast", "Running", "V2Dir", "Valid"], "country": "se", "consensus_weight": 4200, "observed_bandwidth": 4529152, "advertised_bandwidth": 4194304, "exit_policy": ["reject *:*"], "ipv4_address": "92.244.31.28", "latitude": 59.3779, "longitude": 17.9155, "distance": 410.21864218408126}, {"nickname": "JustRelaying", "fingerprint": "DF95EAB235CDCAD4ED0607E58D9F27B690B1B6D2", "or_addresses": ["70.34.223.2:9001", "[2a05:f480:2000:257f:5400:4ff:fe5e:390c]:9001"], "flags": ["Fast", "Running", "Stable", "Valid"], "country": "us", "consensus_weight": 2100, "observed_bandwidth": 3122022, "advertised_bandwidth": 3072000, "exit_policy": ["reject *:*"], "ipv4_address": "70.34.223.2", "latitude": 59.3779, "longitude": 17.9155, "distance": 410.21864218408126}, {"nickname": "HighEnd2Adatikrit", "fingerprint": "7D5F44DAF701FF0D60CF6D029A3D5A71E4F7F0F8", "or_addresses": ["155.4.244.46:9001"], "flags": ["Fast", "HSDir", "Running", "Stable", "V2Dir", "Valid"], "country": "se", "consensus_weight": 1100, "observed_bandwidth": 2221712, "advertised_bandwidth": 2097152, "exit_policy": ["reject *:*"], "ipv4_address": "155.4.244.46", "latitude": 59.35, "longitude": 17.9167, "distance": 411.8927082642201}, {"nickname": "MyPiRelay", "fingerprint": "678C467657BCFEED4C3D5B12833266C17CB1D25B", "or_addresses": ["85.228.50.30:9001"], "flags": ["Fast", "HSDir", "Running", "Stable", "V2Dir", "Valid"], "country": "se", "consensus_weight": 110, "observed_bandwidth": 1050490, "advertised_bandwidth": 262144, "exit_policy": ["reject *:*"], "ipv4_address": "85.228.50.30", "latitude": 59.3565, "longitude": 17.9651, "distance": 413.8568330171078}, {"nickname": "mnlth", "fingerprint": "F4CEB15E9E34972675A9BE1370989701D7F7D5DA", "or_addresses": ["185.195.233.143:58464"], "flags": ["Fast", "Running", "Stable", "V2Dir", "Valid"], "country": "se", "consensus_weight": 390, "observed_bandwidth": 1157120, "advertised_bandwidth": 1048576, "exit_policy": ["reject *:*"], "ipv4_address": "185.195.233.143", "latitude": 59.3098, "longitude": 17.9796, "distance": 417.2795103508269}, {"nickname": "icepanda", "fingerprint": "429FA76C5E49D6B862CF290EFF7F1E901FCBFBDA", "or_addresses": ["193.234.55.77:443"], "flags": ["Fast", "HSDir", "Running", "Stable", "V2Dir", "Valid"], "country": "jp", "consensus_weight": 250, "observed_bandwidth": 1424678, "advertised_bandwidth": 1424678, "exit_policy": ["reject *:*"], "ipv4_address": "193.234.55.77", "latitude": 59.3247, "longitude": 18.056, "distance": 420.1003686518658}, {"nickname": "korishodpan", "fingerprint": "832D49D1C8218B195294D26E43AE317F42C9EEE0", "or_addresses": ["80.78.22.42:443"], "flags": ["Fast", "Running", "Stable", "Valid"], "country": "se", "consensus_weight": 1200, "observed_bandwidth": 1768423, "advertised_bandwidth": 1768423, "exit_policy": ["reject *:*"], "ipv4_address": "80.78.22.42", "latitude": 59.3247, "longitude": 18.056, "distance": 420.1003686518658}, {"nickname": "Unnamed", "fingerprint": "9CA4AB2B042C173AC56479C69F5F436E9F1E0F94", "or_addresses": ["185.225.114.92:51505"], "flags": ["Fast", "HSDir", "Running", "Stable", "V2Dir", "Valid"], "country": "se", "consensus_weight": 110, "observed_bandwidth": 475322, "advertised_bandwidth": 475322, "exit_policy": ["reject *:*"], "ipv4_address": "185.225.114.92", "latitude": 59.3247, "longitude": 18.056, "distance": 420.1003686518658}, {"nickname": "maatuska", "fingerprint": "BD6A829255CB08E66FBE7D3748363586E46B3810", "or_addresses": ["171.25.193.9:80", "[2001:67c:289c::9]:80"], "flags": ["Authority", "Running", "Stable", "V2Dir", "Valid"], "country": "se", "consensus_weight": 20, "observed_bandwidth": 11379567, "advertised_bandwidth": 51200, "exit_policy": ["reject *:*"], "ipv4_address": "171.25.193.9", "latitude": 59.3247, "longitude": 18.056, "distance": 420.1003686518658}, {"nickname": "ilPrioraTOR", "fingerprint": "EEE004ECC3D29D520403471E5B2AF1E05CA91426", "or_addresses": ["80.78.25.47:443", "[2a0a:3840:8078:25:0:504e:192f:1337]:443"], "flags": ["Fast", "HSDir", "Running", "Stable", "V2Dir", "Valid"], "country": "se", "consensus_weight": 180, "observed_bandwidth": 623352, "advertised_bandwidth": 623352, "exit_policy": ["reject *:*"], "ipv4_address": "80.78.25.47", "latitude": 59.3247, "longitude": 18.056, "distance": 420.1003686518658}, {"nickname": "TORtellino", "fingerprint": "FB4D059F0015FDBFE2270A9E6AB38BDF6ACFF8F0", "or_addresses": ["80.78.25.48:443", "[2a0a:3840:8078:25:0:504e:1930:1337]:443"], "flags": ["Fast", "HSDir", "Running", "Stable", "V2Dir", "Valid"], "country": "se", "consensus_weight": 180, "observed_bandwidth": 597302, "advertised_bandwidth": 597302, "exit_policy": ["reject *:*"], "ipv4_address": "80.78.25.48", "latitude": 59.3247, "longitude": 18.056, "distance": 420.1003686518658}, {"nickname": "543f24423c684e64ad7", "fingerprint": "63C543ECE250118E920437A3D7965E3EA93D04C6", "or_addresses": ["46.39.97.94:9001"], "flags": ["Fast", "Running", "Stable", "Valid"], "country": "se", "consensus_weight": 200, "observed_bandwidth": 899793, "advertised_bandwidth": 899793, "exit_policy": ["reject *:*"], "ipv4_address": "46.39.97.94", "latitude": 59.3274, "longitude": 18.0653, "distance": 420.39421018587933}, {"nickname": "redsox", "fingerprint": "E0A3471C24C9021CC58FBF774203046FD2BC893F", "or_addresses": ["188.126.83.38:443"], "flags": ["Fast", "HSDir", "Running", "Stable", "V2Dir", "Valid"], "country": "se", "consensus_weight": 1900, "observed_bandwidth": 7777431, "advertised_bandwidth": 3276800, "exit_policy": ["reject *:*"], "ipv4_address": "188.126.83.38", "latitude": 59.3274, "longitude": 18.0653, "distance": 420.39421018587933}, {"nickname": "oli", "fingerprint": "0D09185AF590E2943A94EF34E4BE3C265D891DC6", "or_addresses": ["188.93.140.207:9001"], "flags": ["Fast", "Running", "Valid"], "country": "se", "consensus_weight": 5900, "observed_bandwidth": 5509120, "advertised_bandwidth": 5120000, "exit_policy": ["reject *:*"], "ipv4_address": "188.93.140.207", "latitude": 59.3287, "longitude": 18.0717, "distance": 420.62903518355375}, {"nickname": "TheRock", "fingerprint": "1C84C89198911D0C8962AA65C3E4E6530075396E", "or_addresses": ["188.150.19.146:9001"], "flags": ["Fast", "Running", "V2Dir", "Valid"], "country": "se", "consensus_weight": 4500, "observed_bandwidth": 5324868, "advertised_bandwidth": 5120000, "exit_policy": ["reject *:*"], "ipv4_address": "188.150.19.146", "latitude": 59.3287, "longitude": 18.0717, "distance": 420.62903518355375}, {"nickname": "RouTOR", "fingerprint": "7D8E6E541E11BFC69CF0BE52647CAAC2FD82DEA8", "or_addresses": ["13.48.6.153:5001"], "flags": ["Running", "Stable", "V2Dir", "Valid"], "country": "se", "consensus_weight": 5, "observed_bandwidth": 93184, "advertised_bandwidth": 93184, "exit_policy": ["reject *:*"], "ipv4_address": "13.48.6.153", "latitude": 59.3287, "longitude": 18.0717, "distance": 420.62903518355375}, {"nickname": "Unnamed", "fingerprint": "7DAEA6E74A009E3A12CB6EA7A0E5F6FA51A7CF87", "or_addresses": ["94.254.94.45:9001"], "flags": ["Running", "Stable", "V2Dir", "Valid"], "country": "se", "consensus_weight": 5, "observed_bandwidth": 110441, "advertised_bandwidth": 102400, "exit_policy": ["reject *:*"], "ipv4_address": "94.254.94.45", "latitude": 59.3287, "longitude": 18.0717, "distance": 420.62903518355375}, {"nickname": "Trimblelink", "fingerprint": "9C22C01532D030C249DE3A3155C6E3A2BC33B361", "or_addresses": ["46.246.126.62:443"], "flags": ["Fast", "HSDir", "Running", "Stable", "V2Dir", "Valid"], "country": "se", "consensus_weight": 270, "observed_bandwidth": 1911895, "advertised_bandwidth": 793600, "exit_policy": ["reject *:*"], "ipv4_address": "46.246.126.62", "latitude": 59.3287, "longitude": 18.0717, "distance": 420.62903518355375}, {"nickname": "Bifrost", "fingerprint": "9DA5284A51021A711ECAA677C81E5408222B9F2A", "or_addresses": ["213.164.193.245:9001"], "flags": ["Fast", "Running", "V2Dir", "Valid"], "country": "se", "consensus_weight": 23000, "observed_bandwidth": 21235712, "advertised_bandwidth": 21235712, "exit_policy": ["reject *:*"], "ipv4_address": "213.164.193.245", "latitude": 59.3287, "longitude": 18.0717, "distance": 420.62903518355375}, {"nickname": "glxbltrelay", "fingerprint": "AEEA5D8CB2EA19BD17AE705A68E294AB26F279A1", "or_addresses": ["45.15.16.229:22"], "flags": ["Running", "V2Dir", "Valid"], "country": "se", "consensus_weight": 24, "observed_bandwidth": 221078, "advertised_bandwidth": 204800, "exit_policy": ["reject *:*"], "ipv4_address": "45.15.16.229", "latitude": 59.3287, "longitude": 18.0717, "distance": 420.62903518355375}, {"nickname": "bwbtor1", "fingerprint": "C176284FB61ECC8761A06FCEAB498DA848519B17", "or_addresses": ["185.130.45.206:443", "[2a07:e01:3:1ed::1]:443"], "flags": ["Running", "Stable", "V2Dir", "Valid"], "country": "se", "consensus_weight": 10, "observed_bandwidth": 128097, "advertised_bandwidth": 128097, "exit_policy": ["reject *:*"], "ipv4_address": "185.130.45.206", "latitude": 59.3287, "longitude": 18.0717, "distance": 420.62903518355375}, {"nickname": "Unnamed", "fingerprint": "CC417B313E808728B019D8244707D1DDE04D9827", "or_addresses": ["185.217.0.89:49834"], "flags": ["Running", "Stable", "V2Dir", "Valid"], "country": "se", "consensus_weight": 18, "observed_bandwidth": 187363, "advertised_bandwidth": 185344, "exit_policy": ["reject *:*"], "ipv4_address": "185.217.0.89", "latitude": 59.3287, "longitude": 18.0717, "distance": 420.62903518355375}, {"nickname": "KeKoSE", "fingerprint": "DB41FF1ECDE43FC17756FCE59F0FFDE9352D86B2", "or_addresses": ["45.8.147.197:9001"], "flags": ["BadExit", "Fast", "MiddleOnly", "Running", "Stable", "Valid"], "country": "se", "consensus_weight": 14000, "observed_bandwidth": 13242368, "advertised_bandwidth": 13242368, "exit_policy": ["reject *:*"], "ipv4_address": "45.8.147.197", "latitude": 59.3287, "longitude": 18.0717, "distance": 420.62903518355375}, {"nickname": "somerelay", "fingerprint": "ECDC405E49183B2EAF579ACD42B443AEA2CF3729", "or_addresses": ["185.81.109.2:9001"], "flags": ["Fast", "Running", "Stable", "V2Dir", "Valid"], "country": "se", "consensus_weight": 420, "observed_bandwidth": 1040154, "advertised_bandwidth": 1024000, "exit_policy": ["reject *:*"], "ipv4_address": "185.81.109.2", "latitude": 59.3287, "longitude": 18.0717, "distance": 420.62903518355375}, {"nickname": "LisaM", "fingerprint": "EEA500A216DAA83E7815F2C46786652935FD7351", "or_addresses": ["13.48.17.31:9001"], "flags": ["Fast", "HSDir", "Running", "Stable", "V2Dir", "Valid"], "country": "se", "consensus_weight": 370, "observed_bandwidth": 1418769, "advertised_bandwidth": 1048576, "exit_policy": ["reject *:*"], "ipv4_address": "13.48.17.31", "latitude": 59.3287, "longitude": 18.0717, "distance": 420.62903518355375}, {"nickname": "anonymous", "fingerprint": "EE482116B2A49A2B64536526EADD8DE932F691CD", "or_addresses": ["155.4.110.37:9001"], "flags": ["Fast", "HSDir", "Running", "Stable", "V2Dir", "Valid"], "country": "se", "consensus_weight": 120, "observed_bandwidth": 551247, "advertised_bandwidth": 512000, "exit_policy": ["reject *:*"], "ipv4_address": "155.4.110.37", "latitude": 59.241, "longitude": 17.9808, "distance": 421.42903657285285}, {"nickname": "etai7ieHaigh5Hug", "fingerprint": "69A6DF681B649A8E4ABD7AF9E883F618426F2C27", "or_addresses": ["83.251.229.112:5574"], "flags": ["Running", "Stable", "V2Dir", "Valid"], "country": "se", "consensus_weight": 21, "observed_bandwidth": 194560, "advertised_bandwidth": 194560, "exit_policy": ["reject *:*"], "ipv4_address": "83.251.229.112", "latitude": 59.275, "longitude": 18.0435, "distance": 422.40884039392716}, {"nickname": "torRelay271", "fingerprint": "8D7ED7BBE21DFCD6FFC0B8D567BEB52219DEC797", "or_addresses": ["129.151.218.233:9001"], "flags": ["Fast", "Running", "Stable", "V2Dir", "Valid"], "country": "us", "consensus_weight": 1500, "observed_bandwidth": 6164255, "advertised_bandwidth": 1048576, "exit_policy": ["reject *:*"], "ipv4_address": "129.151.218.233", "latitude": 59.2466, "longitude": 18.1168, "distance": 427.61840990516606}, {"nickname": "diettor", "fingerprint": "153D282FA1D5CE874CA34E2833DBF34C0C53F79B", "or_addresses": ["85.229.10.78:443"], "flags": ["Fast", "Running", "V2Dir", "Valid"], "country": "se", "consensus_weight": 8000, "observed_bandwidth": 10375609, "advertised_bandwidth": 10375609, "exit_policy": ["reject *:*"], "ipv4_address": "85.229.10.78", "latitude": 59.2322, "longitude": 18.1257, "distance": 428.90270744841547}, {"nickname": "agrajag", "fingerprint": "98EF3981F766F9F87D7C399E6DD0FFC3867711AF", "or_addresses": ["46.252.3.115:11311", "[2001:470:deb8:a5::2]:11311"], "flags": ["Fast", "HSDir", "Running", "Stable", "V2Dir", "Valid"], "country": "se", "consensus_weight": 5400, "observed_bandwidth": 7923734, "advertised_bandwidth": 6144000, "exit_policy": ["reject *:*"], "ipv4_address": "46.252.3.115", "latitude": 59.167, "longitude": 18.1458, "distance": 433.79098856016464}, {"nickname": "MunkRelay", "fingerprint": "37E10625D44850181964310E27375D6A4B5F8242", "or_addresses": ["92.32.191.99:9001"], "flags": ["Fast", "Running", "V2Dir", "Valid"], "country": "se", "consensus_weight": 870, "observed_bandwidth": 1557121, "advertised_bandwidth": 1536000, "exit_policy": ["reject *:*"], "ipv4_address": "92.32.191.99", "latitude": 56.6709, "longitude": 12.859, "distance": 503.4994364304823}, {"nickname": "insist", "fingerprint": "014BD09636373B78CC28BA70E36C7190E3DE236A", "or_addresses": ["5.57.243.47:993"], "flags": ["Fast", "Running", "V2Dir", "Valid"], "country": "se", "consensus_weight": 19000, "observed_bandwidth": 12853248, "advertised_bandwidth": 12853248, "exit_policy": ["reject *:*"], "ipv4_address": "5.57.243.47", "latitude": 56.8746, "longitude": 14.8124, "distance": 512.7789105972133}, {"nickname": "ASCII", "fingerprint": "B14CA24D7FC694DDE1E8D3B2EB15D0D0F86C12BD", "or_addresses": ["81.170.128.221:9001"], "flags": ["Running", "V2Dir", "Valid"], "country": "se", "consensus_weight": 41, "observed_bandwidth": 4190618, "advertised_bandwidth": 4190618, "exit_policy": ["reject *:*"], "ipv4_address": "81.170.128.221", "latitude": 63.8247, "longitude": 20.2559, "distance": 545.3548254345694}, {"nickname": "localPenpal1", "fingerprint": "807C1F0D6A729268C1F8E2AC72C8EAE2D9D9396F", "or_addresses": ["212.112.156.88:6247"], "flags": ["Fast", "HSDir", "Running", "Stable", "V2Dir", "Valid"], "country": "dk", "consensus_weight": 750, "observed_bandwidth": 1578512, "advertised_bandwidth": 1578512, "exit_policy": ["reject *:*"], "ipv4_address": "212.112.156.88", "latitude": 56.1709, "longitude": 10.146, "distance": 556.3573645849254}, {"nickname": "bluesnake", "fingerprint": "16F7E9E93D6CC469392AD0BA020A3F359DF98345", "or_addresses": ["5.150.196.99:9001", "[2001:470:28:228::100]:9001"], "flags": ["Running", "Stable", "V2Dir", "Valid"], "country": "se", "consensus_weight": 37, "observed_bandwidth": 361787, "advertised_bandwidth": 262144, "exit_policy": ["reject *:*"], "ipv4_address": "5.150.196.99", "latitude": 56.1979, "longitude": 15.5162, "distance": 598.6324412339169}, {"nickname": "toni3TOR4", "fingerprint": "1EB0E62C2284A61C4C099097B25132CE114D4EA0", "or_addresses": ["146.70.80.19:9001"], "flags": ["Fast", "Running", "Stable", "Valid"], "country": "dk", "consensus_weight": 2000, "observed_bandwidth": 2366464, "advertised_bandwidth": 2366464, "exit_policy": ["reject *:*"], "ipv4_address": "146.70.80.19", "latitude": 55.7327, "longitude": 12.3656, "distance": 603.3496008734102}, {"nickname": "TheLightSpecter", "fingerprint": "C3438AB740682F46F221672991BEF5100AEA1438", "or_addresses": ["146.70.80.101:9001"], "flags": ["Fast", "Running", "Stable", "Valid"], "country": "dk", "consensus_weight": 440, "observed_bandwidth": 1351012, "advertised_bandwidth": 1024000, "exit_policy": ["reject *:*"], "ipv4_address": "146.70.80.101", "latitude": 55.7327, "longitude": 12.3656, "distance": 603.3496008734102}, {"nickname": "maRn", "fingerprint": "E727F86CDD8E4AB025C7785A307C327C8CA0F745", "or_addresses": ["77.215.233.2:9099"], "flags": ["Running", "Stable", "V2Dir", "Valid"], "country": "dk", "consensus_weight": 34, "observed_bandwidth": 272812, "advertised_bandwidth": 256000, "exit_policy": ["reject *:*"], "ipv4_address": "77.215.233.2", "latitude": 55.7248, "longitude": 12.4432, "distance": 604.6715351971158}, {"nickname": "BlueGene", "fingerprint": "E95619FE77B2B3C96638D4EF6629AC0EEBB2F1AE", "or_addresses": ["93.160.17.86:9025"], "flags": ["Fast", "HSDir", "Running", "Stable", "V2Dir", "Valid"], "country": "dk", "consensus_weight": 1400, "observed_bandwidth": 2890123, "advertised_bandwidth": 1441792, "exit_policy": ["reject *:*"], "ipv4_address": "93.160.17.86", "latitude": 55.6808, "longitude": 12.542, "distance": 610.1560440370098}, {"nickname": "TaageHemmingAgner", "fingerprint": "C0F05AF3B4347631F92200B2DB987B5B73AC71C9", "or_addresses": ["89.150.132.19:9001", "[2a05:f6c7:7155::12ad]:9001"], "flags": ["Fast", "HSDir", "Running", "Stable", "V2Dir", "Valid"], "country": "dk", "consensus_weight": 4400, "observed_bandwidth": 4515840, "advertised_bandwidth": 4096000, "exit_policy": ["reject *:*"], "ipv4_address": "89.150.132.19", "latitude": 55.6588, "longitude": 12.0825, "distance": 610.2044380085441}, {"nickname": "pikszis", "fingerprint": "E78B8256253D0C45E5ECDE44B328863AB5123050", "or_addresses": ["188.150.76.252:58833"], "flags": ["Fast", "Running", "Stable", "V2Dir", "Valid"], "country": "se", "consensus_weight": 530, "observed_bandwidth": 1550336, "advertised_bandwidth": 1048576, "exit_policy": ["reject *:*"], "ipv4_address": "188.150.76.252", "latitude": 55.7037, "longitude": 13.1946, "distance": 613.0165258796679}, {"nickname": "partyplanet", "fingerprint": "FB52C73C8B728ABDE014DB30DC53D160A71E5708", "or_addresses": ["78.82.181.114:9002"], "flags": ["Fast", "HSDir", "Running", "Stable", "V2Dir", "Valid"], "country": "se", "consensus_weight": 1600, "observed_bandwidth": 2894266, "advertised_bandwidth": 2894266, "exit_policy": ["reject *:*"], "ipv4_address": "78.82.181.114", "latitude": 55.6078, "longitude": 12.9982, "distance": 621.7102278681037}, {"nickname": "torelay", "fingerprint": "58BCF5CD85C32AC4B66AD52845141E9D75CB662E", "or_addresses": ["128.76.152.2:4433"], "flags": ["Fast", "HSDir", "Running", "Stable", "V2Dir", "Valid"], "country": "dk", "consensus_weight": 500, "observed_bandwidth": 1239271, "advertised_bandwidth": 1048576, "exit_policy": ["reject *:*"], "ipv4_address": "128.76.152.2", "latitude": 55.5563, "longitude": 9.717, "distance": 627.629775252214}, {"nickname": "7ltorrelay", "fingerprint": "8A74269598AEA937F12CD8BD86FB712EAF62D0EA", "or_addresses": ["217.61.218.70:9001"], "flags": ["Fast", "HSDir", "Running", "Stable", "V2Dir", "Valid"], "country": "dk", "consensus_weight": 5900, "observed_bandwidth": 7439232, "advertised_bandwidth": 5120000, "exit_policy": ["reject *:*"], "ipv4_address": "217.61.218.70", "latitude": 55.5563, "longitude": 9.717, "distance": 627.629775252214}, {"nickname": "itpol2", "fingerprint": "8972DAD573422DB5D895CC593C459D7374C6A893", "or_addresses": ["89.150.131.83:443"], "flags": ["Fast", "HSDir", "Running", "Stable", "V2Dir", "Valid"], "country": "dk", "consensus_weight": 440, "observed_bandwidth": 1069319, "advertised_bandwidth": 1048576, "exit_policy": ["reject *:*"], "ipv4_address": "89.150.131.83", "latitude": 55.4589, "longitude": 12.18, "distance": 632.7942918624487}, {"nickname": "ramstor1", "fingerprint": "AF475359500A11B48E11561CB282955DF7AA15D0", "or_addresses": ["95.154.25.29:9001"], "flags": ["Fast", "HSDir", "Running", "Stable", "V2Dir", "Valid"], "country": "dk", "consensus_weight": 1300, "observed_bandwidth": 2176149, "advertised_bandwidth": 2176000, "exit_policy": ["reject *:*"], "ipv4_address": "95.154.25.29", "latitude": 55.3715, "longitude": 9.1116, "distance": 654.1709280901731}, {"nickname": "kettuRelay", "fingerprint": "A212D9DA883496D447CC8584BF384342CAB36499", "or_addresses": ["109.204.232.254:443", "[2a00:8780:14:4f9f::1]:443"], "flags": ["Fast", "Running", "Stable", "Valid"], "country": "fi", "consensus_weight": 890, "observed_bandwidth": 1651111, "advertised_bandwidth": 1572864, "exit_policy": ["reject *:*"], "ipv4_address": "109.204.232.254", "latitude": 61.482, "longitude": 23.9532, "distance": 671.9727418918123}, {"nickname": "Xandere", "fingerprint": "940EBDD43D2589F1D899C61479E6719FE8D66211", "or_addresses": ["217.140.182.89:9001"], "flags": ["Running", "V2Dir", "Valid"], "country": "fi", "consensus_weight": 0, "observed_bandwidth": 0, "advertised_bandwidth": 0, "exit_policy": ["reject *:*"], "ipv4_address": "217.140.182.89", "latitude": 61.2605, "longitude": 24.0663, "distance": 679.408251699645}, {"nickname": "hacksaxRackett", "fingerprint": "3DFC91005FC1DD4CC6623F25955EB496E66E969A", "or_addresses": ["79.136.26.14:9001"], "flags": ["Fast", "Running", "Stable", "V2Dir", "Valid"], "country": "se", "consensus_weight": 6400, "observed_bandwidth": 6905856, "advertised_bandwidth": 6144000, "exit_policy": ["reject *:*"], "ipv4_address": "79.136.26.14", "latitude": 65.5864, "longitude": 22.1457, "distance": 729.1475553340048}, {"nickname": "hamburgoo", "fingerprint": "CD192E1521505F902AC31D17FA9D37D03275BC6A", "or_addresses": ["159.48.38.30:9001"], "flags": ["Running", "Stable", "V2Dir", "Valid"], "country": "de", "consensus_weight": 5, "observed_bandwidth": 111009, "advertised_bandwidth": 102400, "exit_policy": ["reject *:*"], "ipv4_address": "159.48.38.30", "latitude": 54.5339, "longitude": 9.9898, "distance": 738.4319949304897}, {"nickname": "snailkit", "fingerprint": "B771269758DC649748360BA8A2D13337F548AA21", "or_addresses": ["185.100.86.121:443"], "flags": ["BadExit", "Fast", "MiddleOnly", "Running", "Stable", "Valid"], "country": "fi", "consensus_weight": 28000, "observed_bandwidth": 22549327, "advertised_bandwidth": 22549327, "exit_policy": ["reject 0.0.0.0/8:*", "reject 169.254.0.0/16:*", "reject 127.0.0.0/8:*", "reject 192.168.0.0/16:*", "reject 10.0.0.0/8:*", "reject 172.16.0.0/12:*", "reject 185.100.86.121:*", "accept *:20-21", "accept *:22", "accept *:23", "accept *:43", "accept *:53", "accept *:79", "accept *:80-81", "accept *:88", "accept *:110", "accept *:143", "accept *:194", "accept *:220", "accept *:389", "accept *:443", "accept *:464", "accept *:465", "accept *:531", "accept *:543-544", "accept *:554", "accept *:563", "accept *:587", "accept *:636", "accept *:706", "accept *:749", "accept *:873", "accept *:902-904", "accept *:981", "accept *:989-990", "accept *:991", "accept *:992", "accept *:993", "accept *:994", "accept *:995", "accept *:1194", "accept *:1220", "accept *:1293", "accept *:1500", "accept *:1533", "accept *:1677", "accept *:1723", "accept *:1755", "accept *:1863", "accept *:2082", "accept *:2083", "accept *:2086-2087", "accept *:2095-2096", "accept *:2102-2104", "accept *:3128", "accept *:3389", "accept *:3690", "accept *:4321", "accept *:4643", "accept *:5050", "accept *:5190", "accept *:5222-5223", "accept *:5228", "accept *:5900", "accept *:6660-6669", "accept *:6679", "accept *:6697", "accept *:8000", "accept *:8008", "accept *:8074", "accept *:8080", "accept *:8082", "accept *:8087-8088", "accept *:8232-8233", "accept *:8332-8333", "accept *:8443", "accept *:8888", "accept *:9418", "accept *:9999", "accept *:10000", "accept *:11371", "accept *:19294", "accept *:19638", "accept *:50002", "accept *:64738", "reject *:*"], "ipv4_address": "185.100.86.121", "latitude": 60.152, "longitude": 24.8876, "distance": 743.6953187944245}, {"nickname": "relaytown1", "fingerprint": "BA76A31AF4CCA7273A4613A975C1C5E059FE301D", "or_addresses": ["185.100.86.245:443"], "flags": ["BadExit", "Fast", "MiddleOnly", "Running", "Stable", "Valid"], "country": "fi", "consensus_weight": 29000, "observed_bandwidth": 30144126, "advertised_bandwidth": 30144126, "exit_policy": ["reject 0.0.0.0/8:*", "reject 169.254.0.0/16:*", "reject 127.0.0.0/8:*", "reject 192.168.0.0/16:*", "reject 10.0.0.0/8:*", "reject 172.16.0.0/12:*", "reject 185.100.86.245:*", "accept *:20-21", "accept *:43", "accept *:53", "accept *:79", "accept *:80-81", "accept *:88", "accept *:110", "accept *:143", "accept *:194", "accept *:220", "accept *:389", "accept *:443", "accept *:464", "accept *:465", "accept *:531", "accept *:543-544", "accept *:554", "accept *:563", "accept *:587", "accept *:636", "accept *:706", "accept *:749", "accept *:873", "accept *:902-904", "accept *:981", "accept *:989-990", "accept *:991", "accept *:992", "accept *:993", "accept *:994", "accept *:995", "accept *:1194", "accept *:1220", "accept *:1293", "accept *:1500", "accept *:1533", "accept *:1677", "accept *:1723", "accept *:1755", "accept *:1863", "accept *:2082", "accept *:2083", "accept *:2086-2087", "accept *:2095-2096", "accept *:2102-2104", "accept *:3128", "accept *:3389", "accept *:3690", "accept *:4321", "accept *:4643", "accept *:5050", "accept *:5190", "accept *:5222-5223", "accept *:5228", "accept *:5900", "accept *:6660-6669", "accept *:6679", "accept *:6697", "accept *:8000", "accept *:8008", "accept *:8074", "accept *:8080", "accept *:8082", "accept *:8087-8088", "accept *:8232-8233", "accept *:8332-8333", "accept *:8443", "accept *:8888", "accept *:9418", "accept *:9999", "accept *:10000", "accept *:11371", "accept *:19294", "accept *:19638", "accept *:50002", "accept *:64738", "reject *:*"], "ipv4_address": "185.100.86.245", "latitude": 60.152, "longitude": 24.8876, "distance": 743.6953187944245}, {"nickname": "relaytown2", "fingerprint": "CEDF6F8F5E3F09D4E06D5A68F58D8B7E3ABE4C07", "or_addresses": ["185.100.86.122:443"], "flags": ["BadExit", "Fast", "MiddleOnly", "Running", "Stable", "Valid"], "country": "fi", "consensus_weight": 23000, "observed_bandwidth": 21592564, "advertised_bandwidth": 21592564, "exit_policy": ["reject 0.0.0.0/8:*", "reject 169.254.0.0/16:*", "reject 127.0.0.0/8:*", "reject 192.168.0.0/16:*", "reject 10.0.0.0/8:*", "reject 172.16.0.0/12:*", "reject 185.100.86.122:*", "accept *:20-21", "accept *:43", "accept *:53", "accept *:79", "accept *:80-81", "accept *:88", "accept *:110", "accept *:143", "accept *:194", "accept *:220", "accept *:389", "accept *:443", "accept *:464", "accept *:465", "accept *:531", "accept *:543-544", "accept *:554", "accept *:563", "accept *:587", "accept *:636", "accept *:706", "accept *:749", "accept *:873", "accept *:902-904", "accept *:981", "accept *:989-990", "accept *:991", "accept *:992", "accept *:993", "accept *:994", "accept *:995", "accept *:1194", "accept *:1220", "accept *:1293", "accept *:1500", "accept *:1533", "accept *:1677", "accept *:1723", "accept *:1755", "accept *:1863", "accept *:2082", "accept *:2083", "accept *:2086-2087", "accept *:2095-2096", "accept *:2102-2104", "accept *:3128", "accept *:3389", "accept *:3690", "accept *:4321", "accept *:4643", "accept *:5050", "accept *:5190", "accept *:5222-5223", "accept *:5228", "accept *:5900", "accept *:6660-6669", "accept *:6679", "accept *:6697", "accept *:8000", "accept *:8008", "accept *:8074", "accept *:8080", "accept *:8082", "accept *:8087-8088", "accept *:8232-8233", "accept *:8332-8333", "accept *:8443", "accept *:8888", "accept *:9418", "accept *:9999", "accept *:10000", "accept *:11371", "accept *:19294", "accept *:19638", "accept *:50002", "accept *:64738", "reject *:*"], "ipv4_address": "185.100.86.122", "latitude": 60.152, "longitude": 24.8876, "distance": 743.6953187944245}, {"nickname": "CooRelay", "fingerprint": "097761255FF0C6FEEDEA787D9F389EA431C27882", "or_addresses": ["84.231.41.122:12002"], "flags": ["Fast", "Running", "Stable", "V2Dir", "Valid"], "country": "fi", "consensus_weight": 92, "observed_bandwidth": 487624, "advertised_bandwidth": 487624, "exit_policy": ["reject *:*"], "ipv4_address": "84.231.41.122", "latitude": 60.1797, "longitude": 24.9344, "distance": 745.4529965220947}, {"nickname": "doerak", "fingerprint": "13809CC1C07828752A248CDBC81869C52E76BEBD", "or_addresses": ["65.108.210.174:443", "[2a01:4f9:c011:3711::1]:443"], "flags": ["Fast", "Running", "Stable", "Valid"], "country": "fi", "consensus_weight": 13000, "observed_bandwidth": 10755072, "advertised_bandwidth": 10240000, "exit_policy": ["reject *:*"], "ipv4_address": "65.108.210.174", "latitude": 60.1797, "longitude": 24.9344, "distance": 745.4529965220947}, {"nickname": "esko", "fingerprint": "23DC295D771D51DA981008D1B9702A03C64488D8", "or_addresses": ["188.127.197.42:9001"], "flags": ["Fast", "HSDir", "Running", "Stable", "V2Dir", "Valid"], "country": "fi", "consensus_weight": 120, "observed_bandwidth": 530790, "advertised_bandwidth": 524288, "exit_policy": ["reject *:*"], "ipv4_address": "188.127.197.42", "latitude": 60.1797, "longitude": 24.9344, "distance": 745.4529965220947}, {"nickname": "Stonedance", "fingerprint": "31EBFFD7BC38A74F1D6CA5B1779136E0A95DDEFC", "or_addresses": ["65.109.167.102:54782", "[2a01:4f9:c010:e608::1]:54782"], "flags": ["Fast", "Running", "Stable", "Valid"], "country": "fi", "consensus_weight": 16000, "observed_bandwidth": 16611276, "advertised_bandwidth": 16611276, "exit_policy": ["reject *:*"], "ipv4_address": "65.109.167.102", "latitude": 60.1797, "longitude": 24.9344, "distance": 745.4529965220947}, {"nickname": "bigFool", "fingerprint": "6B5CF62B7636FA9A459B82C5D4B79715568CBC28", "or_addresses": ["65.109.227.36:22"], "flags": ["Fast", "Running", "Valid"], "country": "fi", "consensus_weight": 36000, "observed_bandwidth": 24481398, "advertised_bandwidth": 24481398, "exit_policy": ["reject *:*"], "ipv4_address": "65.109.227.36", "latitude": 60.1797, "longitude": 24.9344, "distance": 745.4529965220947}, {"nickname": "updog", "fingerprint": "7FB70F5D870CF5F19E12F33F7CFF6735354F6B4E", "or_addresses": ["65.109.126.37:4433", "[2a01:4f9:3051:19ca::2]:4433"], "flags": ["Fast", "HSDir", "Running", "Stable", "V2Dir", "Valid"], "country": "fi", "consensus_weight": 17000, "observed_bandwidth": 14979249, "advertised_bandwidth": 14979249, "exit_policy": ["reject *:*"], "ipv4_address": "65.109.126.37", "latitude": 60.1797, "longitude": 24.9344, "distance": 745.4529965220947}, {"nickname": "tr10110110", "fingerprint": "96D85D543C54C68D0403955EB11E032F336AAC4F", "or_addresses": ["65.109.225.81:10339", "[2a01:4f9:c011:9360::1]:10339"], "flags": ["Fast", "HSDir", "Running", "Stable", "V2Dir", "Valid"], "country": "fi", "consensus_weight": 620, "observed_bandwidth": 1484580, "advertised_bandwidth": 1310720, "exit_policy": ["reject *:*"], "ipv4_address": "65.109.225.81", "latitude": 60.1797, "longitude": 24.9344, "distance": 745.4529965220947}, {"nickname": "dvadeAtornaut", "fingerprint": "BC14319205C5BDF45282C830E0CEB6B3C53D62B1", "or_addresses": ["65.109.224.248:9001", "[2a01:4f9:c012:55a2::1]:9001"], "flags": ["Running", "V2Dir", "Valid"], "country": "fi", "consensus_weight": 1, "observed_bandwidth": 6109907, "advertised_bandwidth": 6109907, "exit_policy": ["reject *:*"], "ipv4_address": "65.109.224.248", "latitude": 60.1797, "longitude": 24.9344, "distance": 745.4529965220947}, {"nickname": "Northpole", "fingerprint": "C65EBB3EE5C48AD20A1FAC63A3365AF12DF346FA", "or_addresses": ["88.195.223.91:9001"], "flags": ["Fast", "Running", "Stable", "V2Dir", "Valid"], "country": "fi", "consensus_weight": 4400, "observed_bandwidth": 4415488, "advertised_bandwidth": 4194304, "exit_policy": ["reject *:*"], "ipv4_address": "88.195.223.91", "latitude": 60.1797, "longitude": 24.9344, "distance": 745.4529965220947}, {"nickname": "homebox57", "fingerprint": "E816C4D4CDA9810D2CB1371257462FF6BCE4DF91", "or_addresses": ["84.248.93.241:9001"], "flags": ["Fast", "Running", "Stable", "V2Dir", "Valid"], "country": "fi", "consensus_weight": 410, "observed_bandwidth": 995279, "advertised_bandwidth": 995279, "exit_policy": ["reject *:*"], "ipv4_address": "84.248.93.241", "latitude": 60.1797, "longitude": 24.9344, "distance": 745.4529965220947}, {"nickname": "torrelay8428546", "fingerprint": "07816F5EF2E310139C2AF386E6E86BCFDCABFFAB", "or_addresses": ["95.216.195.161:9001", "[2a01:4f9:c011:9f3c::1]:9001"], "flags": ["Fast", "Running", "Stable", "Valid"], "country": "fi", "consensus_weight": 14000, "observed_bandwidth": 10509998, "advertised_bandwidth": 10485760, "exit_policy": ["reject *:*"], "ipv4_address": "95.216.195.161", "latitude": 60.1719, "longitude": 24.9347, "distance": 745.6799838645395}, {"nickname": "rspn1", "fingerprint": "271195A5D81F9F47FC4E0F0F7FD84FF3565342E7", "or_addresses": ["65.21.180.151:443", "[2a01:4f9:c010:9d66::1]:443"], "flags": ["Running", "V2Dir", "Valid"], "country": "fi", "consensus_weight": 1, "observed_bandwidth": 0, "advertised_bandwidth": 0, "exit_policy": ["reject *:*"], "ipv4_address": "65.21.180.151", "latitude": 60.1719, "longitude": 24.9347, "distance": 745.6799838645395}, {"nickname": "finTor", "fingerprint": "2BAF092E8667C00CA3D9686C76D8EC3CC6BC7C5B", "or_addresses": ["95.217.15.125:443", "[2a01:4f9:c010:607c::1]:443"], "flags": ["Fast", "Running", "Stable", "Valid"], "country": "fi", "consensus_weight": 20000, "observed_bandwidth": 17958403, "advertised_bandwidth": 17958403, "exit_policy": ["reject *:*"], "ipv4_address": "95.217.15.125", "latitude": 60.1719, "longitude": 24.9347, "distance": 745.6799838645395}, {"nickname": "epimetheus", "fingerprint": "318A8147942C44707F506D4CEAC45CDC4FB06C4D", "or_addresses": ["95.217.133.157:19001"], "flags": ["Running", "Stable", "V2Dir", "Valid"], "country": "fi", "consensus_weight": 21, "observed_bandwidth": 217088, "advertised_bandwidth": 204800, "exit_policy": ["reject *:*"], "ipv4_address": "95.217.133.157", "latitude": 60.1719, "longitude": 24.9347, "distance": 745.6799838645395}, {"nickname": "Tordom", "fingerprint": "32A43B0C153C2298FDBD24A3B298DA9368DC73B8", "or_addresses": ["95.216.168.133:9001", "[2a01:4f9:c010:1997::1]:9001"], "flags": ["Fast", "Running", "Stable", "Valid"], "country": "fi", "consensus_weight": 9600, "observed_bandwidth": 7855844, "advertised_bandwidth": 7855844, "exit_policy": ["reject *:*"], "ipv4_address": "95.216.168.133", "latitude": 60.1719, "longitude": 24.9347, "distance": 745.6799838645395}, {"nickname": "bogustorus", "fingerprint": "3431940DFB4643A3EE3F4465BFF2655CA9BDEB96", "or_addresses": ["95.216.154.9:9001", "[2a01:4f9:c010:121f::8443]:9001"], "flags": ["Fast", "HSDir", "Running", "Stable", "V2Dir", "Valid"], "country": "fi", "consensus_weight": 390, "observed_bandwidth": 1076511, "advertised_bandwidth": 1024000, "exit_policy": ["reject *:*"], "ipv4_address": "95.216.154.9", "latitude": 60.1719, "longitude": 24.9347, "distance": 745.6799838645395}, {"nickname": "hyperion", "fingerprint": "41E041EC676622FFEE59F56BC75B99CD0D47F653", "or_addresses": ["95.216.98.55:143", "[2a01:4f9:2b:1148::]:143"], "flags": ["Fast", "HSDir", "Running", "Stable", "V2Dir", "Valid"], "country": "fi", "consensus_weight": 54000, "observed_bandwidth": 38521022, "advertised_bandwidth": 38521022, "exit_policy": ["reject *:*"], "ipv4_address": "95.216.98.55", "latitude": 60.1719, "longitude": 24.9347, "distance": 745.6799838645395}, {"nickname": "SORGaming", "fingerprint": "46BACCCE4BC3CAA63D2FE770DA2AE3CF401B9CF0", "or_addresses": ["65.21.73.109:9001", "[2a01:4f9:3b:4def:65:21:73:109]:9001"], "flags": ["Fast", "Running", "Stable", "V2Dir", "Valid"], "country": "fi", "consensus_weight": 5300, "observed_bandwidth": 0, "advertised_bandwidth": 0, "exit_policy": ["reject *:*"], "ipv4_address": "65.21.73.109", "latitude": 60.1719, "longitude": 24.9347, "distance": 745.6799838645395}, {"nickname": "Pentesting12", "fingerprint": "4B02D746D96A5F80666F4A3B265C66F789D47BDD", "or_addresses": ["95.216.24.100:9002", "[2a01:4f9:2a:189e::2]:9002"], "flags": ["Fast", "Running", "Stable", "Valid"], "country": "fi", "consensus_weight": 25000, "observed_bandwidth": 20535467, "advertised_bandwidth": 20535467, "exit_policy": ["reject *:*"], "ipv4_address": "95.216.24.100", "latitude": 60.1719, "longitude": 24.9347, "distance": 745.6799838645395}, {"nickname": "Torrot01", "fingerprint": "58BC63142C881F88D08E071DEB63DBA09DE62141", "or_addresses": ["95.217.28.112:9001"], "flags": ["Fast", "Running", "Valid"], "country": "fi", "consensus_weight": 36000, "observed_bandwidth": 29613406, "advertised_bandwidth": 29613406, "exit_policy": ["reject *:*"], "ipv4_address": "95.217.28.112", "latitude": 60.1719, "longitude": 24.9347, "distance": 745.6799838645395}, {"nickname": "WragingRelay", "fingerprint": "7451225CBA6B689530738AF26E5B9CA2B051827E", "or_addresses": ["95.217.156.221:443", "[2a01:4f9:c012:7412::1]:443"], "flags": ["Fast", "Running", "Stable", "Valid"], "country": "fi", "consensus_weight": 19000, "observed_bandwidth": 18872433, "advertised_bandwidth": 18872433, "exit_policy": ["reject *:*"], "ipv4_address": "95.217.156.221", "latitude": 60.1719, "longitude": 24.9347, "distance": 745.6799838645395}, {"nickname": "FOXACID", "fingerprint": "74C429A1C0E3EDE03B3ADF61BEA83D5540232A65", "or_addresses": ["95.217.14.105:9001", "[2a01:4f9:c010:6b27::1]:9001"], "flags": ["Fast", "Running", "Stable", "Valid"], "country": "fi", "consensus_weight": 14000, "observed_bandwidth": 10888326, "advertised_bandwidth": 10878976, "exit_policy": ["reject *:*"], "ipv4_address": "95.217.14.105", "latitude": 60.1719, "longitude": 24.9347, "distance": 745.6799838645395}, {"nickname": "FASCIA", "fingerprint": "774A36D20AAA6E2A1265AB6E1FFC9B50C95872AB", "or_addresses": ["95.217.135.55:9001", "[2a01:4f9:c010:7573::1]:9001"], "flags": ["Fast", "Running", "Stable", "Valid"], "country": "fi", "consensus_weight": 13000, "observed_bandwidth": 10895336, "advertised_bandwidth": 10878976, "exit_policy": ["reject *:*"], "ipv4_address": "95.217.135.55", "latitude": 60.1719, "longitude": 24.9347, "distance": 745.6799838645395}, {"nickname": "Pentesting15", "fingerprint": "785DBB3C711E8E7E75DC81982FB20DCB0B18F1C8", "or_addresses": ["95.216.24.100:9006", "[2a01:4f9:2a:189e::2]:9006"], "flags": ["Fast", "Running", "Stable", "Valid"], "country": "fi", "consensus_weight": 24000, "observed_bandwidth": 20524554, "advertised_bandwidth": 20524554, "exit_policy": ["reject *:*"], "ipv4_address": "95.216.24.100", "latitude": 60.1719, "longitude": 24.9347, "distance": 745.6799838645395}, {"nickname": "uovobw", "fingerprint": "86F2828CB4B0875515607F4E2097951542B713EF", "or_addresses": ["95.217.2.206:9001", "[2a01:4f9:c010:4d4e::1]:9001"], "flags": ["Fast", "HSDir", "Running", "Stable", "V2Dir", "Valid"], "country": "fi", "consensus_weight": 380, "observed_bandwidth": 1037578, "advertised_bandwidth": 1024000, "exit_policy": ["reject *:*"], "ipv4_address": "95.217.2.206", "latitude": 60.1719, "longitude": 24.9347, "distance": 745.6799838645395}, {"nickname": "torsten", "fingerprint": "873C5AC9DCFBA2C852EB1EF4DB08EAAB472DB31B", "or_addresses": ["135.181.144.230:443", "[2a01:4f9:c010:e041::1]:443"], "flags": ["Fast", "Running", "Stable", "Valid"], "country": "fi", "consensus_weight": 25000, "observed_bandwidth": 24018332, "advertised_bandwidth": 24018332, "exit_policy": ["reject *:*"], "ipv4_address": "135.181.144.230", "latitude": 60.1719, "longitude": 24.9347, "distance": 745.6799838645395}, {"nickname": "FASHIONCLEFT", "fingerprint": "9BA9334DA769A7C96D464F9EA38A970088B6FECB", "or_addresses": ["95.217.223.54:9001", "[2a01:4f9:c010:9ed2::1]:9001"], "flags": ["Fast", "Running", "Stable", "Valid"], "country": "fi", "consensus_weight": 14000, "observed_bandwidth": 10870001, "advertised_bandwidth": 10870001, "exit_policy": ["reject *:*"], "ipv4_address": "95.217.223.54", "latitude": 60.1719, "longitude": 24.9347, "distance": 745.6799838645395}, {"nickname": "torntgonl", "fingerprint": "9C8AB0D5FEF24281DFCDB94784A6AE4F1BA2968F", "or_addresses": ["95.217.129.223:9001", "[2a01:4f9:c010:6a56::1]:9001"], "flags": ["Fast", "HSDir", "Running", "Stable", "V2Dir", "Valid"], "country": "fi", "consensus_weight": 590, "observed_bandwidth": 6721336, "advertised_bandwidth": 524288, "exit_policy": ["reject *:*"], "ipv4_address": "95.217.129.223", "latitude": 60.1719, "longitude": 24.9347, "distance": 745.6799838645395}, {"nickname": "mindstab", "fingerprint": "AB7E26C3AF536A87E5099335A4CBE832E2194311", "or_addresses": ["95.216.193.39:9001", "[2a01:4f9:c010:30ce::1]:9001"], "flags": ["Fast", "Running", "Stable", "V2Dir", "Valid"], "country": "fi", "consensus_weight": 1400, "observed_bandwidth": 1961127, "advertised_bandwidth": 1945600, "exit_policy": ["reject *:*"], "ipv4_address": "95.216.193.39", "latitude": 60.1719, "longitude": 24.9347, "distance": 745.6799838645395}, {"nickname": "EGOTISTICALGIRAFFE", "fingerprint": "B17D73C6AC1AA5D6A7EFAF538768BF354F2547AE", "or_addresses": ["65.21.54.19:9001", "[2a01:4f9:c010:6abe::1]:9001"], "flags": ["Fast", "Running", "Stable", "Valid"], "country": "fi", "consensus_weight": 14000, "observed_bandwidth": 10873294, "advertised_bandwidth": 10873294, "exit_policy": ["reject *:*"], "ipv4_address": "65.21.54.19", "latitude": 60.1719, "longitude": 24.9347, "distance": 745.6799838645395}, {"nickname": "7d9", "fingerprint": "BA43BCA5B6CCF86274F8CDFFFF7A692F5F95B777", "or_addresses": ["65.21.57.134:443"], "flags": ["Fast", "HSDir", "Running", "Stable", "V2Dir", "Valid"], "country": "fi", "consensus_weight": 1700, "observed_bandwidth": 6616951, "advertised_bandwidth": 1228800, "exit_policy": ["reject *:*"], "ipv4_address": "65.21.57.134", "latitude": 60.1719, "longitude": 24.9347, "distance": 745.6799838645395}, {"nickname": "Dystopia3", "fingerprint": "C543B0F9F5DAAE0A403C3B9B77E7E240EBC3C5FF", "or_addresses": ["65.21.106.169:9001", "[2a01:4f9:c010:bf0a::1]:9001"], "flags": ["Fast", "Running", "Stable", "Valid"], "country": "fi", "consensus_weight": 4200, "observed_bandwidth": 4093639, "advertised_bandwidth": 4093639, "exit_policy": ["reject *:*"], "ipv4_address": "65.21.106.169", "latitude": 60.1719, "longitude": 24.9347, "distance": 745.6799838645395}, {"nickname": "Pentesting13", "fingerprint": "C57A8B0C2DAE933916398359EC4DCC53D4FF329B", "or_addresses": ["95.216.24.100:9003", "[2a01:4f9:2a:189e::2]:9003"], "flags": ["Fast", "Running", "Stable", "Valid"], "country": "fi", "consensus_weight": 29000, "observed_bandwidth": 20496780, "advertised_bandwidth": 20496780, "exit_policy": ["reject *:*"], "ipv4_address": "95.216.24.100", "latitude": 60.1719, "longitude": 24.9347, "distance": 745.6799838645395}, {"nickname": "Anonymous", "fingerprint": "CA154F8252D8424F1F4EBF05965D3F33A98A71E3", "or_addresses": ["95.217.14.17:443", "[2a01:4f9:c010:3b44::1]:443"], "flags": ["Fast", "Running", "Stable", "Valid"], "country": "fi", "consensus_weight": 15000, "observed_bandwidth": 10520576, "advertised_bandwidth": 10485760, "exit_policy": ["reject *:*"], "ipv4_address": "95.217.14.17", "latitude": 60.1719, "longitude": 24.9347, "distance": 745.6799838645395}, {"nickname": "TRFIAntti", "fingerprint": "CD6E8C548704F4CE544CD71365D46F110518FBED", "or_addresses": ["95.216.140.159:443", "[2a01:4f9:c010:49b::159]:443"], "flags": ["Fast", "Running", "Stable", "Valid"], "country": "fi", "consensus_weight": 14000, "observed_bandwidth": 12583238, "advertised_bandwidth": 12583238, "exit_policy": ["reject *:*"], "ipv4_address": "95.216.140.159", "latitude": 60.1719, "longitude": 24.9347, "distance": 745.6799838645395}, {"nickname": "RandomRelay9998", "fingerprint": "D52676267E050A3891769E97773A1E1E87ED3F14", "or_addresses": ["95.217.183.194:9001", "[2a01:4f9:c010:8840::1]:9001"], "flags": ["Fast", "HSDir", "Running", "Stable", "V2Dir", "Valid"], "country": "fi", "consensus_weight": 110, "observed_bandwidth": 581987, "advertised_bandwidth": 512000, "exit_policy": ["reject *:*"], "ipv4_address": "95.217.183.194", "latitude": 60.1719, "longitude": 24.9347, "distance": 745.6799838645395}, {"nickname": "Pentesting14", "fingerprint": "ED27E27D332AB216BD9DB454C90880E8F8314ACD", "or_addresses": ["95.216.24.100:9015", "[2a01:4f9:2a:189e::2]:9015"], "flags": ["Fast", "Running", "Valid"], "country": "fi", "consensus_weight": 23000, "observed_bandwidth": 19061229, "advertised_bandwidth": 19061229, "exit_policy": ["reject *:*"], "ipv4_address": "95.216.24.100", "latitude": 60.1719, "longitude": 24.9347, "distance": 745.6799838645395}, {"nickname": "plan9kaos", "fingerprint": "FEFE52F4095639C81CB435A32DA29C14C9150816", "or_addresses": ["135.181.62.96:8050", "[2a01:4f9:4b:4160::2]:8050"], "flags": ["Fast", "HSDir", "Running", "Stable", "V2Dir", "Valid"], "country": "fi", "consensus_weight": 870, "observed_bandwidth": 1738684, "advertised_bandwidth": 1536000, "exit_policy": ["reject *:*"], "ipv4_address": "135.181.62.96", "latitude": 60.1719, "longitude": 24.9347, "distance": 745.6799838645395}, {"nickname": "seasite", "fingerprint": "11F401E027AE8B2525B47654B760B6C754142A3E", "or_addresses": ["185.193.125.208:443", "[2a0a:3840:1337:125:0:b9c1:7dd0:1337]:443"], "flags": ["Fast", "Running", "Valid"], "country": "se", "consensus_weight": 1700, "observed_bandwidth": 2190330, "advertised_bandwidth": 2097152, "exit_policy": ["reject *:*"], "ipv4_address": "185.193.125.208", "latitude": 60.1717, "longitude": 24.9349, "distance": 745.6961354475849}, {"nickname": "elSalvaTOR", "fingerprint": "2BBE11EC7CE623B4D76C9762D2BE28DF569B3E26", "or_addresses": ["185.193.126.19:443", "[2a0a:3840:1337:126:0:b9c1:7e13:1337]:443"], "flags": ["Fast", "Running", "Stable", "V2Dir", "Valid"], "country": "se", "consensus_weight": 190, "observed_bandwidth": 854016, "advertised_bandwidth": 854016, "exit_policy": ["reject *:*"], "ipv4_address": "185.193.126.19", "latitude": 60.1717, "longitude": 24.9349, "distance": 745.6961354475849}, {"nickname": "Unnamed", "fingerprint": "6C697464438F64DF0FC5651B167AC3CEA2318DD6", "or_addresses": ["37.228.129.163:49980"], "flags": ["Running", "Stable", "V2Dir", "Valid"], "country": "fi", "consensus_weight": 22, "observed_bandwidth": 200991, "advertised_bandwidth": 200991, "exit_policy": ["reject *:*"], "ipv4_address": "37.228.129.163", "latitude": 60.1717, "longitude": 24.9349, "distance": 745.6961354475849}, {"nickname": "TORcoDio", "fingerprint": "9A5F67C5BA8DBD2C5E9FA00EBE5A81D7CCD79C81", "or_addresses": ["185.193.126.10:443", "[2a0a:3840:1337:126:0:b9c1:7e0a:1337]:443"], "flags": ["Fast", "HSDir", "Running", "Stable", "V2Dir", "Valid"], "country": "se", "consensus_weight": 160, "observed_bandwidth": 588578, "advertised_bandwidth": 588578, "exit_policy": ["reject *:*"], "ipv4_address": "185.193.126.10", "latitude": 60.1717, "longitude": 24.9349, "distance": 745.6961354475849}, {"nickname": "Unnamed", "fingerprint": "E50BB8F9C05A30AE0AF44C661BFE396711D1DEF2", "or_addresses": ["37.228.129.164:51476"], "flags": ["Running", "Stable", "V2Dir", "Valid"], "country": "fi", "consensus_weight": 17, "observed_bandwidth": 177519, "advertised_bandwidth": 177152, "exit_policy": ["reject *:*"], "ipv4_address": "37.228.129.164", "latitude": 60.1717, "longitude": 24.9349, "distance": 745.6961354475849}, {"nickname": "Unnamed", "fingerprint": "E914AB205FA5ABE60906AB9E7EE527B6809A46C1", "or_addresses": ["37.228.129.29:31749"], "flags": ["Running", "Stable", "V2Dir", "Valid"], "country": "fi", "consensus_weight": 19, "observed_bandwidth": 186481, "advertised_bandwidth": 186368, "exit_policy": ["reject *:*"], "ipv4_address": "37.228.129.29", "latitude": 60.1717, "longitude": 24.9349, "distance": 745.6961354475849}, {"nickname": "doNOTbeEVIL", "fingerprint": "40B54CCB56D67432D169E693F0B258A0A97C5136", "or_addresses": ["84.155.116.226:443", "[2003:d5:af40:1b00:11:32ff:fe2c:3ea1]:443"], "flags": ["Fast", "Running", "V2Dir", "Valid"], "country": "de", "consensus_weight": 11000, "observed_bandwidth": 8220672, "advertised_bandwidth": 8192000, "exit_policy": ["reject *:*"], "ipv4_address": "84.155.116.226", "latitude": 54.3978, "longitude": 10.1392, "distance": 752.5911965457643}, {"nickname": "FireMateria", "fingerprint": "2F98E853A570AC7A79B4082364B781AD67705074", "or_addresses": ["194.76.227.152:9001"], "flags": ["Fast", "HSDir", "Running", "Stable", "V2Dir", "Valid"], "country": "ee", "consensus_weight": 1900, "observed_bandwidth": 3020193, "advertised_bandwidth": 3020193, "exit_policy": ["reject *:*"], "ipv4_address": "194.76.227.152", "latitude": 59.4381, "longitude": 24.7369, "distance": 759.1174680514629}, {"nickname": "f89g65f21", "fingerprint": "87B3557F3E792217E2BC4E9923EACA4AEC5BA9C3", "or_addresses": ["90.191.148.173:9001"], "flags": ["Fast", "Running", "Stable", "V2Dir", "Valid"], "country": "ee", "consensus_weight": 270, "observed_bandwidth": 1154048, "advertised_bandwidth": 1154048, "exit_policy": ["reject *:*"], "ipv4_address": "90.191.148.173", "latitude": 59.4381, "longitude": 24.7369, "distance": 759.1174680514629}, {"nickname": "YouPrivateStation", "fingerprint": "B863D52FDC1BF4023BFEAAE48E90B11430597B9E", "or_addresses": ["38.180.10.101:9418"], "flags": ["Fast", "HSDir", "Running", "Stable", "V2Dir", "Valid"], "country": "us", "consensus_weight": 1000, "observed_bandwidth": 1892205, "advertised_bandwidth": 1892205, "exit_policy": ["reject *:*"], "ipv4_address": "38.180.10.101", "latitude": 59.4381, "longitude": 24.7369, "distance": 759.1174680514629}, {"nickname": "Tor4Homer", "fingerprint": "83011891EA82DD60DC1469173CA72450AB4DD05F", "or_addresses": ["86.103.219.249:9001"], "flags": ["Fast", "Running", "V2Dir", "Valid"], "country": "de", "consensus_weight": 1600, "observed_bandwidth": 2332618, "advertised_bandwidth": 2097152, "exit_policy": ["reject *:*"], "ipv4_address": "86.103.219.249", "latitude": 54.3059, "longitude": 10.1423, "distance": 762.7564952057882}, {"nickname": "MrNobody", "fingerprint": "20BB62EC1CF5A13AF759B7D6E80704A20BF23530", "or_addresses": ["93.227.47.59:9001"], "flags": ["Fast", "Running", "V2Dir", "Valid"], "country": "de", "consensus_weight": 3300, "observed_bandwidth": 3791178, "advertised_bandwidth": 3791178, "exit_policy": ["reject *:*"], "ipv4_address": "93.227.47.59", "latitude": 53.8749, "longitude": 11.4555, "distance": 807.2436636093654}, {"nickname": "Unnamed", "fingerprint": "DF58CCFC84FE65DC9668B1C2FFA8A5420308D4A4", "or_addresses": ["93.212.52.137:9001"], "flags": ["Fast", "Running", "Valid"], "country": "de", "consensus_weight": 380, "observed_bandwidth": 949697, "advertised_bandwidth": 949697, "exit_policy": ["reject *:*"], "ipv4_address": "93.212.52.137", "latitude": 53.8584, "longitude": 13.6842, "distance": 820.6541892505454}, {"nickname": "mytorrelay", "fingerprint": "CFB8CE28D1B12EEB8662511AFBC1D0C6F79065A8", "or_addresses": ["80.131.209.185:9005"], "flags": ["Fast", "Running", "V2Dir", "Valid"], "country": "de", "consensus_weight": 1500, "observed_bandwidth": 1970176, "advertised_bandwidth": 1970176, "exit_policy": ["reject *:*"], "ipv4_address": "80.131.209.185", "latitude": 53.752, "longitude": 9.6622, "distance": 827.1773252127743}, {"nickname": "ansarelay", "fingerprint": "F5C2EB578B9842069DE560F00F808B6BD3554E2A", "or_addresses": ["62.78.187.78:993"], "flags": ["Fast", "HSDir", "Running", "Stable", "V2Dir", "Valid"], "country": "fi", "consensus_weight": 110, "observed_bandwidth": 534932, "advertised_bandwidth": 512000, "exit_policy": ["reject *:*"], "ipv4_address": "62.78.187.78", "latitude": 64.9913, "longitude": 25.4942, "distance": 828.3985661982247}, {"nickname": "pilvi", "fingerprint": "0F6A04276CB95D042AEE8D28B745878F827D210D", "or_addresses": ["87.100.220.163:9011", "[2001:14ba:ab00:cd33::1]:9011"], "flags": ["Running", "Stable", "V2Dir", "Valid"], "country": "fi", "consensus_weight": 47, "observed_bandwidth": 585121, "advertised_bandwidth": 204800, "exit_policy": ["reject *:*"], "ipv4_address": "87.100.220.163", "latitude": 65.013, "longitude": 25.4957, "distance": 829.4724484848351}, {"nickname": "dc6jgk1", "fingerprint": "486740353B905AA4731F82C0B4CC25821A62C6E3", "or_addresses": ["87.139.33.217:443"], "flags": ["Running", "Stable", "V2Dir", "Valid"], "country": "de", "consensus_weight": 5, "observed_bandwidth": 98986, "advertised_bandwidth": 98986, "exit_policy": ["reject *:*"], "ipv4_address": "87.139.33.217", "latitude": 53.6788, "longitude": 10.2263, "distance": 831.8424248758747}, {"nickname": "BenVonMecklenburg", "fingerprint": "A6F0E969E46191CABC6577D40964EEFF49F646E1", "or_addresses": ["31.19.8.146:9001", "[2a02:8109:8900:21a8:42b0:34ff:fe36:d87]:9001"], "flags": ["Fast", "HSDir", "Running", "Stable", "V2Dir", "Valid"], "country": "de", "consensus_weight": 1300, "observed_bandwidth": 1988746, "advertised_bandwidth": 1988746, "exit_policy": ["reject *:*"], "ipv4_address": "31.19.8.146", "latitude": 53.7407, "longitude": 14.0493, "distance": 837.4583601233502}, {"nickname": "QuasiBakedCup", "fingerprint": "7930C26DE8288E9A0E03AE497D4AAFBB727E632D", "or_addresses": ["185.223.53.3:9031"], "flags": ["Fast", "Running", "V2Dir", "Valid"], "country": "pl", "consensus_weight": 15000, "observed_bandwidth": 13453312, "advertised_bandwidth": 13453312, "exit_policy": ["reject *:*"], "ipv4_address": "185.223.53.3", "latitude": 54.5732, "longitude": 18.3947, "distance": 838.6005400185556}, {"nickname": "Unnamed", "fingerprint": "807FBF273B9C41C7D16F1FE88646EFBC660E38B8", "or_addresses": ["91.199.137.50:9001", "[2a11:3b80::225:90ff:fef3:c4e]:9001"], "flags": ["Running", "Stable", "V2Dir", "Valid"], "country": "cz", "consensus_weight": 1, "observed_bandwidth": 0, "advertised_bandwidth": 0, "exit_policy": ["reject *:*"], "ipv4_address": "91.199.137.50", "latitude": 59.0, "longitude": 26.0, "distance": 843.8170756158135}, {"nickname": "MoneroRealSafe", "fingerprint": "8B257BA58E0AE6953DB22B0BC71459C083D6C7E9", "or_addresses": ["80.79.123.81:443"], "flags": ["Running", "Stable", "Valid"], "country": "ee", "consensus_weight": 9, "observed_bandwidth": 181771, "advertised_bandwidth": 181771, "exit_policy": ["reject *:*"], "ipv4_address": "80.79.123.81", "latitude": 59.0, "longitude": 26.0, "distance": 843.8170756158135}, {"nickname": "greengrasgoose", "fingerprint": "B3A54198A0B9EDC28BF024EA04435C5A6EEA3D92", "or_addresses": ["84.132.209.61:9001"], "flags": ["Fast", "Running", "Stable", "Valid"], "country": "de", "consensus_weight": 1600, "observed_bandwidth": 1952417, "advertised_bandwidth": 1952417, "exit_policy": ["reject *:*"], "ipv4_address": "84.132.209.61", "latitude": 53.5791, "longitude": 9.9942, "distance": 844.1362326098475}, {"nickname": "flachmon", "fingerprint": "8E5B1326F580D02E539FDAABF99A3BDE1077252E", "or_addresses": ["95.81.29.152:9001"], "flags": ["Fast", "Running", "V2Dir", "Valid"], "country": "de", "consensus_weight": 35000, "observed_bandwidth": 25633634, "advertised_bandwidth": 25633634, "exit_policy": ["reject *:*"], "ipv4_address": "95.81.29.152", "latitude": 53.5674, "longitude": 10.055, "distance": 845.0879182573419}, {"nickname": "MeesaEditConfig", "fingerprint": "25D0C6EF6AE704C7E30E103C26463B7DD772683B", "or_addresses": ["77.0.31.46:9001"], "flags": ["Fast", "Running", "V2Dir", "Valid"], "country": "de", "consensus_weight": 230, "observed_bandwidth": 857088, "advertised_bandwidth": 512000, "exit_policy": ["reject *:*"], "ipv4_address": "77.0.31.46", "latitude": 53.5659, "longitude": 10.0254, "distance": 845.4200259407041}, {"nickname": "TorNodeHH1", "fingerprint": "E96D88066FAC29DD6005DC6C5B8DB071ABA52D56", "or_addresses": ["77.3.173.15:9001"], "flags": ["Fast", "Running", "V2Dir", "Valid"], "country": "de", "consensus_weight": 1300, "observed_bandwidth": 2169818, "advertised_bandwidth": 2098176, "exit_policy": ["reject *:*"], "ipv4_address": "77.3.173.15", "latitude": 53.5659, "longitude": 10.0254, "distance": 845.4200259407041}, {"nickname": "LightSteelBlue", "fingerprint": "F12D17F296C7928E534D3CEF42BE8FA96961D550", "or_addresses": ["77.1.34.224:9000"], "flags": ["Fast", "Running", "V2Dir", "Valid"], "country": "de", "consensus_weight": 690, "observed_bandwidth": 1279598, "advertised_bandwidth": 1279598, "exit_policy": ["reject *:*"], "ipv4_address": "77.1.34.224", "latitude": 53.5651, "longitude": 9.9739, "distance": 845.8059211188979}, {"nickname": "cryzrelay04", "fingerprint": "101C18886B30BB23B36CBAAD159261188852E112", "or_addresses": ["82.149.227.123:9001", "[2a01:440:108:11:82:149:227:123]:9001"], "flags": ["Fast", "Running", "Stable", "V2Dir", "Valid"], "country": "de", "consensus_weight": 170, "observed_bandwidth": 617472, "advertised_bandwidth": 617472, "exit_policy": ["reject *:*"], "ipv4_address": "82.149.227.123", "latitude": 53.5544, "longitude": 9.996, "distance": 846.8626047412404}, {"nickname": "cryzrelay03", "fingerprint": "7A6EC43FD4CD5990230FCE48EC37AFC578E36CE6", "or_addresses": ["82.149.227.124:8080", "[2a01:440:108:11:82:149:227:124]:8080"], "flags": ["Fast", "Running", "Stable", "V2Dir", "Valid"], "country": "de", "consensus_weight": 170, "observed_bandwidth": 610304, "advertised_bandwidth": 610304, "exit_policy": ["reject *:*"], "ipv4_address": "82.149.227.124", "latitude": 53.5544, "longitude": 9.996, "distance": 846.8626047412404}, {"nickname": "h3u60M7iPf", "fingerprint": "05C46D155495916A210213006B64CC99FB903CD5", "or_addresses": ["62.27.207.67:9001"], "flags": ["Fast", "Running", "V2Dir", "Valid"], "country": "de", "consensus_weight": 4000, "observed_bandwidth": 4232402, "advertised_bandwidth": 4232402, "exit_policy": ["reject *:*"], "ipv4_address": "62.27.207.67", "latitude": 53.5544, "longitude": 9.9946, "distance": 846.8707011817744}, {"nickname": "freethenetnow", "fingerprint": "160B56E3C7955D735D2479B65E8E7CC58FDF9359", "or_addresses": ["62.158.58.238:9001"], "flags": ["Fast", "Running", "V2Dir", "Valid"], "country": "de", "consensus_weight": 2100, "observed_bandwidth": 2491070, "advertised_bandwidth": 2457600, "exit_policy": ["reject *:*"], "ipv4_address": "62.158.58.238", "latitude": 53.5544, "longitude": 9.9946, "distance": 846.8707011817744}, {"nickname": "AutonomyCube", "fingerprint": "43E413559ABBA610D7447BC71226B557EEC7C060", "or_addresses": ["90.187.52.233:9001"], "flags": ["Running", "Stable", "V2Dir", "Valid"], "country": "de", "consensus_weight": 52, "observed_bandwidth": 327581, "advertised_bandwidth": 327581, "exit_policy": ["reject *:*"], "ipv4_address": "90.187.52.233", "latitude": 53.5544, "longitude": 9.9946, "distance": 846.8707011817744}, {"nickname": "aemrelay3B", "fingerprint": "544D649E70872147C49EB9FEB3D8F80527E8C71B", "or_addresses": ["31.17.53.89:9001"], "flags": ["Running", "Stable", "V2Dir", "Valid"], "country": "de", "consensus_weight": 35, "observed_bandwidth": 265036, "advertised_bandwidth": 262144, "exit_policy": ["reject *:*"], "ipv4_address": "31.17.53.89", "latitude": 53.5544, "longitude": 9.9946, "distance": 846.8707011817744}, {"nickname": "Unnamed", "fingerprint": "58B7D1C01FB4DFC3C29617C63CCD2CDE655902BA", "or_addresses": ["62.27.207.248:9001"], "flags": ["Running", "Stable", "V2Dir", "Valid"], "country": "de", "consensus_weight": 9, "observed_bandwidth": 146534, "advertised_bandwidth": 131072, "exit_policy": ["reject *:*"], "ipv4_address": "62.27.207.248", "latitude": 53.5544, "longitude": 9.9946, "distance": 846.8707011817744}, {"nickname": "OptiHolo", "fingerprint": "7C373375B6939564A66710BEF4144A26E89B148F", "or_addresses": ["95.119.141.227:9001"], "flags": ["Fast", "Running", "V2Dir", "Valid"], "country": "de", "consensus_weight": 3300, "observed_bandwidth": 4074889, "advertised_bandwidth": 4074889, "exit_policy": ["reject *:*"], "ipv4_address": "95.119.141.227", "latitude": 53.5544, "longitude": 9.9946, "distance": 846.8707011817744}, {"nickname": "epsylonhost", "fingerprint": "E5881C8B46052F2975B8FC1C84B7CC06070EFDA8", "or_addresses": ["95.119.119.138:9001"], "flags": ["Running", "V2Dir", "Valid"], "country": "de", "consensus_weight": 5, "observed_bandwidth": 106537, "advertised_bandwidth": 102400, "exit_policy": ["reject *:*"], "ipv4_address": "95.119.119.138", "latitude": 53.5544, "longitude": 9.9946, "distance": 846.8707011817744}, {"nickname": "4713", "fingerprint": "FC775F7C3B031F8BD21AD814C2F168D402664E4B", "or_addresses": ["83.135.88.133:443"], "flags": ["Fast", "Running", "V2Dir", "Valid"], "country": "de", "consensus_weight": 3600, "observed_bandwidth": 3939328, "advertised_bandwidth": 3932160, "exit_policy": ["reject *:*"], "ipv4_address": "83.135.88.133", "latitude": 53.5544, "longitude": 9.9946, "distance": 846.8707011817744}, {"nickname": "hallogen", "fingerprint": "CCB93C6449E2448367A7C7F295980AE407E8183F", "or_addresses": ["134.101.35.139:9001"], "flags": ["Fast", "Running", "V2Dir", "Valid"], "country": "de", "consensus_weight": 220, "observed_bandwidth": 624640, "advertised_bandwidth": 624640, "exit_policy": ["reject *:*"], "ipv4_address": "134.101.35.139", "latitude": 53.5818, "longitude": 13.2816, "distance": 847.5182160788436}, {"nickname": "StillePost", "fingerprint": "529FD6BCE595312A599680153115CDB7E65F02FB", "or_addresses": ["89.186.157.7:443"], "flags": ["Fast", "Running", "V2Dir", "Valid"], "country": "de", "consensus_weight": 1200, "observed_bandwidth": 9908224, "advertised_bandwidth": 1024000, "exit_policy": ["reject *:*"], "ipv4_address": "89.186.157.7", "latitude": 53.5492, "longitude": 9.9418, "distance": 847.7580083801811}, {"nickname": "bunnyriot", "fingerprint": "AB870CF1DC3050CED499AFC008BBFC27564B33C4", "or_addresses": ["217.237.64.167:9001"], "flags": ["Fast", "HSDir", "Running", "Stable", "V2Dir", "Valid"], "country": "de", "consensus_weight": 190, "observed_bandwidth": 618763, "advertised_bandwidth": 618763, "exit_policy": ["reject *:*"], "ipv4_address": "217.237.64.167", "latitude": 53.5492, "longitude": 9.9418, "distance": 847.7580083801811}, {"nickname": "dockertorfromsrc", "fingerprint": "0DDFD28FD5BE8E545EC840EAAF20AE6DE5D7D5CC", "or_addresses": ["37.138.33.10:4431"], "flags": ["Running", "V2Dir", "Valid"], "country": "de", "consensus_weight": 3, "observed_bandwidth": 57344, "advertised_bandwidth": 57344, "exit_policy": ["reject *:*"], "ipv4_address": "37.138.33.10", "latitude": 53.4192, "longitude": 10.2631, "distance": 860.4688110393998}, {"nickname": "ngggermany", "fingerprint": "86DEA9BEF4AFA932C88D1A92D3276C87B36A0B7D", "or_addresses": ["37.138.33.10:8080"], "flags": ["Fast", "Running", "V2Dir", "Valid"], "country": "de", "consensus_weight": 420, "observed_bandwidth": 971917, "advertised_bandwidth": 971917, "exit_policy": ["reject *:*"], "ipv4_address": "37.138.33.10", "latitude": 53.4192, "longitude": 10.2631, "distance": 860.4688110393998}, {"nickname": "rock64", "fingerprint": "997E48FAD9B0390831BABE776EE2D6B169839F6D", "or_addresses": ["84.245.205.181:9001"], "flags": ["Running", "Stable", "V2Dir", "Valid"], "country": "lv", "consensus_weight": 21, "observed_bandwidth": 215411, "advertised_bandwidth": 204800, "exit_policy": ["reject *:*"], "ipv4_address": "84.245.205.181", "latitude": 56.9496, "longitude": 24.0978, "distance": 861.9148200621422}, {"nickname": "muscheln", "fingerprint": "252F45B0A4F1877030472950BE5295D2E2D5852C", "or_addresses": ["178.142.213.195:9001"], "flags": ["Fast", "Running", "V2Dir", "Valid"], "country": "de", "consensus_weight": 5700, "observed_bandwidth": 5087257, "advertised_bandwidth": 5087257, "exit_policy": ["reject *:*"], "ipv4_address": "178.142.213.195", "latitude": 53.5812, "longitude": 8.1069, "distance": 862.162453472803}, {"nickname": "whvger", "fingerprint": "4C3AB72641104E3E7D51A5337E5DBF27BE72C98F", "or_addresses": ["92.116.102.173:9001"], "flags": ["Fast", "Running", "Valid"], "country": "de", "consensus_weight": 190, "observed_bandwidth": 668409, "advertised_bandwidth": 668409, "exit_policy": ["reject *:*"], "ipv4_address": "92.116.102.173", "latitude": 53.5812, "longitude": 8.1069, "distance": 862.162453472803}, {"nickname": "Mainframe", "fingerprint": "67510E534191C9115F080C4565B2F1F348CDF9E7", "or_addresses": ["79.197.238.151:24192"], "flags": ["Fast", "Running", "V2Dir", "Valid"], "country": "de", "consensus_weight": 1100, "observed_bandwidth": 1920286, "advertised_bandwidth": 1920286, "exit_policy": ["reject *:*"], "ipv4_address": "79.197.238.151", "latitude": 53.4212, "longitude": 9.7859, "distance": 862.9105704975655}, {"nickname": "pivonode", "fingerprint": "CEFB90EBB811023358F8ECAC41FC01B69D46A1FC", "or_addresses": ["31.179.8.238:21"], "flags": ["Running", "Stable", "V2Dir", "Valid"], "country": "pl", "consensus_weight": 11, "observed_bandwidth": 272252, "advertised_bandwidth": 204800, "exit_policy": ["reject 0.0.0.0/8:*", "reject 169.254.0.0/16:*", "reject 127.0.0.0/8:*", "reject 192.168.0.0/16:*", "reject 10.0.0.0/8:*", "reject 172.16.0.0/12:*", "reject 31.179.8.238:*", "accept *:6660-6667", "reject *:*"], "ipv4_address": "31.179.8.238", "latitude": 54.3553, "longitude": 18.6519, "distance": 867.7286444146156}, {"nickname": "rpi4torrelay", "fingerprint": "2E4894A3BA2A245093A1B715DA94B0A495F17A97", "or_addresses": ["83.8.247.60:443"], "flags": ["Fast", "Running", "Stable", "Valid"], "country": "pl", "consensus_weight": 4400, "observed_bandwidth": 4275200, "advertised_bandwidth": 4096000, "exit_policy": ["reject *:*"], "ipv4_address": "83.8.247.60", "latitude": 54.353, "longitude": 18.659, "distance": 868.1644899180536}, {"nickname": "Wildtwister", "fingerprint": "03E107A3663E912664F4A934DFF451262C218357", "or_addresses": ["94.100.6.72:443"], "flags": ["Fast", "HSDir", "Running", "Stable", "V2Dir", "Valid"], "country": "lv", "consensus_weight": 470, "observed_bandwidth": 1226691, "advertised_bandwidth": 1048576, "exit_policy": ["reject *:*"], "ipv4_address": "94.100.6.72", "latitude": 56.8597, "longitude": 24.3425, "distance": 879.782761918459}, {"nickname": "Unnamed", "fingerprint": "BFCDE7C44DC8F222216AACFF46D3E28D722D32D3", "or_addresses": ["62.80.227.49:9001"], "flags": ["Running", "Stable", "V2Dir", "Valid"], "country": "lt", "consensus_weight": 35, "observed_bandwidth": 271360, "advertised_bandwidth": 262144, "exit_policy": ["reject *:*"], "ipv4_address": "62.80.227.49", "latitude": 55.9318, "longitude": 23.3289, "distance": 901.324440911038}, {"nickname": "ThisIsNew", "fingerprint": "41586A4A07974409CDE54CC22418C1AF10A5FE5C", "or_addresses": ["94.140.115.60:443"], "flags": ["Running", "Stable", "V2Dir", "Valid"], "country": "lv", "consensus_weight": 5, "observed_bandwidth": 109568, "advertised_bandwidth": 102400, "exit_policy": ["reject *:*"], "ipv4_address": "94.140.115.60", "latitude": 57.0, "longitude": 25.0, "distance": 902.1661235697923}, {"nickname": "R8B7", "fingerprint": "8106D3D43FBD92D5D8EEBC3E5031B268FCDDC425", "or_addresses": ["185.82.126.172:443", "[2a02:7aa0:5000::4c]:443"], "flags": ["Fast", "Running", "Stable", "V2Dir", "Valid"], "country": "se", "consensus_weight": 19000, "observed_bandwidth": 16734448, "advertised_bandwidth": 15728640, "exit_policy": ["reject *:*"], "ipv4_address": "185.82.126.172", "latitude": 57.0, "longitude": 25.0, "distance": 902.1661235697923}, {"nickname": "torbogen2", "fingerprint": "448F821108ED29AA408F281625F66BE1D4BC19F4", "or_addresses": ["85.16.184.70:9002"], "flags": ["Fast", "Running", "V2Dir", "Valid"], "country": "de", "consensus_weight": 12000, "observed_bandwidth": 10361856, "advertised_bandwidth": 9437184, "exit_policy": ["reject *:*"], "ipv4_address": "85.16.184.70", "latitude": 53.1683, "longitude": 8.2092, "distance": 905.8706180591108}, {"nickname": "DonBronRelay", "fingerprint": "E74371243ECC2BFC6471250DDE7A35996C82C370", "or_addresses": ["178.142.15.63:8443"], "flags": ["Fast", "Running", "V2Dir", "Valid"], "country": "de", "consensus_weight": 2300, "observed_bandwidth": 2475008, "advertised_bandwidth": 2475008, "exit_policy": ["reject *:*"], "ipv4_address": "178.142.15.63", "latitude": 53.1683, "longitude": 8.2092, "distance": 905.8706180591108}, {"nickname": "unRELAY", "fingerprint": "787F48EC49DF026DBABACFCCE1A39DD8C5338948", "or_addresses": ["79.213.185.135:9001"], "flags": ["Fast", "Running", "V2Dir", "Valid"], "country": "de", "consensus_weight": 410, "observed_bandwidth": 1252225, "advertised_bandwidth": 1048576, "exit_policy": ["reject *:*"], "ipv4_address": "79.213.185.135", "latitude": 53.092, "longitude": 8.8594, "distance": 906.9183249993827}, {"nickname": "tghb", "fingerprint": "EECC8A06C4DEAF1991DBD01274597CB1143B3585", "or_addresses": ["89.244.194.75:9001"], "flags": ["Fast", "Running", "V2Dir", "Valid"], "country": "de", "consensus_weight": 79, "observed_bandwidth": 412741, "advertised_bandwidth": 409600, "exit_policy": ["reject *:*"], "ipv4_address": "89.244.194.75", "latitude": 53.0511, "longitude": 8.8808, "distance": 911.2053869856175}, {"nickname": "MyRaspberryPi", "fingerprint": "F2A320F50C7CF875EC1CB0DFFC11AEF94A0666A1", "or_addresses": ["84.148.208.129:9001"], "flags": ["Fast", "Running", "V2Dir", "Valid"], "country": "de", "consensus_weight": 3400, "observed_bandwidth": 4092111, "advertised_bandwidth": 4092111, "exit_policy": ["reject *:*"], "ipv4_address": "84.148.208.129", "latitude": 53.0554, "longitude": 8.8092, "distance": 911.447361192028}, {"nickname": "steigerwald", "fingerprint": "70805F1551E840C7376B873E5AC6F3032993E781", "or_addresses": ["195.52.191.24:9001"], "flags": ["Running", "V2Dir", "Valid"], "country": "de", "consensus_weight": 37, "observed_bandwidth": 284672, "advertised_bandwidth": 262144, "exit_policy": ["reject *:*"], "ipv4_address": "195.52.191.24", "latitude": 52.553, "longitude": 13.4528, "distance": 962.5000750696842}, {"nickname": "gnarzkorf", "fingerprint": "ED94E82A94CD7E5D71BB14522E8D213875632451", "or_addresses": ["89.12.136.220:9001"], "flags": ["Running", "V2Dir", "Valid"], "country": "de", "consensus_weight": 33, "observed_bandwidth": 268788, "advertised_bandwidth": 256000, "exit_policy": ["reject *:*"], "ipv4_address": "89.12.136.220", "latitude": 52.553, "longitude": 13.4528, "distance": 962.5000750696842}, {"nickname": "firstTryFFS", "fingerprint": "1C9DFE4455251AC93E3A628F93BF2B9ACC0956D6", "or_addresses": ["77.191.131.243:15001"], "flags": ["Fast", "Running", "Valid"], "country": "de", "consensus_weight": 120, "observed_bandwidth": 529554, "advertised_bandwidth": 512000, "exit_policy": ["reject *:*"], "ipv4_address": "77.191.131.243", "latitude": 52.5363, "longitude": 13.4169, "distance": 964.0648703180258}, {"nickname": "torushopyard", "fingerprint": "F864BDEB66C8A11E209456846499C2F995435797", "or_addresses": ["86.56.60.196:9001", "[2a02:2454:4a5:af00:216:3eff:feab:cd03]:9001"], "flags": ["Fast", "HSDir", "Running", "Stable", "V2Dir", "Valid"], "country": "de", "consensus_weight": 430, "observed_bandwidth": 1230961, "advertised_bandwidth": 1048576, "exit_policy": ["reject *:*"], "ipv4_address": "86.56.60.196", "latitude": 52.5363, "longitude": 13.4169, "distance": 964.0648703180258}, {"nickname": "sweetums", "fingerprint": "D4BEE74ED0FD4F99C40DBB4C02B9785EAC1AC2DA", "or_addresses": ["195.52.132.68:9001"], "flags": ["Fast", "Running", "Valid"], "country": "de", "consensus_weight": 730, "observed_bandwidth": 1284096, "advertised_bandwidth": 1284096, "exit_policy": ["reject *:*"], "ipv4_address": "195.52.132.68", "latitude": 52.5309, "longitude": 13.3537, "distance": 964.1803393989944}, {"nickname": "haubach", "fingerprint": "2F4E21B761E79FEC2F0435B4F608C911640D42D1", "or_addresses": ["89.245.193.66:443"], "flags": ["Fast", "Running", "Valid"], "country": "de", "consensus_weight": 1700, "observed_bandwidth": 2246879, "advertised_bandwidth": 2246879, "exit_policy": ["reject *:*"], "ipv4_address": "89.245.193.66", "latitude": 52.5312, "longitude": 13.3878, "distance": 964.4049910613375}, {"nickname": "Bastard", "fingerprint": "C2EE40EE8451F27C2357E8B1EA1E8E6F642273EB", "or_addresses": ["217.197.86.173:443", "[2001:67c:1401:2051::3]:443"], "flags": ["Running", "Stable", "V2Dir", "Valid"], "country": "de", "consensus_weight": 21, "observed_bandwidth": 220129, "advertised_bandwidth": 204800, "exit_policy": ["reject *:*"], "ipv4_address": "217.197.86.173", "latitude": 52.5312, "longitude": 13.3878, "distance": 964.4049910613375}, {"nickname": "IDidEditTehKonfig", "fingerprint": "79B782C1656B0C8619C68AF1BB57914820C4A537", "or_addresses": ["94.223.143.194:9001"], "flags": ["Running", "V2Dir", "Valid"], "country": "de", "consensus_weight": 5, "observed_bandwidth": 118784, "advertised_bandwidth": 118784, "exit_policy": ["reject *:*"], "ipv4_address": "94.223.143.194", "latitude": 52.5284, "longitude": 13.4742, "distance": 965.3868700092165}, {"nickname": "Mischmaschine", "fingerprint": "33C31C2011271DE71FFA288F37A3AD24A6519C49", "or_addresses": ["188.40.206.5:9001", "[2a01:4f8:221:543::2]:9001"], "flags": ["Running", "Stable", "V2Dir", "Valid"], "country": "de", "consensus_weight": 5, "observed_bandwidth": 111641, "advertised_bandwidth": 102400, "exit_policy": ["reject *:*"], "ipv4_address": "188.40.206.5", "latitude": 52.5203, "longitude": 13.3849, "distance": 965.5876131722861}, {"nickname": "PickANicknameSME", "fingerprint": "8CA0117A0EB69ECEE39E7ED1C8613C7E542B2ABF", "or_addresses": ["84.184.234.134:443"], "flags": ["Fast", "Running", "V2Dir", "Valid"], "country": "de", "consensus_weight": 3900, "observed_bandwidth": 4186463, "advertised_bandwidth": 4186463, "exit_policy": ["reject *:*"], "ipv4_address": "84.184.234.134", "latitude": 52.5203, "longitude": 13.3849, "distance": 965.5876131722861}, {"nickname": "BriarFTW", "fingerprint": "F146DD71DEEBB6BB3D7A638CFFDC3BD43A75640D", "or_addresses": ["78.55.186.141:9001"], "flags": ["Fast", "Running", "V2Dir", "Valid"], "country": "de", "consensus_weight": 790, "observed_bandwidth": 1478565, "advertised_bandwidth": 1478565, "exit_policy": ["reject *:*"], "ipv4_address": "78.55.186.141", "latitude": 52.5203, "longitude": 13.3849, "distance": 965.5876131722861}, {"nickname": "Cryptocat", "fingerprint": "35DA04A92634AF2392CBA6AF158E00B5589A1CFA", "or_addresses": ["31.16.222.74:443"], "flags": ["Running", "Stable", "V2Dir", "Valid"], "country": "de", "consensus_weight": 49, "observed_bandwidth": 419908, "advertised_bandwidth": 409600, "exit_policy": ["reject *:*"], "ipv4_address": "31.16.222.74", "latitude": 52.5196, "longitude": 13.4069, "distance": 965.8331944261564}, {"nickname": "HellGuard", "fingerprint": "499FA01433320491216225801FE0589C250B4D6D", "or_addresses": ["89.245.255.150:7001"], "flags": ["Fast", "Running", "V2Dir", "Valid"], "country": "de", "consensus_weight": 2500, "observed_bandwidth": 3150932, "advertised_bandwidth": 3150932, "exit_policy": ["reject *:*"], "ipv4_address": "89.245.255.150", "latitude": 52.5196, "longitude": 13.4069, "distance": 965.8331944261564}, {"nickname": "AngelWater", "fingerprint": "8DA5C33CE74042EE7FC76439BB3D4AB4ACBA8B90", "or_addresses": ["85.214.232.70:9001", "[2a01:238:4390:b00:8c9f:eee6:ca12:58f0]:9001"], "flags": ["Fast", "Running", "Stable", "Valid"], "country": "de", "consensus_weight": 130, "observed_bandwidth": 598100, "advertised_bandwidth": 512000, "exit_policy": ["reject *:*"], "ipv4_address": "85.214.232.70", "latitude": 52.5201, "longitude": 13.4425, "distance": 966.0539599447126}, {"nickname": "FreedomOfThought", "fingerprint": "CF019F1D92427113250A338BBBA10950442BEA88", "or_addresses": ["85.214.236.165:443", "[2a01:238:42e7:b400:778d:ed2d:68b5:acaa]:443"], "flags": ["Fast", "Running", "V2Dir", "Valid"], "country": "de", "consensus_weight": 18000, "observed_bandwidth": 11719680, "advertised_bandwidth": 11719680, "exit_policy": ["reject *:*"], "ipv4_address": "85.214.236.165", "latitude": 52.5201, "longitude": 13.4425, "distance": 966.0539599447126}, {"nickname": "Kienjoch", "fingerprint": "D11217B44873FD7C879E541844B4C20B9A7E5CFB", "or_addresses": ["85.214.97.206:443", "[2a01:238:4203:7c00:2dcd:efd9:ce81:dd6f]:443"], "flags": ["Fast", "HSDir", "Running", "Stable", "V2Dir", "Valid"], "country": "de", "consensus_weight": 18000, "observed_bandwidth": 11724985, "advertised_bandwidth": 11724985, "exit_policy": ["reject *:*"], "ipv4_address": "85.214.97.206", "latitude": 52.5201, "longitude": 13.4425, "distance": 966.0539599447126}, {"nickname": "highwaytohoell", "fingerprint": "E473D3EDE59B0AA458217731B04588E0F4FE0641", "or_addresses": ["85.214.58.236:9001"], "flags": ["Running", "Stable", "V2Dir", "Valid"], "country": "de", "consensus_weight": 20, "observed_bandwidth": 182704, "advertised_bandwidth": 182704, "exit_policy": ["reject *:*"], "ipv4_address": "85.214.58.236", "latitude": 52.5201, "longitude": 13.4425, "distance": 966.0539599447126}, {"nickname": "alittlehelper", "fingerprint": "F3B02517DA093DB92924E951AB77204563D01356", "or_addresses": ["85.214.149.151:9091"], "flags": ["Running", "Stable", "V2Dir", "Valid"], "country": "de", "consensus_weight": 78, "observed_bandwidth": 466503, "advertised_bandwidth": 393216, "exit_policy": ["reject *:*"], "ipv4_address": "85.214.149.151", "latitude": 52.5201, "longitude": 13.4425, "distance": 966.0539599447126}, {"nickname": "xangaen8", "fingerprint": "BFE40143B22C50F4261FC10750633F1731EE0C43", "or_addresses": ["77.188.90.217:443"], "flags": ["Fast", "Running", "V2Dir", "Valid"], "country": "de", "consensus_weight": 4200, "observed_bandwidth": 3991248, "advertised_bandwidth": 3991248, "exit_policy": ["reject *:*"], "ipv4_address": "77.188.90.217", "latitude": 52.5128, "longitude": 13.4151, "distance": 966.647785864224}, {"nickname": "intercepTor", "fingerprint": "DC6A5AF402821D2B5BE1D72A10EC7CD4C5650571", "or_addresses": ["87.123.152.58:443"], "flags": ["Fast", "Running", "V2Dir", "Valid"], "country": "de", "consensus_weight": 2600, "observed_bandwidth": 3919872, "advertised_bandwidth": 3919872, "exit_policy": ["reject *:*"], "ipv4_address": "87.123.152.58", "latitude": 52.4991, "longitude": 13.3798, "distance": 967.8921190613947}, {"nickname": "HanseTor", "fingerprint": "3C79702BCC4AA498CB8E9FEC8A51A72AE89169EA", "or_addresses": ["91.43.49.230:51901"], "flags": ["Fast", "Running", "V2Dir", "Valid"], "country": "de", "consensus_weight": 2500, "observed_bandwidth": 3265047, "advertised_bandwidth": 3265047, "exit_policy": ["reject *:*"], "ipv4_address": "91.43.49.230", "latitude": 52.4957, "longitude": 13.3419, "distance": 967.9836981172633}, {"nickname": "Fibonacci", "fingerprint": "A38317CEF0440E254FB684813957208261AAB0F2", "or_addresses": ["94.134.48.197:443"], "flags": ["Fast", "Running", "V2Dir", "Valid"], "country": "de", "consensus_weight": 5300, "observed_bandwidth": 5007893, "advertised_bandwidth": 5007893, "exit_policy": ["reject *:*"], "ipv4_address": "94.134.48.197", "latitude": 52.4957, "longitude": 13.3419, "distance": 967.9836981172633}, {"nickname": "s0yb3an", "fingerprint": "C4C462506D54EDC8EFC8E88E32F4AE014755035A", "or_addresses": ["87.171.69.22:10222"], "flags": ["Fast", "Running", "V2Dir", "Valid"], "country": "de", "consensus_weight": 18000, "observed_bandwidth": 14445850, "advertised_bandwidth": 14445850, "exit_policy": ["reject *:*"], "ipv4_address": "87.171.69.22", "latitude": 52.4982, "longitude": 13.4755, "distance": 968.7331693848735}, {"nickname": "TorFakedOrg", "fingerprint": "CE153E3C813185A516C341CF8C2BE6BEFBA7D3AE", "or_addresses": ["91.66.2.46:9001", "[2a02:8109:8000:d:b46b:61d2:be19:167b]:9001"], "flags": ["Fast", "HSDir", "Running", "Stable", "V2Dir", "Valid"], "country": "de", "consensus_weight": 180, "observed_bandwidth": 793034, "advertised_bandwidth": 655360, "exit_policy": ["reject *:*"], "ipv4_address": "91.66.2.46", "latitude": 52.4982, "longitude": 13.4755, "distance": 968.7331693848735}, {"nickname": "JacksCluster", "fingerprint": "691227BF9148D71CC8ACD9B4736CA521C2581645", "or_addresses": ["91.64.134.241:9228"], "flags": ["Fast", "HSDir", "Running", "Stable", "V2Dir", "Valid"], "country": "de", "consensus_weight": 2300, "observed_bandwidth": 3099471, "advertised_bandwidth": 3099471, "exit_policy": ["reject *:*"], "ipv4_address": "91.64.134.241", "latitude": 52.4875, "longitude": 13.3992, "distance": 969.321745921012}, {"nickname": "5b82I0IfxsHI7ekh", "fingerprint": "15AE6FFE0E245A820D4F74EA64B4C304EE555C1D", "or_addresses": ["46.142.122.89:8443"], "flags": ["Fast", "Running", "V2Dir", "Valid"], "country": "de", "consensus_weight": 430, "observed_bandwidth": 979198, "advertised_bandwidth": 979198, "exit_policy": ["reject *:*"], "ipv4_address": "46.142.122.89", "latitude": 52.4859, "longitude": 13.4426, "distance": 969.8334250904984}, {"nickname": "AkisTorNode", "fingerprint": "BF255791000602E74ABE2DA932041D64D4ED5657", "or_addresses": ["31.19.81.71:9001"], "flags": ["Fast", "Running", "Stable", "V2Dir", "Valid"], "country": "de", "consensus_weight": 250, "observed_bandwidth": 844800, "advertised_bandwidth": 768000, "exit_policy": ["reject *:*"], "ipv4_address": "31.19.81.71", "latitude": 52.4171, "longitude": 10.7178, "distance": 970.1850995455992}, {"nickname": "mrTrololol", "fingerprint": "29B1C166067AD33922989492F73BCD3E6E0667CA", "or_addresses": ["185.69.54.127:9001"], "flags": ["Fast", "Running", "Valid"], "country": "lt", "consensus_weight": 3700, "observed_bandwidth": 4056139, "advertised_bandwidth": 4056139, "exit_policy": ["reject *:*"], "ipv4_address": "185.69.54.127", "latitude": 55.4167, "longitude": 24.0, "distance": 971.6730616846216}, {"nickname": "Plutonium", "fingerprint": "6859D71E3E1323F959F9E0559E83A9088C462684", "or_addresses": ["141.98.11.195:9001"], "flags": ["Fast", "Running", "V2Dir", "Valid"], "country": "lt", "consensus_weight": 1, "observed_bandwidth": 7912052, "advertised_bandwidth": 7912052, "exit_policy": ["reject *:*"], "ipv4_address": "141.98.11.195", "latitude": 55.4167, "longitude": 24.0, "distance": 971.6730616846216}, {"nickname": "TorGuard2G1", "fingerprint": "BD3D15319E778565E30992C3CE541BA5B9048CA1", "or_addresses": ["5.199.162.76:443"], "flags": ["Fast", "Running", "Stable", "Valid"], "country": "lt", "consensus_weight": 210, "observed_bandwidth": 760000, "advertised_bandwidth": 734003, "exit_policy": ["reject *:*"], "ipv4_address": "5.199.162.76", "latitude": 55.4167, "longitude": 24.0, "distance": 971.6730616846216}, {"nickname": "wintergust", "fingerprint": "F22A238894E85D2D25036553A4601961EBFC2F03", "or_addresses": ["141.98.11.131:443"], "flags": ["BadExit", "Fast", "MiddleOnly", "Running", "Stable", "Valid"], "country": "lt", "consensus_weight": 26000, "observed_bandwidth": 23062665, "advertised_bandwidth": 23062665, "exit_policy": ["reject 0.0.0.0/8:*", "reject 169.254.0.0/16:*", "reject 127.0.0.0/8:*", "reject 192.168.0.0/16:*", "reject 10.0.0.0/8:*", "reject 172.16.0.0/12:*", "reject 141.98.11.131:*", "accept *:20-21", "accept *:22", "accept *:23", "accept *:43", "accept *:53", "accept *:79", "accept *:80-81", "accept *:88", "accept *:110", "accept *:143", "accept *:194", "accept *:220", "accept *:389", "accept *:443", "accept *:464", "accept *:465", "accept *:531", "accept *:543-544", "accept *:554", "accept *:563", "accept *:587", "accept *:636", "accept *:706", "accept *:749", "accept *:873", "accept *:902-904", "accept *:981", "accept *:989-990", "accept *:991", "accept *:992", "accept *:993", "accept *:994", "accept *:995", "accept *:1194", "accept *:1220", "accept *:1293", "accept *:1500", "accept *:1533", "accept *:1677", "accept *:1723", "accept *:1755", "accept *:1863", "accept *:2082", "accept *:2083", "accept *:2086-2087", "accept *:2095-2096", "accept *:2102-2104", "accept *:3128", "accept *:3389", "accept *:3690", "accept *:4321", "accept *:4643", "accept *:5050", "accept *:5190", "accept *:5222-5223", "accept *:5228", "accept *:5900", "accept *:6660-6669", "accept *:6679", "accept *:6697", "accept *:8000", "accept *:8008", "accept *:8074", "accept *:8080", "accept *:8082", "accept *:8087-8088", "accept *:8232-8233", "accept *:8332-8333", "accept *:8443", "accept *:8888", "accept *:9418", "accept *:9999", "accept *:10000", "accept *:11371", "accept *:19294", "accept *:19638", "accept *:50002", "accept *:64738", "reject *:*"], "ipv4_address": "141.98.11.131", "latitude": 55.4167, "longitude": 24.0, "distance": 971.6730616846216}, {"nickname": "TumblerOne", "fingerprint": "DB5882AB3DB66BE9EB98158AC386268CC019F104", "or_addresses": ["84.183.230.145:9001"], "flags": ["Running", "Valid"], "country": "de", "consensus_weight": 9, "observed_bandwidth": 128112, "advertised_bandwidth": 128112, "exit_policy": ["reject *:*"], "ipv4_address": "84.183.230.145", "latitude": 52.3851, "longitude": 9.7431, "distance": 977.9135515616159}, {"nickname": "turing", "fingerprint": "FE56E9E53E8F690B6B48B4A76213BE64F2B7B1AE", "or_addresses": ["85.183.60.50:9001"], "flags": ["Running", "Stable", "V2Dir", "Valid"], "country": "de", "consensus_weight": 15, "observed_bandwidth": 161891, "advertised_bandwidth": 161891, "exit_policy": ["reject *:*"], "ipv4_address": "85.183.60.50", "latitude": 52.3674, "longitude": 13.518, "distance": 983.5197242496249}, {"nickname": "STBG", "fingerprint": "DF973BAF61EDEE3BA27A3B74DEA57691EBCFCE5D", "or_addresses": ["79.231.19.229:9001"], "flags": ["Fast", "Running", "V2Dir", "Valid"], "country": "de", "consensus_weight": 6400, "observed_bandwidth": 6262297, "advertised_bandwidth": 6262297, "exit_policy": ["reject *:*"], "ipv4_address": "79.231.19.229", "latitude": 52.2602, "longitude": 10.4976, "distance": 988.250711806076},